Time [s],Longitude [rad],Latitude [rad],Altitude [m],V North [m/s],V East [m/s],V Down [m/s],Roll [rad],Pitch [rad],Yaw [rad]
0.0,0.573337071406794,0.6089844335224215,-19.859909,-1.929191,-0.641182,0.006672,-0.004956735075663896,0.005969026041820607,3.3442253971996276
1.0025062656641603,0.573336758469259,0.6089843305479956,-19.867016,-1.989434,-0.476583,0.004822,-0.014067353771074298,0.007539822368615503,3.273574381812434
2.0050125313283207,0.5733364362814791,0.6089842589894964,-19.873699,-2.037641,-0.309663,0.009325,-0.00815068760681352,0.00905825881785057,3.211091838937133
3.007518796992481,0.573336107635981,0.6089842186723905,-19.887194,-2.07378,-0.160386,0.017127,-0.01075122819228507,0.008726646259971648,3.1591506135049787
4.010025062656641,0.5733357737544951,0.6089842057569541,-19.911047,-2.102422,-0.038982,0.025785,-0.01101302758008422,0.006981317007977318,3.1200902844716856
5.012531328320802,0.573335435509686,0.6089842134364029,-19.93936,-2.124815,0.04721,0.025236,-0.01033234917180643,0.004136430327226561,3.093107406969391
6.015037593984962,0.5733350942978173,0.6089842350784855,-19.961788,-2.144152,0.106313,0.0149,-0.0108035880698449,0.0020943951023931952,3.0766141851643845
7.017543859649122,0.5733347508170205,0.6089842652726816,-19.971588,-2.162604,0.146749,0.002068,-0.008360127117052838,0.0018500490071139892,3.069458265418038
8.020050125313283,0.5733344047182298,0.6089842989575361,-19.971121,-2.182909,0.171055,-0.004726,-0.011484266478122689,0.002670353755551324,3.0696153974105944
9.022556390977442,0.5733340551287807,0.6089843356094504,-19.96789,-2.206749,0.174899,-0.004531,-0.003892084231947355,0.004310963252425994,3.0775215294826186
10.025062656641603,0.573333702048673,0.6089843715632329,-19.966045,-2.227158,0.161244,-0.002442,-0.00481710873550435,0.005829399701661061,3.090751037946273
11.027568922305765,0.5733333451288409,0.6089844047244888,-19.969362,-2.239458,0.138572,0.006496,-0.008674286382411817,0.006911503837897545,3.10630204375459
12.030075187969924,0.5733329868127455,0.6089844305553618,-19.985052,-2.242814,0.101236,0.022089,-0.013124875974997358,0.0060911990894602095,3.1234759614211667
13.032581453634084,0.5733326373978292,0.608984446437858,-20.015512,-2.088961,0.007983,0.040297,-0.009232791743050004,0.00015707963267948965,3.24039565527873
14.035087719298245,0.5733323295217492,0.6089844106586082,-20.019623,-1.775735,-0.455404,-0.037497,0.02696533694331239,-0.026825710603152843,3.5359498155312044
15.037593984962406,0.5733320764490076,0.6089843115239069,-19.965492,-1.441507,-0.874935,-0.061752,0.0645771823237902,-0.010000736613927507,3.7987963659749657
16.040100250626566,0.5733318924913045,0.6089841607274594,-19.909838,-1.094613,-1.146108,-0.053509,0.01876228945893904,-0.008325220532012952,4.02659649559917
17.042606516290725,0.5733317594972155,0.608983923537214,-19.86515,-0.774255,-1.34793,-0.03217,0.09370672753957555,0.0005061454830783556,4.22819993128264
18.045112781954884,0.5733316704854237,0.6089836542329105,-19.861099,-0.471191,-1.505276,0.011289,0.013578661580515884,0.0022514747350726853,4.408823776318854
19.047619047619047,0.5733316235360667,0.6089833575269377,-19.875912,-0.183405,-1.641513,0.009348,0.04883431247080134,-0.004153883619746504,4.573792751002962
20.050125313283207,0.5733316207435399,0.6089830360372894,-19.878002,0.09604,-1.732396,-0.01027,0.04944517770899936,-0.0034557519189487725,4.724082389667079
21.052631578947366,0.5733316579190529,0.6089827016322048,-19.864986,0.366685,-1.774474,-0.018758,0.027733281814189895,-0.002775073510670984,4.860899098796765
22.05513784461153,0.5733317361098035,0.6089823612930007,-19.85161,0.616441,-1.790502,-0.007875,0.04143411644234538,0.00015707963267948965,4.979843322226763
23.05764411027569,0.5733318507779354,0.6089820195575331,-19.855021,0.835383,-1.807341,0.010664,0.03787364476827695,0.0016057029118347831,5.072380714074088
24.06015037593985,0.5733319987818559,0.6089816746804729,-19.873007,1.018309,-1.834246,0.019332,0.028379053637427796,0.000767944870877505,5.136155428914396
25.062656641604008,0.5733321764563737,0.6089813245674248,-19.88909,1.166824,-1.866466,0.010532,0.01907644872429802,-0.0014311699866353504,5.170276388898082
26.065162907268167,0.5733323743767109,0.6089809669494611,-19.892498,1.266672,-1.905228,-0.002418,0.018989182261698306,-0.00445058959258554,5.171637257022447
27.06766917293233,0.5733325839907542,0.6089806014775159,-19.884348,1.296257,-1.964116,-0.007797,0.011955505376161158,-0.004310963252425994,5.138092081158994
28.07017543859649,0.573332792208534,0.6089802251845291,-19.880373,1.248549,-2.045764,0.000876,0.002495820830351891,-0.0026354471705114374,5.075713926426253
29.07268170426065,0.5733329885580748,0.6089798359761059,-19.885546,1.133686,-2.14182,0.006875,-0.0074176493209759005,-0.0005061454830783556,4.991397174982163
30.075187969924812,0.5733331616947365,0.6089794310597194,-19.890495,0.974678,-2.229052,-0.004163,-0.008045967851693859,-0.0004886921905584122,4.8966259362252105
31.07769423558897,0.573333305160801,0.6089790127042978,-19.880943,0.782552,-2.285249,-0.016873,-0.014538592669112765,0.001239183768915974,4.79693262463154
32.08020050125313,0.5733334133712147,0.6089785859712956,-19.86989,0.56663,-2.314753,-0.003943,-0.019128808601857852,0.006056292504420323,4.699543496716352
33.08270676691729,0.5733334858023786,0.6089781566202996,-19.878511,0.349289,-2.337136,0.015315,-0.008831366015091307,0.007714355293814937,4.611491391607142
34.08521303258145,0.5733335231524246,0.608977721858783,-19.898788,0.154562,-2.355519,0.01605,-0.011187560505283653,0.005864306286700947,4.538798288635238
35.08771929824561,0.5733335299592086,0.6089772846538053,-19.910385,-0.008556,-2.357424,0.004209,-0.009983283321407565,0.004031710572106902,4.482860713001623
36.09022556390977,0.5733335123313832,0.6089768481469594,-19.916616,-0.138979,-2.351917,0.007683,-0.011501719770642632,0.003560471674068432,4.444149537085192
37.092731829573935,0.5733334763776007,0.608976410418383,-19.929974,-0.23351,-2.36121,0.013353,-0.011274826967883369,0.0025830872929516074,4.4223150841703065
38.095238095238095,0.5733334271593158,0.6089759683264835,-19.942638,-0.289486,-2.380352,0.004457,-0.009721483933608416,0.0014311699866353504,4.417654810721387
39.097744360902254,0.5733333709597138,0.608975521347662,-19.942451,-0.305034,-2.399598,-0.006532,-0.007871434926494426,0.0019896753472735357,4.4259628048536825
40.100250626566414,0.5733333152837108,0.6089750705291163,-19.93885,-0.292011,-2.421244,0.000449,-0.0038222710618675817,0.005480333851262195,4.445545573593984
41.10275689223057,0.5733332639710307,0.6089746143000497,-19.947092,-0.253688,-2.456861,0.012866,-0.003560471674068432,0.006841690667817772,4.473017143286838
42.10526315789473,0.5733332208613983,0.6089741596417797,-19.9545,-0.173104,-2.352399,0.015002,-0.0633729051399141,0.014067353771074298,4.552516751088839
43.10776942355889,0.5733332149272787,0.6089737377956994,-19.955349,0.213508,-2.144446,-0.048194,0.01007054978400728,-0.024452062820440556,4.814717756602165
44.11027568922306,0.5733332782827305,0.6089733627244431,-19.891245,0.693372,-1.866998,-0.055885,0.1619316480000339,0.005829399701661061,5.108020197773472
45.11278195488722,0.5733333821298211,0.6089730604334167,-19.867714,1.107072,-1.611277,0.00852,0.08066911802717791,0.02515019452123829,5.336029941440841
46.11528822055138,0.573333564342195,0.6089727883365864,-19.88772,1.3882,-1.521234,0.028484,0.09902998175815826,0.01764527873766267,5.424256195502815
47.11779448621554,0.5733337971691171,0.6089725179850852,-19.904839,1.553047,-1.522809,0.007014,-0.005602506898901798,0.003560471674068432,5.444083432511443
48.1203007518797,0.5733340701386122,0.6089722486807816,-19.892494,1.625238,-1.499059,-0.027709,-0.006911503837897545,-0.006178465552059927,5.449895518546924
49.122807017543856,0.5733343422354426,0.6089719785038133,-19.852997,1.642354,-1.449767,-0.046812,-0.0019373154697137059,-0.009389871375729494,5.452879857034909
50.125313283208015,0.5733346082236206,0.6089717107703062,-19.810329,1.647171,-1.413088,-0.036002,-0.002495820830351891,-0.0058468529941810045,5.452007401848421
51.127819548872175,0.5733348675795474,0.6089714535087744,-19.785767,1.641943,-1.395446,-0.014787,-0.0018849555921538759,-0.000296705972839036,5.447364442065682
52.130325814536334,0.5733351237938816,0.6089711983416378,-19.779331,1.632516,-1.388224,-0.003466,-0.014870205226991687,0.002949606435870417,5.4431412165147535
53.1328320802005,0.5733353784374194,0.6089709443962316,-19.77467,1.616538,-1.377249,-0.010887,-0.01228711793404008,0.005270894341022875,5.439440472728703
54.13533834586466,0.5733356301138977,0.6089706907998913,-19.757929,1.59816,-1.352611,-0.023695,-0.008970992355250854,0.008866272600131194,5.437171998486716
55.13784461152882,0.5733358784742503,0.6089704424395388,-19.733528,1.581688,-1.318021,-0.021322,-0.0020594885173533086,0.01514945790731078,5.435757862913579
56.14035087719298,0.5733361235184772,0.608970201584102,-19.721666,1.568323,-1.292691,0.0016,-0.006911503837897545,0.022671826983406338,5.43340203494253
57.14285714285714,0.5733363664683091,0.6089699635211919,-19.737125,1.554887,-1.286004,0.027552,-0.009337511498169663,0.02707005669843205,5.429579851147125
58.1453634085213,0.5733366076728117,0.6089697265054796,-19.770802,1.538438,-1.286303,0.034999,-0.01054178868204575,0.025743606466916362,5.42580988760294
59.14786967418546,0.5733368464338534,0.6089694900133659,-19.799568,1.519847,-1.277161,0.020255,-0.008604473212332044,0.02223549467040776,5.424012250833263
60.150375939849624,0.5733370825769011,0.6089692554411145,-19.811914,1.504782,-1.249889,0.006323,-0.00905825881785057,0.021031217486531674,5.422929954710809
61.152882205513784,0.5733373159274221,0.6089690264539166,-19.815908,1.489738,-1.220035,0.005324,-0.007400196028455957,0.022218041377887812,5.420137358094448
62.15538847117794,0.5733375461363505,0.6089688027027065,-19.827734,1.473967,-1.201175,0.019972,-0.006230825429619756,0.02452187599052033,5.415983893353721
63.1578947368421,0.5733377737272849,0.6089685813949574,-19.857153,1.456326,-1.195808,0.037722,-0.008936085770210968,0.02426007660272118,5.411532675442605
64.16040100250626,0.5733379974784951,0.608968360436274,-19.9,1.439254,-1.196331,0.043873,-0.005462880558742251,0.02066469834361286,5.40811212681467
65.16290726817043,0.5733382207061064,0.6089681389539919,-19.939085,1.424963,-1.190896,0.031035,-0.00895353906273091,0.014538592669112765,5.406070004323373
66.16541353383458,0.5733384418393226,0.608967919566105,-19.956648,1.41013,-1.170558,0.005465,-0.0072082098107365804,0.009302604913129777,5.405319530198309
67.16791979949875,0.5733386610526766,0.6089677041924753,-19.953852,1.391725,-1.144164,-0.007757,-0.0045204027626653135,0.007592182246175334,5.404586090486743
68.1704260651629,0.5733388762517734,0.6089674919604382,-19.948664,1.376092,-1.125727,5.1e-05,0.00022689280275926284,0.009232791743050004,5.40259725289751
69.17293233082707,0.5733390888328763,0.6089672889786463,-19.957563,1.33607,-1.073567,0.015632,0.05242969072990966,0.01022762941668677,5.342260662150706
70.17543859649122,0.5733392898948061,0.608967081982597,-19.976753,1.234231,-1.174568,0.018715,0.08689994345679768,0.006283185307179586,5.175407238019925
71.17794486215539,0.573339476994102,0.6089668659108355,-19.989799,1.03298,-1.290919,0.006455,0.07394960040699974,-0.004241150082346221,4.965409519125941
72.18045112781954,0.5733396318048065,0.608966638494434,-19.978609,0.768354,-1.361777,-0.025192,0.009459684545809267,-0.007260569688296411,4.748674550066577
73.1829573934837,0.5733397387934898,0.6089663974644643,-19.955606,0.466404,-1.38281,-0.017007,0.02546435378659727,0.0016929693744344998,4.536930873602068
74.18546365914787,0.5733397911533673,0.6089661491041117,-19.936834,0.171219,-1.402233,-0.018121,-0.02035053907825388,0.006213372137099813,4.356656164229423
75.18796992481202,0.5733397937713611,0.608965898649364,-19.928699,-0.102608,-1.398919,0.0046,0.00013962634015954637,0.013631021458075715,4.203486051621108
76.19047619047619,0.5733397499635969,0.6089656438312933,-19.939575,-0.349265,-1.378178,0.013945,0.034016467121369486,0.011414453308042916,4.07300500984921
77.19298245614034,0.5733396674095234,0.6089653911076176,-19.958149,-0.582908,-1.332051,0.022261,0.04843288674284264,0.007086036763096978,3.958005195622133
78.19548872180451,0.5733395502979306,0.6089651469360553,-19.981884,-0.797895,-1.272747,0.027111,0.053791047546465236,0.003438298626428829,3.8619947730962654
79.19799498746866,0.5733394014213453,0.6089649135855343,-20.00812,-0.983642,-1.21634,0.029666,0.057735491655972415,0.001239183768915974,3.7897381595169923
80.20050125313283,0.5733392247940251,0.6089646908815217,-20.032993,-1.143458,-1.167685,0.020241,0.05337216852598659,-3.490658503988659e-05,3.734027214886748
81.203007518797,0.5733390277463525,0.6089644796966822,-20.044903,-1.225516,-1.087942,0.004069,0.03900810878207326,-0.0005410520681182421,3.697253232266983
82.20551378446115,0.5733388226701653,0.608964281776345,-20.040695,-1.26603,-1.034233,-0.007242,0.02298598624876532,0.0009075712110370514,3.695682226500678
83.20802005012531,0.573338615848649,0.6089640899646602,-20.040241,-1.276432,-1.033422,0.010564,0.03275983005993357,0.0023038346126325153,3.7297685591520047
84.21052631578947,0.5733384102488631,0.6089638998983047,-20.062132,-1.251536,-1.100978,0.034073,0.04836307357276287,0.0022165681500327986,3.7916404462286186
85.21303258145363,0.5733382114558614,0.608963691505992,-20.100014,-1.183538,-1.213948,0.036726,0.04431390970813603,-0.001308996938995747,3.8724317023968515
86.21553884711778,0.5733380276726912,0.6089634578064052,-20.12443,-1.075272,-1.332016,0.010495,0.03818780403363593,-0.0056374134839416844,3.966138482296304
87.21804511278195,0.5733378643098732,0.6089631982759454,-20.119186,-0.943918,-1.432608,-0.014628,0.054244833151983765,-0.005026548245743669,4.067088535671166
88.22055137844612,0.573337724683533,0.6089629221648577,-20.099852,-0.794806,-1.517984,-0.016515,0.056007615696498037,-0.0012915436464758037,4.175106875810633
89.22305764411027,0.5733376105389999,0.6089626294731422,-20.092875,-0.62059,-1.60304,0.005487,0.06096435077216193,0.0018151424220741027,4.288465940914494
90.22556390977444,0.5733375257159982,0.608962321946128,-20.10998,-0.418271,-1.681485,0.025068,0.05656612105713622,0.0012740903539558606,4.405123573584871
91.22807017543859,0.5733374756250487,0.6089620016782101,-20.139252,-0.201192,-1.736113,0.024753,0.0555887366760194,-0.003473205211468716,4.521048307595749
92.23057644110276,0.5733374602661513,0.6089616728581791,-20.154282,0.008315,-1.749155,0.001511,0.04951499087907913,-0.009285151620609835,4.632906406996188
93.23308270676691,0.5733374778939767,0.6089613456089443,-20.139883,0.201182,-1.720239,-0.026456,0.04707152992628707,-0.012007865253720986,4.740087460333594
94.23558897243107,0.573337526065064,0.6089610270863559,-20.10675,0.379095,-1.664418,-0.032202,0.04808382089244378,-0.009616764178488757,4.842189326295018
95.23809523809523,0.573337600765156,0.608960721304671,-20.081343,0.542744,-1.599143,-0.01327,0.04401720373529699,-0.005794493116621174,4.936785875047138
96.2406015037594,0.5733376983290612,0.6089604284384225,-20.081465,0.687065,-1.534583,0.011335,0.03815289744859604,-0.0050789081233034985,5.023232085258295
97.24310776942356,0.5733378171859833,0.6089601481385446,-20.098513,0.804745,-1.467452,0.017672,0.02701769682087222,-0.008918632477691025,5.10093405629062
98.24561403508771,0.5733379527980662,0.608959881277702,-20.109753,0.898927,-1.390698,0.002132,0.022514747350726852,-0.014241886696273728,5.171218604894771
99.24812030075188,0.5733381013255855,0.6089596297757568,-20.102423,0.973935,-1.303086,-0.014897,0.021659536017249632,-0.017016960206944712,5.233963226410553
100.25062656641603,0.5733382603250804,0.6089593955525712,-20.084248,1.033521,-1.216221,-0.017385,0.026145032194875056,-0.016720254234105676,5.2888882492786236
101.2531328320802,0.573338426654958,0.6089591761646842,-20.07197,1.080296,-1.143741,-0.005226,0.02392846404484226,-0.015498523757709647,5.335803031184789
102.25563909774435,0.5733385999661529,0.6089589700412995,-20.073792,1.118217,-1.088253,0.006481,0.01345648853287628,-0.016091935703387718,5.374950975746532
103.25814536340852,0.573338779211467,0.6089587736917587,-20.082067,1.147401,-1.042932,0.005808,0.00710349005561692,-0.019285888234537342,5.408478576144418
104.26065162907267,0.5733389622965055,0.608958584149002,-20.081966,1.166586,-0.995744,-0.008825,0.01001818990644745,-0.023579398194443393,5.436700619962337
105.26315789473684,0.5733391474759392,0.6089584021111609,-20.068842,1.181094,-0.951564,-0.017532,0.01733111947230369,-0.025621433419276758,5.460262669584015
106.265664160401,0.5733393349243008,0.6089582287999662,-20.052561,1.194298,-0.917979,-0.0141,0.020176006153054447,-0.02495820830351891,5.478553789958085
107.26817042606515,0.5733395232453271,0.6089580593284959,-20.043346,1.209055,-0.898115,-0.006247,0.020245819323134222,-0.02356194490192345,5.492987593058909
108.27067669172932,0.5733397152315449,0.6089578933476839,-20.0382,1.22461,-0.885734,-0.00784,0.019512781037296607,-0.023701571242082997,5.504715629673657
109.27318295739347,0.5733399096612235,0.6089577291122014,-20.025282,1.237636,-0.86982,-0.020042,0.017558012275062956,-0.02431243648028101,5.5144899621770165
110.27568922305764,0.5733401053126326,0.6089575681928443,-20.002207,1.244732,-0.852003,-0.025582,0.018483036778619948,-0.022741640153486113,5.5216629163368625
111.27819548872179,0.573340302883904,0.6089574095424153,-19.980165,1.248209,-0.840243,-0.017927,0.018430676901060122,-0.01905899543177808,5.526584971720289
112.28070175438596,0.5733405002806424,0.6089572526373156,-19.969139,1.249379,-0.838152,-0.005787,0.017191493132144145,-0.015184364492350668,5.5296220366049775
113.28320802005013,0.5733406973283149,0.6089570964303475,-19.96636,1.250388,-0.837715,-0.003137,0.01494001839707146,-0.013351768777756621,5.532903046159217
114.28571428571428,0.5733408943759875,0.6089569390016489,-19.961521,1.254921,-0.829921,-0.008237,0.01827359726838063,-0.012479104151759455,5.536865310080386
115.28822055137844,0.5733410924708576,0.6089567827946809,-19.951757,1.263981,-0.817151,-0.010614,0.02069960492865275,-0.010943214410004447,5.540512768964374
116.2907268170426,0.5733412917874582,0.6089566304274372,-19.942102,1.271453,-0.808301,-0.007734,0.016091935703387718,-0.008726646259971648,5.543183384519314
117.29323308270676,0.5733414921512563,0.6089564789328581,-19.936401,1.271414,-0.808054,-0.003749,0.012409290981679682,-0.006649704450098395,5.54487609209436
118.29573934837092,0.5733416916423898,0.6089563277873449,-19.932949,1.266757,-0.810671,-0.004039,0.011135200627723822,-0.005253441048502932,5.547197310186342
119.29824561403508,0.5733418914825892,0.6089561759437,-19.928215,1.266621,-0.807551,-0.005246,0.013805554383275147,-0.003944444109507185,5.551386449456979
120.30075187969925,0.5733420909737227,0.6089560251472527,-19.924948,1.274448,-0.797947,-0.001205,0.01691224045182505,-0.0024260076602721182,5.557319975501814
121.3032581453634,0.5733422923847183,0.6089558753980028,-19.92864,1.284679,-0.787995,0.006804,0.015289084247470327,-0.0019722220547535923,5.563499051919113
122.30576441102757,0.5733424943193127,0.6089557279176809,-19.937946,1.289557,-0.78259,0.009313,0.011658799403322121,-0.0028099800957108708,5.569694621697842
123.30827067669172,0.5733426978247036,0.6089555811354909,-19.944178,1.290801,-0.778508,0.001757,0.011588986233242348,-0.004642575810304917,5.5773219199685675
124.31077694235589,0.5733429011555614,0.6089554352259655,-19.939861,1.293308,-0.770131,-0.009759,0.016493361431346415,-0.005253441048502932,5.586589181964344
125.31328320802004,0.5733431058826827,0.6089552903636375,-19.92753,1.301552,-0.7556,-0.013264,0.016929693744344994,-0.003979350694547071,5.597271120585325
126.3157894736842,0.5733433116570015,0.608955148991968,-19.917828,1.31179,-0.740708,-0.005014,0.015254177662430441,-0.001413716694115407,5.608249206673784
127.31829573934836,0.573343518129452,0.6089550109364243,-19.918495,1.319055,-0.729511,0.004459,0.013840460968315035,0.0003141592653589793,5.6194014591683
128.32080200501252,0.5733437270453635,0.6089548742771439,-19.924578,1.322813,-0.719368,0.004946,0.012636183784438945,0.0006632251157578452,5.631566246975068
129.32330827067668,0.573343935961275,0.6089547393631927,-19.928213,1.32761,-0.704172,0.001231,0.015899949485668342,0.00022689280275926284,5.645040782212409
130.32581453634086,0.5733441455753181,0.6089546075908342,-19.930424,1.337834,-0.68683,0.003524,0.019303341527057285,0.0004537856055185257,5.658758721067234
131.328320802005,0.5733443565856247,0.608954479309134,-19.937601,1.349562,-0.674094,0.009632,0.014276793281313614,0.0008726646259971648,5.672128327109947
132.33082706766916,0.5733445700393922,0.608954353296362,-19.94771,1.357256,-0.664356,0.008176,0.012374384396639796,-8.726646259971648e-05,5.686020973422897
133.33333333333331,0.5733447845403572,0.6089542302506498,-19.951073,1.36021,-0.649887,-0.001846,0.014660765716752368,-0.0013962634015954637,5.7013272142569145
134.3358395989975,0.5733450002630529,0.6089541096483986,-19.945036,1.365312,-0.627926,-0.00859,0.018203784098300854,-0.0014486232791552935,5.717785546930173
135.33834586466165,0.5733452154621496,0.6089539930604045,-19.938375,1.375678,-0.604326,-0.003007,0.020263272615654165,0.00019198621771937625,5.734035103318308
136.3408521303258,0.5733454322320426,0.6089538803121348,-19.941067,1.387592,-0.586411,0.007281,0.016650441064025905,0.0014835298641951802,5.749638032671872
137.34335839598998,0.5733456514453967,0.608953770181859,-19.951389,1.395979,-0.572397,0.010153,0.01520181778487061,0.0012566370614359172,5.765572784022825
138.34586466165413,0.5733458715314154,0.6089536635422418,-19.959209,1.40003,-0.556588,0.003536,0.014695672301792254,-0.00015707963267948965,5.782433258009036
139.34837092731829,0.5733460931882304,0.6089535605678158,-19.958498,1.404537,-0.538583,-0.004043,0.017208946424664088,-0.0010122909661567112,5.799606913876225
140.35087719298244,0.5733463157177101,0.6089534593387192,-19.952185,1.411682,-0.521518,-0.006921,0.018186330805780915,-0.0004537856055185257,5.816798162662274
141.35338345864662,0.5733465396434531,0.6089533626474787,-19.945385,1.420945,-0.503175,-0.006506,0.018430676901060122,0.000767944870877505,5.834286606113352
142.35588972431077,0.5733467642673279,0.608953268748765,-19.939802,1.429454,-0.480973,-0.004877,0.016720254234105676,0.002007128639793479,5.852158550760971
143.35839598997492,0.5733469899384,0.6089531793879073,-19.936932,1.43579,-0.457865,-0.000514,0.018133970928221083,0.0034557519189487725,5.870048594472934
144.36090225563908,0.5733472161330712,0.6089530947394385,-19.938032,1.439788,-0.43829,0.002111,0.018919369091618534,0.004485496177625427,5.8876414435198665
145.36340852130326,0.5733474435494726,0.608953014454293,-19.939777,1.442095,-0.420033,0.000328,0.019093902016817967,0.005096361415823442,5.90485025031819
146.3659147869674,0.5733476711404072,0.6089529364380754,-19.938578,1.445967,-0.398642,-0.002527,0.019669860669976093,0.005759586531581287,5.921954668973952
147.36842105263156,0.5733478994294733,0.6089528619125163,-19.937626,1.453488,-0.376643,0.001906,0.02106612407157156,0.00710349005561692,5.9389536348363094
148.37092731829574,0.5733481294638687,0.6089527922738792,-19.944012,1.463302,-0.361853,0.010611,0.017505652397503124,0.008028514559173916,5.955447118440704
149.3734335839599,0.5733483612435933,0.608952725078703,-19.955076,1.470855,-0.352302,0.009326,0.01473057888683214,0.006614797865058509,5.972132884968789
150.37593984962405,0.5733485942450486,0.6089526601524547,-19.957232,1.471901,-0.333699,-0.00488,0.014713125594312197,0.0041887902047863905,5.990109217758971
151.3784461152882,0.5733488263738391,0.6089525994149969,-19.945993,1.469402,-0.303559,-0.013959,0.020245819323134222,0.004049163864626845,6.00806905718772
152.38095238095238,0.5733490579790308,0.6089525442625924,-19.934397,1.471046,-0.275823,-0.005822,0.022392574303087248,0.006614797865058509,6.024789433594873
153.38345864661653,0.5733492901078212,0.608952494171643,-19.936325,1.479055,-0.261006,0.009025,0.020420352248333655,0.008883725892651137,6.040061064549824
154.38596491228068,0.5733495238074081,0.6089524463496214,-19.947397,1.487274,-0.251448,0.009993,0.013316862192716735,0.008185594191853406,6.055175039913442
155.38847117794487,0.5733497585541926,0.6089524002729291,-19.953268,1.490316,-0.233255,0.000716,0.013002702927357754,0.006370451769779303,6.071668523517836
156.39097744360902,0.5733499938245757,0.6089523576868955,-19.950541,1.488078,-0.209314,-0.004453,0.019408061282176946,0.005864306286700947,6.0884592366938435
157.39348370927317,0.573350228745893,0.6089523177188555,-19.947132,1.486198,-0.191797,-0.001321,0.019303341527057285,0.007086036763096978,6.104149502323178
158.39598997493732,0.5733504631436116,0.6089522817650729,-19.948732,1.489021,-0.181143,0.003318,0.014957471689591405,0.008272860654453122,6.119840326457873
159.3984962406015,0.5733506985885277,0.6089522489528829,-19.950865,1.495253,-0.165931,0.000491,0.015289084247470327,0.008447393579652554,6.136350861929058
160.40100250626566,0.5733509356042401,0.6089522192822857,-19.947632,1.499397,-0.140446,-0.005417,0.016632987771505958,0.008377580409572781,6.153699225254371
161.4035087719298,0.5733511726199525,0.6089521938004786,-19.941256,1.498422,-0.112588,-0.005301,0.019617500792416268,0.009128071987930343,6.1699311887236465
162.406015037594,0.573351409286599,0.6089521735546594,-19.940136,1.496649,-0.092828,0.003263,0.017872171540421936,0.01069886831472524,6.185028112220473
163.40852130325814,0.5733516459532457,0.6089521580212289,-19.948555,1.497408,-0.082967,0.012164,0.015236724369910496,0.011658799403322121,6.1995146417179985
164.4110275689223,0.573351883143491,0.6089521431859304,-19.960382,1.499946,-0.075143,0.009379,0.013316862192716735,0.01069886831472524,6.214489060554627
165.41353383458645,0.5733521206828022,0.608952129921428,-19.964327,1.501689,-0.057842,-0.00193,0.015114551322270894,0.009075712110370514,6.230807854154189
166.41604010025063,0.5733523587457121,0.6089521203221171,-19.957397,1.501616,-0.032007,-0.010085,0.01689478715930511,0.008499753457212385,6.247144223219318
167.41854636591478,0.5733525959359576,0.6089521147370636,-19.947796,1.50128,-0.006917,-0.00766,0.017278759594743863,0.009599310885968814,6.262730100706091
168.42105263157893,0.5733528333007357,0.6089521147370636,-19.944401,1.501267,0.010622,0.001177,0.014974924982111348,0.011623892818282236,6.27754792860223
169.4235588972431,0.5733530696183166,0.6089521184022549,-19.949783,1.501085,0.022346,0.007986,0.015254177662430441,0.012688543661998775,0.009180431865490174
170.42606516290726,0.5733533059358972,0.6089521222419794,-19.958717,1.500424,0.032561,0.008204,0.015027284859671176,0.012758356832078549,0.024696408915719763
171.42857142857142,0.5733535433006756,0.6089521278270329,-19.964899,1.499694,0.047344,0.003143,0.016859880574265223,0.012164944886400476,0.04073598474154765
172.43107769423557,0.573353780141855,0.6089521372518109,-19.964569,1.498413,0.06804,-0.002361,0.017034413499464655,0.011711159280881952,0.0572817060504539
173.43358395989975,0.5733540168085016,0.6089521515635107,-19.959822,1.497772,0.091607,-0.004482,0.018238690683340743,0.012252211349000192,0.07361798784912083
174.4360902255639,0.5733542534751481,0.608952169540402,-19.955919,1.496565,0.113338,-0.00165,0.015865042900628457,0.013264502315156905,0.08962265708990882
175.43859649122805,0.5733544896181959,0.6089521924042153,-19.957201,1.495046,0.13123,0.005067,0.015899949485668342,0.013805554383275147,0.10531316706533785
176.44110275689223,0.5733547257612437,0.6089522184096211,-19.96666,1.493611,0.144991,0.013808,0.015498523757709647,0.013648474750595658,0.12098622374824693
177.4436090225564,0.5733549619042915,0.6089522459858232,-19.983208,1.492203,0.153166,0.018072,0.013892820845874863,0.012531464029319286,0.13707817690492716
178.44611528822054,0.5733551989200039,0.6089522742601571,-19.997231,1.490526,0.161599,0.009107,0.012740903539558606,0.010733774899765127,0.1540776663660594
179.4486215538847,0.5733554347139859,0.6089523053270178,-19.996695,1.487249,0.182516,-0.008669,0.015481070465189704,0.009250245035569947,0.17212437083168078
180.45112781954887,0.573355669984369,0.6089523404081357,-19.98103,1.483788,0.217542,-0.017131,0.01884955592153876,0.009773843811168246,0.19029324834494177
181.45363408521303,0.5733559056038181,0.6089523836923012,-19.966955,1.48004,0.254602,-0.007215,0.018727382873899155,0.011571532940722405,0.20678660977628818
182.45614035087718,0.5733561396524707,0.6089524336087179,-19.970303,1.47598,0.274354,0.013868,0.013229595730117017,0.012897983172238095,0.22113321622768156
183.45864661654133,0.5733563731775247,0.6089524859685954,-19.992907,1.472872,0.273732,0.028392,0.01153662635568252,0.011972958668681102,0.23493875315766416
184.4611528822055,0.5733566061789798,0.6089525374558084,-20.019989,1.472195,0.265974,0.022889,0.011309733552923256,0.008831366015091307,0.25048965424622616
185.46365914786966,0.5733568383077703,0.6089525863250274,-20.032112,1.471025,0.274425,0.001116,0.01710422666954443,0.005550147021341968,0.2685712652968874
186.46616541353382,0.5733570699129621,0.6089526365905099,-20.020725,1.467195,0.307452,-0.020234,0.02076941809873252,0.004468042885105484,0.28796189073983697
187.468671679198,0.5733573011690879,0.6089526954081056,-19.995796,1.459783,0.351447,-0.023756,0.02087413785385218,0.006003932626860493,0.3060434843372057
188.47117794486215,0.5733575324252138,0.6089527633014136,-19.978636,1.451751,0.384054,-0.007449,0.016615534478986015,0.008412486994612669,0.3216816344350749
189.4736842105263,0.5733577621105435,0.6089528378269726,-19.984121,1.446649,0.393357,0.016912,0.012688543661998775,0.010000736613927507,0.33566168683696446
190.47619047619045,0.573357991795873,0.6089529135742622,-20.009682,1.44452,0.387338,0.029072,0.008761552845011534,0.00895353906273091,0.35053192697054114
191.47869674185463,0.5733582206085379,0.6089529870526237,-20.036644,1.44357,0.386014,0.020165,0.013561208287995941,0.005986479334340551,0.36742671412984623
192.4812030075188,0.5733584488976041,0.608953058785656,-20.044918,1.440353,0.404299,-0.002977,0.017453292519943295,0.0033684854563490563,0.3863286299289449
193.48370927318294,0.5733586768376044,0.6089531354056101,-20.03093,1.43256,0.441608,-0.019956,0.020158552860534508,0.002478367537831948,0.40537017206820297
194.48621553884712,0.5733589037304071,0.6089532193559472,-20.009808,1.422195,0.48001,-0.016392,0.020402898955813712,0.0036302848441482054,0.4227012915405067
195.48872180451127,0.5733591278306831,0.6089533118583974,-20.001383,1.413815,0.500577,0.001657,0.01694714703686494,0.005340707511102648,0.43786818528704485
196.49122807017542,0.5733593507092286,0.6089534082005722,-20.010633,1.408778,0.504658,0.01468,0.012514010736799343,0.005969026041820607,0.4523719062777028
197.49373433583958,0.5733595732387082,0.6089535047172798,-20.025648,1.405894,0.507902,0.012671,0.012164944886400476,0.005148721293383272,0.4674689519475762
198.49624060150376,0.5733597950700562,0.6089536001867899,-20.032593,1.401692,0.522169,0.001097,0.01689478715930511,0.003839724354387525,0.48357839330336144
199.4987468671679,0.5733600167268712,0.6089536987978926,-20.028826,1.394184,0.546498,-0.00669,0.017976891295541596,0.002949606435870417,0.49993209348796325
200.50125313283206,0.5733602382091532,0.6089538017723185,-20.022295,1.3842,0.570669,-0.004711,0.017872171540421936,0.0025132741228718345,0.5161636555315106
201.50375939849624,0.5733604572479744,0.6089539096336662,-20.01968,1.375352,0.587595,0.000729,0.016441001553786583,0.002897246558310587,0.5314876638173133
202.5062656641604,0.5733606750650649,0.6089540206366066,-20.021694,1.369529,0.59974,0.003173,0.015341444125030157,0.0035953782591083188,0.546480059545237
203.50877192982455,0.5733608907877605,0.6089541346066069,-20.023516,1.364999,0.613143,-0.000268,0.015289084247470327,0.0038048177693476384,0.5617691263394148
204.5112781954887,0.5733611056377914,0.6089542515436667,-20.020115,1.359179,0.630316,-0.004927,0.016720254234105676,0.003298672286269283,0.5772153251261497
205.51378446115288,0.5733613199642236,0.6089543709241876,-20.013933,1.350327,0.649195,-0.004911,0.018046704465621368,0.0029321531433504737,0.5929755784584884
206.51629072681703,0.5733615325453264,0.608954493620834,-20.011797,1.340922,0.663938,0.00155,0.01635373509118687,0.0032288591161895096,0.6083170574901036
207.51879699248119,0.5733617449518965,0.6089546182373426,-20.016319,1.333393,0.675328,0.006649,0.015079644737231007,0.0037699111843077517,0.6237806397561884
208.52130325814534,0.5733619557876701,0.6089547461699767,-20.021635,1.326337,0.688866,0.003039,0.017296212887263806,0.003543018381548489,0.6398028146493738
209.52380952380952,0.5733621641799828,0.6089548779423353,-20.019497,1.316885,0.707906,-0.006208,0.016545721308906244,0.002775073510670984,0.6557376358134971
210.52631578947367,0.5733623711760321,0.608955011634556,-20.010656,1.305428,0.73051,-0.009292,0.019320794819577228,0.0027925268031909274,0.671148893108607
211.52882205513782,0.5733625776484825,0.6089551510863632,-20.003986,1.294569,0.75147,-0.002483,0.019460421159736774,0.003560471674068432,0.6860888940523859
212.531328320802,0.5733627815029392,0.6089552933306972,-20.00651,1.286196,0.765483,0.007215,0.017348572764823635,0.003996803987067015,0.700557708458004
213.53383458646616,0.5733629844847312,0.6089554390656898,-20.015579,1.280015,0.773309,0.009844,0.015079644737231007,0.003787364476827695,0.7146600037207032
214.5363408521303,0.5733631862447928,0.6089555839280176,-20.022371,1.271592,0.781519,0.003644,0.0170518667919846,0.0029321531433504737,0.7292858279458305
215.53884711779446,0.5733633871321897,0.6089557308847408,-20.020973,1.259668,0.79705,-0.004698,0.021240656996770992,0.002129301687433082,0.7446621786559006
216.54135338345864,0.5733635859251914,0.6089558809830564,-20.012966,1.247266,0.819117,-0.009049,0.021467549799530253,0.0021467549799530253,0.759794200723984
217.5438596491228,0.5733637821001993,0.6089560357937611,-20.004864,1.237542,0.840106,-0.006067,0.019233528356977513,0.0029845130209103037,0.7741931845062298
218.54636591478695,0.5733639768789439,0.6089561951423218,-20.001728,1.230945,0.855207,-0.000579,0.01637118838370681,0.0035081117965086025,0.7877543229810556
219.54887218045113,0.5733641714831555,0.6089563565852776,-20.00304,1.224767,0.864485,0.001736,0.015934856070708228,0.003438298626428829,0.8010712026270649
220.55137844611528,0.5733643641675049,0.6089565183772992,-20.003588,1.214952,0.873915,-0.000788,0.016004669240788003,0.0031066860685499066,0.8151036672663917
221.55388471177943,0.5733645556301238,0.6089566836599795,-20.000843,1.200984,0.886883,-0.003357,0.019687313962496036,0.0033335788713091696,0.8296073708037571
222.55639097744358,0.5733647443002161,0.6089568513861205,-19.997292,1.186102,0.902933,-0.001618,0.020193459445574394,0.004223696789826277,0.8443204614914843
223.55889724310777,0.573364931050446,0.6089570213811897,-19.997295,1.175597,0.918436,0.001786,0.019669860669976093,0.00476474885794452,0.8584925524709709
224.56140350877192,0.5733651164044125,0.6089571945178515,-20.000134,1.169371,0.931398,0.003002,0.018099064343181197,0.00476474885794452,0.8721759338066064
225.56390977443607,0.5733653003621157,0.6089573702725071,-20.000843,1.164133,0.942537,-0.001608,0.018517943363659837,0.004537856055185257,0.8862258342851608
226.56641604010025,0.5733654846688847,0.608957547772492,-19.99572,1.153097,0.955716,-0.007583,0.016982053621904827,0.0045553093477052,0.9010960744187374
227.5689223057644,0.5733656654849952,0.6089577280650038,-19.986261,1.135951,0.971958,-0.009246,0.019565140914856435,0.0050789081233034985,0.9163328162419405
228.57142857142856,0.5733658443812436,0.6089579113245752,-19.979368,1.117356,0.988562,-0.003433,0.021886428820008894,0.006562437987498679,0.9312728171857194
229.5739348370927,0.5733660194377675,0.6089580966785418,-19.980598,1.092202,0.984343,0.002397,0.004694935687864747,0.008587019919812101,0.9460207970051939
230.5764411027569,0.5733661943197585,0.6089582867448974,-19.978893,1.12948,1.06095,0.001658,0.06141813637768046,0.06068509809184284,0.9647307789464508
231.57894736842104,0.5733663774047971,0.6089584942645455,-20.026573,1.177393,1.145125,0.110397,0.011065387457644049,0.1718276474055492,1.0182076497742645
232.5814536340852,0.5733665597917039,0.6089587146996299,-20.1919,1.085997,1.216043,0.216111,-0.08588765249064097,0.21544344286618003,1.1620576867236372
233.58395989974937,0.5733667308339706,0.608958959394791,-20.421146,0.925786,1.386538,0.252566,0.08937831099462962,0.22842869250101783,1.3117546464803609
234.58646616541353,0.5733668814558851,0.6089592248593703,-20.701916,0.792582,1.550564,0.327008,0.060178952608764484,0.25610963189094044,1.3796653902221676
235.58897243107768,0.5733670078177229,0.6089595208672115,-21.058332,0.748129,1.678786,0.395704,0.04752531553180559,0.2691297881108181,1.377518478162582
236.59147869674183,0.5733671289435729,0.6089597561375947,-21.473988,0.769634,1.780252,0.448619,0.037821284890717115,0.2733534674473519,1.352455602463821
237.593984962406,0.5733672422154414,0.6089600922880085,-21.936247,0.801257,1.87095,0.488928,0.011274826967883369,0.27120671246739886,1.3332221090134286
238.59649122807016,0.5733673654356867,0.6089604654394025,-22.431574,0.831958,1.948199,0.519008,0.014817845349431858,0.26394614277910244,1.321249080531577
239.59899749373432,0.5733674987788415,0.6089608483646405,-22.941427,0.861795,2.023458,0.50681,0.01684242728174528,0.23045327443333127,1.3133253729939856
240.6015037593985,0.5733676387542475,0.6089612438562491,-23.41287,0.890553,2.10028,0.443193,0.009023352232810684,0.1816887751326097,1.3070945126577806
241.60401002506265,0.5733677825693778,0.6089616503434319,-23.807875,0.91681,2.171865,0.352904,0.0071907565182166375,0.13212142437597074,1.3015792373148936
242.6065162907268,0.5733679302242326,0.6089620693969852,-24.113066,0.938246,2.237447,0.262816,0.012356931104119853,0.09009389598794729,1.2974952715849821
243.60902255639095,0.5733680932379848,0.6089624182883027,-24.335815,0.955176,2.288966,0.185489,0.006003932626860493,0.05719443958785418,1.2960290728402593
244.61152882205513,0.5733682475250906,0.6089628331530659,-24.494455,0.967515,2.33416,0.132776,0.002129301687433082,0.037088246604879506,1.29730326791397
245.6140350877193,0.573368400590466,0.6089632719288398,-24.61195,0.979054,2.369418,0.099043,-0.0015009831567151233,0.024696408915719763,1.2979314991782254
246.61654135338344,0.5733685576700986,0.6089637222237869,-24.700516,0.99383,2.394741,0.073748,0.00603883921190038,0.01811651763570114,1.2974602602801872
247.6190476190476,0.573368717716791,0.6089641781037874,-24.766493,1.008947,2.41498,0.053678,-0.002548180707911721,0.014870205226991687,1.2960290728402593
248.62155388471177,0.5733688791597469,0.6089646366017819,-24.812565,1.021325,2.4358,0.034425,-0.0014660765716752368,0.012775810124598492,1.2938299754360387
249.62406015037593,0.573369042348032,0.608965098415902,-24.840572,1.029125,2.459018,0.018391,-0.0003316125578789226,0.012688543661998775,1.2922592314691215
250.62656641604008,0.5733692058853829,0.6089655644188122,-24.856871,1.031959,2.483758,0.013144,-0.013159782560037244,0.014137166941154071,1.2930970767765415
251.62907268170426,0.573369369073668,0.6089660344359799,-24.871788,1.035345,2.507059,0.014015,-0.003979350694547071,0.014922565104551517,1.2932191800110109
252.6315789473684,0.5733695331346176,0.6089665082928718,-24.890165,1.034877,2.510152,0.018722,-0.006579891280018622,0.014852751934471744,1.2937776330117716
253.63408521303256,0.5733696961483699,0.608966981277099,-24.914373,1.032611,2.504583,0.024744,-0.0136659280431156,0.014468779499032991,1.2948423711219508
254.63659147869672,0.5733698595111878,0.6089674533886618,-24.943693,1.036108,2.497488,0.028245,-0.011641346110802179,0.013369222070276564,1.2931842908792637
255.6390977443609,0.5733700246193351,0.6089679241039611,-24.972675,1.040921,2.489062,0.025239,-0.010873401239924673,0.010088003076527224,1.2923464630251362
256.64160401002505,0.5733701888548176,0.6089683911540688,-24.994558,1.040902,2.48362,0.014542,-0.004991641660703782,0.00614355896702004,1.2934460728137702
257.64411027568923,0.5733703539629649,0.6089688554116499,-25.005499,1.040091,2.481816,0.003276,-0.007120943348136864,0.004782202150464463,1.2946153386928514
258.64661654135335,0.5733705176748487,0.6089693215890931,-25.00877,1.037649,2.483183,-0.000862,-0.0079412480965742,0.0053058009260627615,1.2956451876712831
259.64912280701753,0.5733706824339301,0.6089697874174704,-25.007717,1.034533,2.48739,-0.003467,-0.0026005405854715507,0.0057246799465414016,1.2969368185842214
260.6516290726817,0.5733708454476822,0.6089702555147759,-25.003716,1.032127,2.492071,-0.005175,-0.006318091892219472,0.005480333851262195,1.2974952715849821
261.65413533834584,0.573371007065171,0.6089707232630153,-24.999729,1.028079,2.495497,-0.003993,-0.009878563566287904,0.005480333851262195,1.299031126420152
262.65664160401,0.5733711678099951,0.6089711920584525,-25.000151,1.023254,2.49485,0.002868,-0.005969026041820607,0.005759586531581287,1.300846199029056
263.65914786967414,0.5733713273330886,0.608971659806692,-25.007414,1.021033,2.490398,0.009275,-0.003246312408709453,0.005969026041820607,1.301649137751436
264.6616541353383,0.5733714858089848,0.6089721306965241,-25.01799,1.031388,2.454403,0.006441,-0.01816887751326097,0.005829399701661061,1.3086828146369731
265.6641604010025,0.5733716350346358,0.6089725750573517,-25.032312,0.807814,2.321492,-0.000669,-0.05712462641777441,-0.019320794819577228,1.4748555429061834
266.66666666666663,0.5733717306786787,0.608973010691533,-24.989582,0.423656,2.293995,-0.066419,0.12430234932703615,-0.022060961745208326,1.6711178696528233
267.6691729323308,0.5733718107892914,0.6089733978055611,-24.936752,0.056153,2.179432,-0.039579,-0.037262779530078935,-0.012514010736799343,1.8601196092578742
268.671679197995,0.5733717997937172,0.6089737742730807,-24.890293,-0.295677,2.02965,-0.053437,0.052412237437389715,-0.019285888234537342,2.043937651171332
269.6741854636591,0.573371727711619,0.6089741254333263,-24.844336,-0.606162,1.854445,-0.036501,0.054628805587422516,-0.005864306286700947,2.2144389530651205
270.6766917293233,0.5733716132180202,0.608974443432316,-24.82402,-0.868333,1.648323,-0.013347,0.027977627909469102,-0.0029670597283903604,2.375602551474522
271.6791979949875,0.573371457185585,0.6089747212887329,-24.817553,-1.089684,1.422763,-0.002952,0.059864793343405505,0.0012566370614359172,2.5272716983794137
272.6817042606516,0.5733712718316184,0.6089749583044454,-24.825638,-1.271321,1.181107,0.011362,0.04043927876870862,0.0038048177693476384,2.6690794383045655
273.6842105263158,0.5733710599486473,0.6089751529086569,-24.841114,-1.421628,0.937864,0.013295,0.03429571980168858,0.0025656340004316645,2.800241175938035
274.68671679197996,0.5733708257254616,0.6089753023088409,-24.851095,-1.544712,0.706187,0.004625,0.04359832471481836,0.0026878070480712674,2.9173702045860814
275.6892230576441,0.5733705726527202,0.6089754105192545,-24.853287,-1.641917,0.499111,-0.000625,0.03420845333908886,0.004014257279586958,3.0172552580513767
276.69172932330827,0.5733703040465482,0.6089754815541552,-24.853041,-1.71852,0.310886,0.002209,0.025586526834236872,0.005166174585903215,3.1027765484787317
277.6942355889724,0.5733700253174667,0.6089755194277999,-24.857929,-1.779918,0.138404,0.007798,0.029792770331543206,0.005654866776461628,3.1743524661964346
278.69674185463657,0.5733697382108048,0.6089755272817814,-24.868488,-1.83013,-0.018857,0.013162,0.015847589608108514,0.004904375198104067,3.231494580813314
279.69924812030075,0.5733694418538977,0.6089755093048902,-24.879116,-1.873567,-0.150247,0.007227,0.017697638615222503,0.003543018381548489,3.2723701046285583
280.7017543859649,0.5733691397374042,0.6089754698604491,-24.882975,-1.914729,-0.247025,-0.002157,0.022444934180647077,0.0022165681500327986,3.2970142060265957
281.70426065162906,0.5733688316867912,0.6089754148825777,-24.87792,-1.95655,-0.306106,-0.007941,0.01668534764906579,0.0035953782591083188,3.308062052925257
282.70676691729324,0.5733685164803284,0.6089753523997904,-24.871655,-1.999621,-0.335274,-0.00587,0.01075122819228507,0.005881759579220891,3.308184295786067
283.70927318295736,0.573368195165213,0.6089752872990093,-24.870764,-2.043224,-0.338099,0.003962,0.00307177948351002,0.009075712110370514,3.29951011412341
284.71177944862154,0.5733678665197148,0.6089752235944916,-24.879944,-2.083501,-0.32715,0.014197,-0.003159045946109736,0.011239920382843483,3.284238221369072
285.7142857142857,0.5733675340344924,0.6089751646023629,-24.89806,-2.118573,-0.302741,0.02112,-0.003298672286269283,0.010838494654884786,3.26268366690633
286.71679197994985,0.5733671952660846,0.6089751117188866,-24.916895,-2.151342,-0.262897,0.017164,-0.009442231253289324,0.008761552845011534,3.2372193131197324
287.719298245614,0.573366851436222,0.6089750675620565,-24.929155,-2.182709,-0.210667,0.008453,-0.01174606586592184,0.00788888821901437,3.211877202193945
288.72180451127815,0.573366503766635,0.608975033702669,-24.932991,-2.211576,-0.14784,0.000345,-0.012339477811599909,0.007714355293814937,3.186918854264086
289.72431077694233,0.573366151384659,0.6089750164239094,-24.93325,-2.234206,-0.079929,0.003495,-0.013753194505715317,0.009913470151327791,3.1650148848850943
290.7268170426065,0.5733657962101563,0.6089750122351192,-24.942076,-2.24993,-0.022087,0.013927,-0.012374384396639796,0.01043706892692609,3.1479980817577826
291.72932330827064,0.5733654401629887,0.6089750181692387,-24.961895,-2.262395,0.015571,0.024808,-0.016057029118347832,0.009983283321407565,3.1367755274009963
292.7318295739348,0.5733650839412885,0.6089750289902801,-24.987768,-2.27399,0.034201,0.024107,-0.008168140899333463,0.008045967851693859,3.130963441365515
293.734335839599,0.5733647231817321,0.6089750420802494,-25.008087,-2.28423,0.041806,0.01411,-0.00757472895365539,0.00486946861306418,3.129235844658721
294.7368421052631,0.5733643610259123,0.608975054821153,-25.01449,-2.29313,0.045211,-2.2e-05,-0.011397000015522973,0.0021991148575128553,3.1312079270871345
295.7393483709273,0.5733639990446254,0.6089750672129907,-25.010012,-2.300405,0.045328,-0.006467,-0.015655603390389135,0.002495820830351891,3.136548634598237
296.7418546365915,0.5733636356670752,0.6089750816992235,-25.004482,-2.308985,0.037374,-0.003985,-0.012967796342317869,0.003926990816987242,3.1437567396892185
297.7443609022556,0.5733632705441957,0.6089750933929294,-25.000332,-2.315782,0.023954,-0.005017,-0.004956735075663896,0.003682644721708035,3.151401334172831
298.7468671679198,0.5733629050722503,0.6089751012469111,-24.994936,-2.320838,0.006091,-0.005079,-0.013159782560037244,0.003787364476827695,3.1599535522273583
299.74937343358397,0.5733625399493707,0.608975103690372,-24.993784,-2.321693,-0.015223,0.003488,-0.006754424205218055,0.005009094953223725,3.1682612845602662
300.7518796992481,0.573362172906629,0.6089751021195757,-25.000715,-2.323774,-0.035827,0.01033,-0.00815068760681352,0.004590215932745087,3.17414313140595
301.7543859649123,0.5733618079582825,0.608975099327049,-25.012173,-2.324454,-0.050951,0.012365,-0.008185594191853406,0.003420845333908886,3.177878223271681
302.7568922305764,0.5733614431844688,0.6089750907749356,-25.021961,-2.325063,-0.060401,0.008312,-0.006021385919380436,0.0021118483949131386,3.17883803218723
303.7593984962406,0.5733610782361221,0.6089750820482892,-25.024973,-2.324817,-0.065422,-0.00067,-0.010733774899765127,0.0015533430342749533,3.1781746325385467
304.76190476190476,0.573360712240578,0.6089750708781821,-25.020594,-2.327184,-0.064052,-0.007326,-0.00895353906273091,0.0014835298641951802,3.174963121995122
305.7644110275689,0.5733603455469022,0.6089750623260687,-25.009684,-2.333121,-0.051947,-0.012113,-0.009250245035569947,0.001762782544514273,3.1699193648029533
306.76691729323306,0.5733599781550947,0.6089750565664822,-24.995302,-2.338849,-0.033045,-0.015757,-0.011082840750163993,0.0020245819323134223,3.1646833246870933
307.76942355889724,0.5733596091924908,0.6089750544720871,-24.984306,-2.342282,-0.012299,-0.004885,-0.01111774733520388,0.00471238898038469,3.1600757950881686
308.77192982456137,0.5733592404044199,0.6089750565664822,-24.988132,-2.342322,-0.002759,0.012142,-0.010157816246606997,0.006161012259539983,3.157789204328546
309.77443609022555,0.5733588716163489,0.6089750598826078,-25.004778,-2.340101,-0.003288,0.018294,-0.008918632477691025,0.0053058009260627615,3.156078921287931
310.77694235588973,0.5733585045736073,0.6089750621515359,-25.023485,-2.337139,-0.014625,0.014849,-0.011554079648202462,0.0023038346126325153,3.156899173676491
311.77944862155385,0.5733581361346021,0.6089750619770029,-25.030344,-2.335244,-0.023207,-0.003245,-0.010088003076527224,-0.0010471975511965976,3.156497835214995
312.78195488721803,0.5733577683937288,0.6089750611043382,-25.02001,-2.335889,-0.017903,-0.017453,-0.012217304763960306,-0.0006806784082777885,3.154193930789192
313.7844611528822,0.5733574004783224,0.6089750591844761,-25.000246,-2.339622,-0.001436,-0.021414,-0.014224433403753785,0.0021467549799530253,3.151663395360018
314.78696741854634,0.5733570316902514,0.6089750621515359,-24.983303,-2.343477,0.015546,-0.013465,-0.009564404300928926,0.004171336912266448,3.15178537642144
315.7894736842105,0.5733566620295159,0.6089750691328528,-24.976707,-2.346485,0.019765,0.000765,-0.00916297857297023,0.0052010811709431014,3.1543510627817493
316.79197994987464,0.573356292892379,0.6089750769868345,-24.986937,-2.335688,-0.004956,0.020459,-0.004921828490624009,0.005532693728822024,3.1520644720221265
317.7944862155388,0.5733559405104031,0.6089750860625466,-25.005627,-2.096361,0.161064,-0.013009,0.017627825445142728,-0.017558012275062956,2.9612652178204466
318.796992481203,0.5733556385684425,0.608975164253297,-24.983433,-1.746993,0.651383,-0.025813,-0.06471680866394974,-0.013334315485236678,2.651486589257633
319.79949874686713,0.5733554043452569,0.6089752677513216,-24.960457,-1.380855,1.030338,-0.040574,0.015044738152191121,-0.016632987771505958,2.391641970220717
320.8020050125313,0.5733552357464512,0.6089754593884736,-24.915972,-1.023807,1.314948,-0.050296,-0.059096848472528,-0.016982053621904827,2.1614158154829477
321.8045112781955,0.5733551181112595,0.6089757306126394,-24.869595,-0.685458,1.533255,-0.034201,0.000767944870877505,-0.0067369709126981125,1.9552400011316875
322.8070175438596,0.5733550455055626,0.6089760386632523,-24.833786,-0.368749,1.691189,-0.03848,-0.019024088846738195,-0.007243116395776467,1.77063661341471
323.8095238095238,0.5733550201982884,0.6089763735919358,-24.810066,-0.053,1.801463,-0.010044,-0.006213372137099813,-0.0025132741228718345,1.5997163975938575
324.812030075188,0.5733550392223774,0.6089767252757801,-24.810802,0.24619,1.862961,0.012252,0.013351768777756621,-0.0045204027626653135,1.444399634725345
325.8145363408521,0.5733551039740925,0.608977084639073,-24.823565,0.53666,1.881478,0.013009,0.005113814708343385,-0.005427973973702365,1.3049477402245353
326.8170426065163,0.5733552123590392,0.6089774445259648,-24.840227,0.805543,1.871338,0.013341,0.005794493116621174,-0.005253441048502932,1.1841186484688453
327.8195488721804,0.5733553612356244,0.6089778017948627,-24.850418,1.040577,1.85803,0.007124,0.017400932642383467,-0.005916666164260778,1.0952639537031066
328.8220551378446,0.5733555436225312,0.60897815784203,-24.846264,1.218334,1.861738,-0.006921,0.012147491593880533,-0.003961897402027128,1.044195497616705
329.82456140350877,0.5733557544583048,0.6089785156345267,-24.834871,1.338459,1.895211,-0.012556,0.027122416575991883,-0.0009773843811168245,1.0291682127570336
330.8270676691729,0.5733559813511075,0.6089788804083404,-24.823698,1.393898,1.956033,-0.006851,0.016441001553786583,0.001954768762233649,1.0516655417218257
331.8295739348371,0.5733562106873713,0.6089792579230576,-24.820742,1.374804,2.03584,0.003299,0.02241002759560719,0.00486946861306418,1.107795382825841
332.83208020050125,0.5733564314715217,0.6089796506221393,-24.829447,1.284481,2.116419,0.012665,0.012863076587198208,0.0059515727493006645,1.1918154457503853
333.8345864661654,0.5733566320098528,0.6089800548403942,-24.845247,1.125772,2.189276,0.016568,0.013648474750595658,0.006946410422937432,1.2943012143340773
334.83709273182956,0.5733568028775865,0.6089804676107622,-24.862955,0.920138,2.248135,0.016514,0.021170843826691217,0.008133234314293577,1.405914967639237
335.83959899749374,0.5733569369188731,0.608980890154974,-24.879459,0.687729,2.291333,0.015589,0.02775073510670984,0.010157816246606997,1.5166561261315699
336.84210526315786,0.573357030293988,0.6089813207277005,-24.893499,0.452925,2.31878,0.013591,0.019024088846738195,0.010768681484805013,1.618670638363931
337.84461152882204,0.5733570856209252,0.6089817532202891,-24.905533,0.233555,2.332987,0.012761,0.022898719786165606,0.010995574287564275,1.7066353897440778
338.8471177944862,0.573357104819547,0.608982190250734,-24.918316,0.043497,2.339794,0.015847,0.016807520696705394,0.011082840750163993,1.7771814584833485
339.84962406015035,0.5733570959183678,0.6089826269321127,-24.933889,-0.110746,2.343429,0.017891,0.02642428487519415,0.00986111027376796,1.8275691314417173
340.8521303258145,0.5733570632807109,0.6089830667550843,-24.952194,-0.225535,2.350148,0.020623,0.02892010570554604,0.008307767239493008,1.8581474221097056
341.85463659147865,0.5733570156332223,0.6089835102432472,-24.970585,-0.300794,2.365182,0.020403,0.017400932642383467,0.006894050545377602,1.8710277949097909
342.85714285714283,0.5733569583864229,0.6089839568730028,-24.988026,-0.339654,2.387943,0.016927,0.019512781037296607,0.0054105206811824215,1.8686716876860614
343.859649122807,0.5733568981725636,0.6089844090878119,-25.001827,-0.344717,2.419401,0.013021,0.01111774733520388,0.005148721293383272,1.8534175100236308
344.86215538847114,0.5733568384823032,0.6089848684584711,-25.014162,-0.317825,2.458494,0.012681,0.0016231562043547264,0.005777039824101231,1.8281800664930854
345.8646616541353,0.5733567880422878,0.6089853309707228,-25.026762,-0.262766,2.406195,0.039504,-0.14962707677347387,0.015917402778188285,1.8768922059162472
346.8671679197995,0.5733567266066982,0.608985753165869,-25.047686,-0.496005,2.056422,-0.032815,0.039496800972631675,-0.031119220563058894,2.1393547141113993
347.8696741854636,0.5733566316607869,0.6089861022317193,-24.996077,-0.805695,1.600155,-0.044202,0.18401004558446965,0.002234021442552742,2.4365841460996935
348.8721804511278,0.573356533573283,0.6089863554789938,-24.971413,-1.000312,1.196697,-0.008756,0.15046481736113862,0.015044738152191121,2.66714252426058
349.874686716792,0.5733563922016135,0.6089865242523325,-24.958717,-1.099679,0.84994,-0.006952,0.10665707058937347,0.012095131716320703,2.879217481670411
350.8771929824561,0.5733562134798981,0.6089866226889024,-24.954977,-1.191983,0.519765,0.003493,0.024609142453120045,0.005253441048502932,3.0704356497991543
351.8796992481203,0.5733560253334048,0.6089866790630372,-24.95978,-1.257259,0.231066,0.001241,0.06190682856823887,-0.004468042885105484,3.2336237777809917
352.88220551378447,0.5733558247950737,0.6089866834263602,-24.964018,-1.303805,-0.041338,0.00797,0.015498523757709647,-0.00968657734856853,3.3761822536305957
353.8847117794486,0.5733556157046293,0.6089866436328534,-24.967979,-1.322321,-0.294956,0.000213,0.026476644752753978,-0.016632987771505958,3.5020730794697497
354.8872180451128,0.5733554034725923,0.6089865584607858,-24.962929,-1.319958,-0.533749,-0.009675,0.03183480555637657,-0.019285888234537342,3.612028612905882
355.8897243107769,0.5733551910660223,0.608986431924415,-24.949648,-1.312265,-0.744688,-0.018105,0.030805061297699915,-0.019704767255015982,3.6963805152811084
356.8922305764411,0.5733549795321169,0.6089862692597287,-24.928835,-1.306254,-0.922588,-0.023073,0.025220007691318064,-0.018657569703819384,3.7566989720569848
357.89473684210526,0.5733547688708762,0.6089860746555171,-24.903584,-1.31388,-1.061797,-0.028933,0.024486969405480445,-0.01621410875102732,3.79057598737112
358.8972431077694,0.5733545561152404,0.6089858585837556,-24.877628,-1.341931,-1.162015,-0.026594,0.01595230936322817,-0.01420698011123384,3.7977840924621016
359.89974937343356,0.5733543382981497,0.6089856275021628,-24.850908,-1.395321,-1.219346,-0.027036,0.01780235837034216,-0.011588986233242348,3.779300950963726
360.90225563909775,0.5733541107072153,0.6089853903119175,-24.826694,-1.472,-1.231063,-0.020403,0.009075712110370514,-0.007435102613495843,3.738425427148482
361.90476190476187,0.5733538698517785,0.6089851566123307,-24.809893,-1.569061,-1.190819,-0.014364,-0.0008552113334772215,-0.003420845333908886,3.67814184205106
362.90726817042605,0.5733536127647797,0.6089849361772461,-24.801001,-1.669089,-1.108046,-0.00888,-0.01033234917180643,0.00027925268031909274,3.606199213204221
363.90977443609023,0.5733533403188834,0.6089847382569089,-24.794933,-1.766891,-0.984312,-0.009978,-0.014625859131712481,0.002775073510670984,3.5261062458164187
364.91228070175436,0.5733530525140897,0.6089845679127738,-24.786514,-1.859252,-0.822803,-0.009165,-0.015393804002589986,0.0069638637154573755,3.4426446358926355
365.91478696741854,0.5733527502230634,0.6089844329988227,-24.78194,-1.940776,-0.642075,-0.002595,-0.014416419621473161,0.010629055144645466,3.36331919449669
366.91729323308266,0.5733524376345943,0.6089843328169237,-24.789011,-2.00511,-0.469457,0.0137,-0.014468779499032991,0.013421581947836395,3.292720922959492
367.91979949874684,0.5733521149232157,0.6089842668434778,-24.811249,-2.052624,-0.317003,0.027508,-0.012304571226560023,0.013840460968315035,3.2315467836112406
368.922305764411,0.5733517857541187,0.6089842289698332,-24.841614,-2.087443,-0.187806,0.030373,-0.0136659280431156,0.012356931104119853,3.1805134260960966
369.92481203007515,0.5733514508254353,0.608984213087337,-24.86858,-2.115464,-0.076265,0.022405,-0.013840460968315035,0.010559241974565694,3.1397252385566214
370.9273182957393,0.5733511117079616,0.608984215530798,-24.885277,-2.141356,0.022405,0.012219,-0.018832102629018816,0.009808750396208134,3.1096182042399647
371.9298245614035,0.5733507697979611,0.6089842354275513,-24.893435,-2.166892,0.102605,0.006248,-0.015917402778188285,0.010838494654884786,3.091204841005084
372.93233082706763,0.5733504233501046,0.6089842692869389,-24.902906,-2.190399,0.157443,0.011825,-0.013857914260834978,0.011309733552923256,3.0832113726572903
373.9348370927318,0.5733500730625237,0.6089843118729726,-24.919985,-2.211413,0.182595,0.021487,-0.016807520696705394,0.011082840750163993,3.0850790494898495
374.937343358396,0.5733497199824161,0.6089843548080722,-24.946926,-2.228051,0.176933,0.029055,-0.010454522219446033,0.0102799892942466,3.0945907972072457
375.9398496240601,0.5733493648079133,0.6089843930307828,-24.977022,-2.23934,0.14914,0.027457,-0.013596114873035827,0.00799360797413403,3.1093039577081427
376.9423558897243,0.573349008586213,0.6089844237485778,-24.999765,-2.247563,0.109226,0.015643,-0.007155849933176751,0.0047298422729046335,3.12715885048897
377.9448621553885,0.5733486511427822,0.6089844441689299,-25.007807,-2.255795,0.066516,-0.000118,-6.981317007977319e-05,0.0025830872929516074,3.1459210875880315
378.9473684210526,0.5733482966664111,0.6089844586551627,-25.003649,-2.182227,0.041788,0.008791,-0.05714207971029435,0.009791297103688189,3.213151257641316
379.9498746867168,0.5733479760494274,0.6089844427726665,-25.005234,-1.855014,-0.305543,-0.038031,0.0015184364492350666,-0.02727949620867137,3.4872549897742227
380.9523809523809,0.5733477097121836,0.6089843492230186,-24.955389,-1.505812,-0.754461,-0.045974,0.12744394198062595,-0.004049163864626845,3.7708536795571215
