Time [s],Longitude [rad],Latitude [rad],Altitude [m],V North [m/s],V East [m/s],V Down [m/s],Roll [rad],Pitch [rad],Yaw [rad]
0.0,0.60897516442783,0.5733548859824691,-34.696613,-1.957435,0.330125,-0.5533,-0.2776469948605505,0.32841858789448053,2.95096784504685
1.0025062656641603,0.6089752290050123,0.5733545985267413,-34.143768,-1.726225,0.577043,-0.511894,-0.05358160803622591,0.27663468644110134,2.747619516443698
2.0050125313283207,0.6089753380880907,0.5733543543551789,-33.636391,-1.461029,0.856127,-0.567698,0.04263839362622148,0.3170216053322501,2.525002683085359
3.007518796992481,0.6089755180315364,0.5733541543404466,-33.08667,-1.097709,1.137405,-0.522402,-0.06981317007977318,0.29630456456437004,2.255035119480291
4.010025062656641,0.6089757536509854,0.5733540094781188,-32.588127,-0.743507,1.357531,-0.500995,0.026337018412594445,0.3047170341056902,2.018263840421203
5.012531328320802,0.608975997473482,0.5733539243060511,-32.095142,-0.378788,1.461159,-0.492914,-0.05677556056737551,0.3096214093037941,1.7766753304535625
6.015037593984962,0.6089762739336355,0.5733539044092978,-31.627916,-0.025702,1.536186,-0.460851,0.016249015336067225,0.30813786198630644,1.5513708296734923
7.017543859649122,0.6089765467285976,0.5733539257023147,-31.176598,0.294352,1.52012,-0.454044,-0.010576695267085642,0.3214722123781282,1.3340598146945082
8.020050125313283,0.608976816381967,0.5733540028458675,-30.732691,0.606082,1.456808,-0.443183,0.011082840750164002,0.3214896482173557,1.1149861917039352
9.022556390977442,0.6089770713745707,0.5733541201319933,-30.301252,0.891983,1.346948,-0.43237,0.032306044454415025,0.3331659183664901,0.9032078879070654
10.025062656641603,0.6089772980928406,0.5733542777352247,-29.863136,1.132634,1.18117,-0.449063,0.02029817920069407,0.33604569417898844,0.6887069053836701
11.027568922305765,0.6089774946169144,0.5733544718158375,-29.425703,1.34423,0.987804,-0.436091,0.04335397861953912,0.33723253552363697,0.47703337370179755
12.030075187969924,0.6089776532673433,0.5733546913782575,-28.985897,1.491609,0.761055,-0.448165,0.02586577951455595,0.3427477410533539,0.26731461078215896
13.032581453634084,0.6089777672373435,0.5733549306628979,-28.545311,1.594918,0.517542,-0.43813,0.04047418535374849,0.337511788203956,0.059934606513485277
14.035087719298245,0.6089778339089209,0.5733551875753639,-28.102665,1.724697,0.237581,-0.455493,0.004974188368183839,0.33370693552802333,-0.10920505931106674
15.037593984962406,0.6089778531075427,0.5733554629883197,-27.637705,1.844406,0.02754,-0.47906,0.016441001553786583,0.33166491775648255,-0.1815141374876552
16.040100250626566,0.6089778342579868,0.5733557621377535,-27.139206,1.958482,-0.092413,-0.523517,0.061924281860758816,0.3265685388873665,-0.18750091352796905
17.042606516290725,0.6089777801527799,0.573356085547264,-26.598347,2.072583,-0.1468,-0.562726,0.0390255620745932,0.3203900558820141,-0.1694889062078773
18.045112781954884,0.6089777244767768,0.5733564267591327,-26.019449,2.17397,-0.153195,-0.598224,0.029897490086662874,0.31747537348447596,-0.14803873988769586
19.047619047619047,0.6089776759566237,0.5733567838534978,-25.411806,2.265641,-0.144605,-0.622809,0.03127630019573839,0.31524136949521586,-0.13538552168975856
20.050125313283207,0.6089776316252605,0.5733571545614308,-24.787458,2.350201,-0.142761,-0.636136,0.02155481626212997,0.314141829519752,-0.13077771283815334
21.052631578947366,0.6089775930534841,0.573357536788537,-24.151867,2.427382,-0.154862,-0.647185,0.01439896632895322,0.3141243413206469,-0.1310216749609963
22.05513784461153,0.6089775539581089,0.573357928614954,-23.500498,2.493924,-0.17731,-0.668833,0.008133234314293573,0.31604422095113316,-0.13437298637750608
23.05764411027569,0.6089775113720752,0.5733583296916162,-22.822145,2.549886,-0.195362,-0.698082,0.008185594191853409,0.31707396520981,-0.13643268433436995
24.06015037593985,0.6089774651208499,0.5733587396694575,-22.115744,2.596423,-0.199883,-0.722508,0.00815068760681352,0.31534610670362806,-0.13604864208576056
25.062656641604008,0.6089774176478943,0.5733591540106219,-21.392675,2.635472,-0.193086,-0.731217,0.008045967851693862,0.3125884690321845,-0.13475701117282243
26.065162907268167,0.6089773724438666,0.573359573762307,-20.66815,2.672792,-0.193177,-0.726588,0.005288347633542821,0.3106336653633659,-0.13466965744375983
27.06766917293233,0.6089773254945099,0.5733599970046506,-19.949408,2.687665,-0.209912,-0.720254,-0.008482300164692444,0.3117681817370397,-0.13760181058711066
28.07017543859649,0.6089772752290273,0.5733604193743296,-19.234533,2.689358,-0.241121,-0.72057,-0.012007865253720983,0.3147177707196176,-0.14465332473760317
29.07268170426065,0.6089772183312937,0.5733608420930744,-18.514189,2.686056,-0.267787,-0.727087,-0.010716321607245187,0.315398466581188,-0.1486672329513399
30.075187969924812,0.6089771565466382,0.5733612625428911,-17.790686,2.681199,-0.268217,-0.726184,-0.005009094953223723,0.3153111826652957,-0.14505440139971196
31.07769423558897,0.6089770965073119,0.5733616800256482,-17.067869,2.674787,-0.261339,-0.725588,0.0026703537555513236,0.31604422095113316,-0.1415635160029203
32.08020050125313,0.6089770371661174,0.5733620971593395,-16.34218,2.669902,-0.2546,-0.734595,-0.004153883619746495,0.3189239967636315,-0.1406207589541631
33.08270676691729,0.6089769818391801,0.5733625134203661,-15.602503,2.666076,-0.240208,-0.75186,-0.003647738136668151,0.3194301597000022,-0.13749740499125657
34.08521303258145,0.6089769317482305,0.5733629275869977,-14.849924,2.658545,-0.214498,-0.758311,0.0022340214425527363,0.31607914498946554,-0.1353327952930557
35.08771929824561,0.6089768837516761,0.573363339833767,-14.099375,2.647161,-0.202862,-0.74845,-0.002600540585471553,0.31281536183494385,-0.13805561364592148
36.09022556390977,0.6089768394203131,0.5733637508588058,-13.361867,2.639927,-0.206968,-0.735778,-0.0052010811709431014,0.311035108544617,-0.14172064799547734
37.092731829573935,0.6089767950889501,0.5733641608366471,-12.624654,2.632647,-0.205894,-0.750681,-0.002565634000431662,0.31208234100239873,-0.1440072387550997
38.095238095238095,0.608976751281186,0.5733645706399554,-11.860985,2.626284,-0.185979,-0.780685,0.0024085543677521766,0.3118205416145994,-0.14660755244776819
39.097744360902254,0.6089767107895473,0.5733649783488687,-11.08065,2.625883,-0.154923,-0.778391,-0.003543018381548481,0.3073175746911616,-0.14763712217351996
40.100250626566414,0.6089766776282916,0.5733653878031112,-10.323955,2.62827,-0.132028,-0.737757,0.0025132741228718314,0.30518827300372875,-0.14550820445852192
41.10275689223057,0.6089766486558259,0.5733657965592219,-9.61151,2.629464,-0.148107,-0.699344,-0.0010122909661567127,0.3084345679591456,-0.14467035915110255
42.10526315789473,0.6089766092113847,0.5733662060134646,-8.9144,2.631753,-0.193785,-0.713859,-0.008848819307611255,0.3132866181862748,-0.1519312080920792
43.10776942355889,0.6089765627856266,0.5733666140714436,-8.167028,2.608788,-0.200784,-0.789355,-1.7453292519946796e-05,0.315328618504523,-0.15866793465868262
44.11027568922306,0.6089765189778625,0.5733670186387643,-7.358892,2.58861,-0.146494,-0.81487,-0.0012740903539558584,0.3005107906083837,-0.16058755248978085
45.11278195488722,0.6089764889581993,0.5733674232060849,-6.58645,2.624595,-0.107565,-0.70659,0.007557275661135454,0.24204226066657375,-0.15997661743841213
46.11528822055138,0.608976463825458,0.5733678314385969,-5.969006,2.664699,-0.110573,-0.526173,-0.00396189740202713,0.17498671080495143,-0.1582317245187313
47.11779448621554,0.6089764402635132,0.5733682433363004,-5.530395,2.680932,-0.114789,-0.357394,0.008063421144213804,0.11765264487693772,-0.16123363847228342
48.1203007518797,0.6089764097202514,0.5733686625643867,-5.221989,2.683599,-0.142685,-0.262085,0.0,0.0805643982720583,-0.17292704775467294
49.122807017543856,0.6089763711484748,0.573369081967006,-4.992134,2.689495,-0.19772,-0.200048,-0.007295476273336299,0.055047684607901104,-0.18516213742371185
50.125313283208015,0.6089763248972496,0.573369501718691,-4.791072,2.673214,-0.223072,-0.194435,-0.002775073510670984,0.03207915165165587,-0.186715288471768
51.127819548872175,0.6089762779478927,0.5733699207722445,-4.609845,2.688987,-0.172809,-0.139164,0.012060225131280815,0.0005235987755982663,-0.19203842051730405
52.130325814536334,0.6089762341401286,0.5733703438400553,-4.517211,2.720675,-0.150218,-0.031412,-0.011711159280881954,-0.015498523757709659,-0.19994481438871528
53.1328320802005,0.6089762032478008,0.5733707683041293,-4.535522,2.70897,-0.136318,0.080415,-0.00930260491312978,-0.021502456384570046,-0.1962797625858672
54.13533834586466,0.6089761720064072,0.5733711934663351,-4.634317,2.685249,-0.212037,0.095449,0.0009599310885968814,-0.017400932642383404,-0.2037499288640359
55.13784461152882,0.6089761135378772,0.573371611123625,-4.671909,2.664697,-0.305677,-0.008785,-0.003281218993749339,-0.012566370614359057,-0.2267708216978417
56.14035087719298,0.6089760498333596,0.5733720273846517,-4.630018,2.676584,-0.274916,-0.03379,0.0032637657012293967,-0.018744836166419088,-0.24041899974246417
57.14285714285714,0.6089759875251052,0.5733724438202111,-4.6156,2.689845,-0.267077,0.023402,-0.006928957130417487,-0.02588323280707594,-0.24254845850952947
58.1453634085213,0.6089759283584436,0.5733728647936268,-4.662369,2.696743,-0.301034,0.078767,6.981317007977328e-05,-0.027558748888990348,-0.2455157625840159
59.14786967418546,0.6089758634321955,0.5733732862906411,-4.743325,2.682734,-0.330156,0.084823,-0.0055326937288220236,-0.022863813201125627,-0.2558653381555394
60.150375939849624,0.6089757868122413,0.5733737032497994,-4.819697,2.647682,-0.388181,0.07357,-0.006161012259539984,-0.020996310901491677,-0.27324885241198715
61.152882205513784,0.6089757060034969,0.5733741099115152,-4.851313,2.539224,-0.36199,-0.012881,-0.14191272147965894,-0.04764748857944512,-0.2776643783399007
62.15538847117794,0.6089756410772487,0.5733744900442261,-4.938022,2.375371,-0.287224,0.274275,0.22149973537060033,-0.21872467931322181,-0.34206706264507614
63.1578947368421,0.6089755604430372,0.5733748343976875,-5.294964,2.129111,-0.543098,0.379086,0.4018620602716944,-0.20083503702698735,-0.5593085786132461
64.16040100250626,0.6089754387935884,0.5733751326744567,-5.619872,1.866725,-0.805736,0.360449,-0.06951646410693414,-0.22739894824234108,-0.7621327848420237
65.16290726817043,0.6089753054504335,0.5733753834782703,-6.027986,1.551319,-0.984553,0.458976,0.07749261878854824,-0.2531599905484849,-0.9829866087630458
66.16541353383458,0.6089751059593,0.5733755777334161,-6.432521,1.193001,-1.197357,0.376785,-0.02319542575900464,-0.2381152698495863,-1.2127247345353729
67.16791979949875,0.6089748862223472,0.5733757210249476,-6.792609,0.828259,-1.25225,0.360812,-0.050614548307835544,-0.2590941100052657,-1.440542718877825
68.1704260651629,0.6089746631692688,0.5733758170180565,-7.126086,0.476268,-1.216672,0.333824,-0.02502802147359871,-0.2677335072559299,-1.6654626538105115
69.17293233082707,0.6089744502391001,0.5733758562879647,-7.475651,0.14391,-1.160007,0.379872,-0.04726351614400641,-0.27743753789701864,-1.8779219152683393
70.17543859649122,0.6089742430685179,0.5733758466886538,-7.869671,-0.132012,-1.123086,0.412614,-0.006859143960337706,-0.27148594769442536,-2.074271456117701
71.17794486215539,0.6089740423556539,0.5733757978194348,-8.260056,-0.364214,-1.076122,0.368755,-0.024818581963359353,-0.26230551582893513,-2.2654025323167692
72.18045112781954,0.6089738498458374,0.5733757128219001,-8.586853,-0.598721,-0.930678,0.293312,-0.02089159114637213,-0.26619761751417514,-2.4596401898646336
73.1829573934837,0.6089736903227437,0.5733755993754988,-8.866894,-0.797776,-0.676076,0.303617,-0.031555552876057484,-0.2810328987028343,-2.653092484155685
74.18546365914787,0.6089735768763425,0.5733754578292966,-9.200476,-0.949367,-0.446273,0.376284,-0.0005759586531581235,-0.2855009590412323,-2.8434554933108296
75.18796992481202,0.608973510204765,0.5733752921975505,-9.597894,-1.096253,-0.244185,0.405841,0.005427973973702366,-0.27515115657690603,-3.02664528650674
76.19047619047619,0.608973484199359,0.5733751030038595,-10.005942,-1.23931,-0.036525,0.416161,-0.04756022211684548,-0.2765648732710213,-3.141103961399235
77.19298245614034,0.6089734798360359,0.5733748953096786,-10.430428,-1.347503,0.078144,0.442192,0.03551745027808461,-0.2770360947157673,3.1047661889194202
78.19548872180451,0.6089735047942443,0.573374660737427,-10.872724,-1.470033,0.131137,0.451927,0.04447098934081552,-0.2734058273249116,3.099687280796117
79.19799498746866,0.6089735407480269,0.5733744078392184,-11.326205,-1.581162,0.167266,0.468955,0.02595304597715568,-0.27153832502527786,3.1064242866154004
80.20050125313283,0.6089735712912887,0.5733741388839808,-11.803288,-1.683761,0.191201,0.498081,0.0216071761396898,-0.2688505005239139,3.1125852290617697
81.203007518797,0.608973603405347,0.5733738556170431,-12.312898,-1.774557,0.216596,0.534186,0.018517943363659837,-0.2659881780039357,3.1092866440419633
82.20551378446115,0.6089736369156687,0.5733735592601361,-12.863678,-1.85017,0.226848,0.573376,0.00836012711705284,-0.2621659069420681,3.101467603899614
83.20802005012531,0.6089736671098647,0.5733732534784511,-13.439389,-1.911073,0.221032,0.58412,0.005253441048502933,-0.25797711673728196,3.0959175790513194
84.21052631578947,0.6089736948605998,0.5733729407154492,-14.012971,-1.961406,0.206127,0.574066,0.004625122517784972,-0.2561096318909404,3.096126896388511
85.21303258145363,0.6089737192952094,0.5733726209711302,-14.571664,-2.010191,0.205827,0.561815,0.0036302848441482063,-0.2560398012675682,3.0997048562616847
86.21553884711778,0.6089737456496811,0.5733722940709614,-15.134065,-2.056742,0.2147,0.583224,-0.002426007660272119,-0.2591988472136779,3.1023051699543536
87.21804511278195,0.6089737833487929,0.5733719661235949,-15.733521,-2.096714,0.207606,0.621311,0.003892084231947355,-0.2586927191838919,3.104137957655165
88.22055137844612,0.6089738198261742,0.5733716339874383,-16.365259,-2.120043,0.185662,0.646419,-0.005009094953223725,-0.2561096318909404,3.102724083881417
89.22305764411027,0.6089738432135863,0.5733712950444976,-17.00853,-2.127852,0.177287,0.645664,-0.01033234917180643,-0.25284584873641847,3.0970518161723133
90.22556390977444,0.6089738608414117,0.5733709557524909,-17.641935,-2.130804,0.179593,0.631005,-0.007592182246175334,-0.25178119789270204,3.0961615237208706
91.22807017543859,0.608973878818303,0.573370617333149,-18.260681,-2.139174,0.182006,0.617989,-0.0003141592653589787,-0.2522873259224878,3.1000012655285505
92.23057644110276,0.6089739016821162,0.5733702769939448,-18.874821,-2.152007,0.192448,0.620806,-0.009424777960769376,-0.2532996343419369,3.1002108621184226
93.23308270676691,0.6089739287347196,0.5733699342112798,-19.496088,-2.16214,0.207116,0.629923,-0.003176499238629681,-0.25427701872305364,3.0961615237208706
94.23558897243107,0.6089739584053169,0.5733695895087525,-20.126602,-2.165376,0.223386,0.636682,-0.008325220532012952,-0.2539803127502147,3.0917635732585254
95.23809523809523,0.6089739891231117,0.5733692451552911,-20.759567,-2.164926,0.22797,0.634798,-0.006213372137099812,-0.25272367568877896,3.0934040780356447
96.2406015037594,0.608974018968242,0.5733689018490272,-21.390854,-2.166607,0.220872,0.632946,-0.0063879050622992475,-0.25253167201776705,3.0985876535541905
97.24310776942356,0.6089740484643063,0.5733685580191645,-22.023935,-2.17384,0.217548,0.635931,-0.005375614096142536,-0.2523047792150077,3.0993557205981155
98.24561403508771,0.6089740786585024,0.5733682108731764,-22.657665,-2.184204,0.222552,0.635391,-0.00471238898038469,-0.2524967828860196,3.095550867922183
99.24812030075188,0.6089741086781655,0.5733678621563917,-23.289669,-2.191282,0.225428,0.634118,-0.009477137838329212,-0.25345671397461667,3.0941372559478224
100.25062656641603,0.6089741362543676,0.5733675123924097,-23.919716,-2.193345,0.225469,0.63338,-0.0069464104229374326,-0.25502751030141124,3.0954986651242553
101.2531328320802,0.6089741657504321,0.5733671633265593,-24.55044,-2.195143,0.223809,0.634647,-0.006667157742618341,-0.25469588029023993,3.0974358409676293
102.25563909774435,0.6089741947228975,0.5733668144352417,-25.183249,-2.199876,0.222612,0.636121,-0.001692969374434499,-0.2532647277568971,3.0979943114216826
103.25814536340852,0.6089742226481657,0.5733664655439243,-25.818403,-2.205157,0.216871,0.638392,0.002373647782712289,-0.25275858227381875,3.0988494529419897
104.26065162907267,0.6089742500498349,0.5733661164780739,-26.455545,-2.208821,0.210525,0.639915,0.002897246558310585,-0.25274112898129886,3.0989541203372317
105.26315789473684,0.6089742771024382,0.5733657656668942,-27.091757,-2.21205,0.213111,0.639184,-0.004660029102824862,-0.2532647277568971,3.0962315637837534
106.265664160401,0.6089743038059758,0.5733654146811816,-27.727278,-2.212424,0.221427,0.638391,-0.008168140899333463,-0.2531251014167375,3.093334317225443
107.26817042606515,0.6089743317312438,0.5733650643936008,-28.363594,-2.212343,0.220655,0.641175,-0.0023561944901923444,-0.25424211213801384,3.0938578810944555
108.27067669172932,0.6089743603546436,0.5733647127097566,-29.002424,-2.213159,0.21612,0.641915,-0.0002967059728390386,-0.2544515516482533,3.0951844011391416
109.27318295739347,0.6089743889780433,0.5733643605023135,-29.640245,-2.214718,0.211664,0.64081,-0.004555309347705198,-0.2538232156642426,3.0965631239817544
110.27568922305764,0.6089744162051797,0.5733640086439362,-30.276644,-2.215963,0.209819,0.639808,-0.003543018381548488,-0.25352654459798885,3.0970693916378806
111.27819548872179,0.6089744420360526,0.573363657134625,-30.914701,-2.216068,0.213573,0.642822,-6.981317007977362e-05,-0.25427701872305386,3.094625948138381
112.28070175438596,0.6089744690886559,0.573363304752649,-31.557615,-2.217311,0.216436,0.646815,-0.0041538836197465056,-0.25425956543053374,3.091588883253693
113.28320802005013,0.6089744966648581,0.5733629525452059,-32.203381,-2.219747,0.206949,0.648825,-0.006248278722139701,-0.2538930462876152,3.092496751170703
114.28571428571428,0.6089745210994677,0.5733626008613617,-32.847614,-2.222202,0.189868,0.628899,-0.004886921905584122,-0.22905702848502818,3.094119680482255
115.28822055137844,0.6089745436142151,0.5733622470831223,-33.426949,-2.240843,0.179882,0.522329,-0.013735741213195374,-0.17231635704940018,3.0928107359031367
116.2907268170426,0.6089745629873698,0.573361893304883,-33.889526,-2.254837,0.17797,0.397515,3.4906585039886756e-05,-0.11695451317614003,3.0910128373340724
117.29323308270676,0.6089745814878598,0.5733615381303802,-34.230919,-2.265259,0.179478,0.278627,-0.0004886921905584122,-0.07028440897781163,3.088482301904898
118.29573934837092,0.6089746031299426,0.573361178767087,-34.465107,-2.270945,0.185464,0.180584,0.0024958208303518907,-0.03721041965251892,3.085602613358863
119.29824561403508,0.6089746263428215,0.5733608188801954,-34.617779,-2.27515,0.18999,0.116311,-0.0005061454830783556,-0.019285888234537252,3.0836476002505337
120.30075187969925,0.6089746506028981,0.5733604582951719,-34.721138,-2.278521,0.19085,0.078461,-0.010855947947404732,-0.011780972450961658,3.0824084339349103
121.3032581453634,0.6089746739903102,0.5733600952666874,-34.795006,-2.283652,0.190783,0.053975,-0.006405358354819189,-0.006771877497737888,3.0824608985322253
122.30576441102757,0.6089746973777221,0.5733597325872689,-34.848194,-2.289929,0.189908,0.036512,-0.0068765972528576575,-0.004555309347705094,3.0810646002240447
123.30827067669172,0.6089747232085951,0.5733593679879883,-34.887417,-2.295551,0.196837,0.024483,0.0019198621771937625,-0.0025481807079117402,3.07853378554219
124.31077694235589,0.6089747488649352,0.573359002166977,-34.913338,-2.300934,0.210125,0.013047,-0.00874409955249159,-0.0008377580409573149,3.073961145075013
125.31328320802004,0.6089747759175386,0.5733586368695645,-34.932938,-2.303474,0.219211,0.011252,-0.008726646259971648,-0.00146607657167519,3.0717445943782726
126.3157894736842,0.6089748054136028,0.5733582696522899,-34.952084,-2.304619,0.225039,0.009761,-0.0009599310885968813,-0.00027925268031903094,3.0699645330741636
127.31829573934836,0.608974837527661,0.5733579057511409,-34.967979,-2.304606,0.23135,0.006944,-0.008709192967451705,0.0015358897417550033,3.0669101545232964
128.32080200501252,0.6089748699907852,0.5733575401046626,-34.979092,-2.304677,0.239583,0.00183,-0.0076445421237351634,0.0029146998508304822,3.0632973229716676
129.32330827067668,0.6089749022793763,0.5733571746327172,-34.984585,-2.304668,0.245178,-0.002671,-0.0010995574287564276,0.0025481807079117402,3.060696468226931
130.32581453634086,0.6089749364878296,0.5733568100334364,-34.985767,-2.305336,0.250497,-0.006954,-0.007243116395776467,0.0026005405854716557,3.058864221578187
131.328320802005,0.6089749717434806,0.5733564443869581,-34.982189,-2.307359,0.258691,-0.009798,-0.006178465552059926,0.0026354471705114513,3.0560540494962583
132.33082706766916,0.6089750097916583,0.5733560782168811,-34.976017,-2.308864,0.267958,-0.011269,-0.004468042885105484,0.0018675022996339496,3.052528292421012
133.33333333333331,0.6089750499342311,0.573355712046804,-34.971409,-2.308121,0.283646,-0.006683,-0.008813912722571364,-6.981317007981325e-05,3.0472749386389717
134.3358395989975,0.6089750914730673,0.5733553465748586,-34.978676,-2.266307,0.297007,0.03004,0.10489428804485922,0.02265437369088641,3.0365237628065644
135.33834586466165,0.6089751356298974,0.5733550055375228,-34.894875,-2.058444,0.280275,-0.311326,-0.021973695282608605,0.25254914276357954,3.0127001755964744
136.3408521303258,0.6089751885133736,0.5733546969633111,-34.410374,-1.810326,0.416698,-0.551793,-0.29696775477354265,0.2860769002410981,2.8466845793198217
137.34335839598998,0.608975283284752,0.5733544398763123,-33.932583,-1.59625,0.76625,-0.474765,0.12775810124598494,0.27942717833770736,2.630699822586135
138.34586466165413,0.6089754173260387,0.5733542309604007,-33.405907,-1.291032,1.016398,-0.579618,-0.03549999698556465,0.3171786849649294,2.4005957710828363
139.34837092731829,0.6089756215295611,0.5733540677721157,-32.878082,-0.940031,1.286553,-0.495891,-0.004904375198104057,0.29459412444412303,2.1469468614509895
140.35087719298244,0.6089758485968968,0.5733539490897266,-32.382767,-0.577949,1.428081,-0.513298,-0.0058119464091411594,0.3125361266079172,1.9088141906687608
141.35338345864662,0.6089761041130992,0.5733538914938612,-31.893858,-0.200031,1.523586,-0.476565,-0.058468529941810066,0.3048042831149973,1.6674178065451801
142.35588972431077,0.6089763786533906,0.5733538883522685,-31.43412,0.143233,1.564558,-0.463169,0.002897246558310524,0.3110525967437221,1.4533007266440532
143.35839598997492,0.6089766545899453,0.5733539373960206,-30.98369,0.45854,1.523717,-0.45587,0.00945968454580929,0.322432143466725,1.23420951073462
144.36090225563908,0.6089769282575721,0.5733540346108599,-30.536242,0.765367,1.426354,-0.445028,0.015899949485668387,0.3263067744061523,1.013669758812494
145.36340852130326,0.6089771820284453,0.5733541763315951,-30.098341,1.027376,1.287682,-0.445639,0.020333085785733944,0.3361678672266277,0.7981041778052597
146.3659147869674,0.608977397402075,0.5733543508645204,-29.659349,1.251664,1.097767,-0.43676,0.03328342883553186,0.3363772892835746,0.5850518185610192
147.36842105263156,0.6089775881665622,0.5733545653654855,-29.226456,1.429786,0.889098,-0.444063,0.029775317039023263,0.34065336340425345,0.3769212878074029
148.37092731829574,0.6089777270947707,0.5733547953998808,-28.786516,1.560428,0.649003,-0.442597,0.01612684228842761,0.33789576063939486,0.17105971998796424
149.3734335839599,0.6089778182009576,0.5733550442838322,-28.343079,1.67177,0.387682,-0.457398,0.00932005820564972,0.33494613675023177,-0.026301919841336806
150.37593984962405,0.6089778597397938,0.5733553111446748,-27.873098,1.800361,0.125009,-0.488967,0.005078908123303494,0.32934361239803756,-0.15516003230168376
151.3784461152882,0.6089778614851231,0.5733555992985343,-27.377649,1.90839,-0.035304,-0.513377,0.032777283352453515,0.32489304025874444,-0.19114838986524887
152.38095238095238,0.6089778255313405,0.5733559097926083,-26.855099,2.025228,-0.114551,-0.539713,0.05928883469024738,0.31878437042347185,-0.18189816228297076
153.38345864661653,0.6089777689826728,0.5733562422778308,-26.30521,2.137424,-0.143896,-0.5676,0.038711402809234234,0.31508427240924375,-0.15974972463565365
154.38596491228068,0.6089777162737293,0.573356591692747,-25.724133,2.237071,-0.146937,-0.604631,0.02811725424962865,0.31581731069508145,-0.14095312200361956
155.38847117794487,0.6089776694989054,0.5733569571646924,-25.108934,2.324183,-0.144813,-0.635573,0.028640853025226946,0.31496211681489683,-0.1331511337280633
156.39097744360902,0.6089776277855363,0.5733573353775413,-24.470146,2.401624,-0.15145,-0.652121,0.014311699866353497,0.31361821329086115,-0.13423344730380943
157.39348370927317,0.6089775864212329,0.5733577238878327,-23.817268,2.471882,-0.171303,-0.664002,0.01043706892692609,0.3134960402432214,-0.13727051218849717
158.39598997493732,0.6089775450569297,0.5733581230446327,-23.149614,2.53451,-0.192267,-0.684042,0.009669124056048587,0.3139847324337799,-0.13814296737498413
159.3984962406015,0.6089774974094412,0.5733585297063485,-22.458464,2.587409,-0.202803,-0.710499,0.007051130178057098,0.31443853549259093,-0.13730512206756385
160.40100250626566,0.6089774478420904,0.5733589423021836,-21.741886,2.631689,-0.196067,-0.73092,0.01029744258676655,0.3132167701096098,-0.1358388011497935
161.4035087719298,0.6089774010672664,0.5733593594358748,-21.014181,2.667599,-0.186455,-0.732838,0.0012391837689159776,0.31140162768753576,-0.13498392142887483
162.406015037594,0.6089773569104364,0.5733597791875599,-20.296324,2.675419,-0.193472,-0.713599,-0.0057246799465414,0.3108431223268975,-0.13725239567086184
163.40852130325814,0.6089773106592111,0.5733601999864425,-19.597586,2.682659,-0.227404,-0.702035,-0.004991641660703785,0.3125710157396644,-0.1426458295786663
164.4110275689223,0.6089772556813398,0.5733606209598582,-18.898596,2.685696,-0.259965,-0.710878,-0.008290313946973065,0.3153111826652957,-0.14674763257353374
165.41353383458645,0.6089771958165464,0.5733610400134116,-18.183943,2.679349,-0.270319,-0.727246,-0.008080874436733743,0.31667252202855867,-0.14678225990589347
166.41604010025063,0.6089771331592263,0.5733614562744381,-17.456783,2.668863,-0.27053,-0.734042,-0.0061086523819801515,0.31653291314169163,-0.14662512791333643
167.41854636591478,0.6089770713745707,0.573361869568405,-16.726305,2.657598,-0.265101,-0.734132,-0.0015184364492350677,0.31751031497610116,-0.1459790419308329
168.42105263157893,0.6089770139532383,0.5733622812915756,-15.998297,2.657423,-0.256102,-0.73153,0.001483529864195181,0.3177197195797554,-0.14241893677590792
169.4235588972431,0.608976961244295,0.5733626947600754,-15.266303,2.658432,-0.236979,-0.746715,-0.004485496177625424,0.317684830448008,-0.13721778579179514
170.42606516290726,0.6089769102806808,0.5733631073559106,-14.51534,2.642867,-0.215566,-0.760857,-0.0009250245035569957,0.315642812676467,-0.13589152754649558
171.42857142857142,0.608976863331324,0.5733635173337518,-13.760493,2.634443,-0.198541,-0.752393,0.00020943951023931818,0.3101275373335799,-0.13856160204936718
172.43107769423557,0.6089768191744938,0.5733639262643956,-13.015448,2.635692,-0.194636,-0.74581,-0.005602506898901802,0.3094643471244072,-0.1443033862225776
173.43358395989975,0.6089767758903283,0.5733643336242431,-12.272347,2.626728,-0.197702,-0.745007,-0.008988445647770802,0.31052898051483124,-0.14861450655463784
174.4360902255639,0.6089767334788276,0.5733647415076891,-11.535166,2.62672,-0.185,-0.738433,-0.004101523742186674,0.30979594222899354,-0.14781237068371245
175.43859649122805,0.6089766931617218,0.573365147645806,-10.79367,2.617198,-0.16055,-0.755983,-0.0009075712110370552,0.311035108544617,-0.1455257799240901
176.44110275689223,0.6089766568588734,0.5733655513404621,-10.036786,2.593992,-0.153734,-0.757086,-0.005061454830783552,0.3094468763785947,-0.14667733071126346
177.4436090225564,0.6089766193342945,0.5733659546860522,-9.293876,2.610977,-0.17882,-0.741894,0.0031764992386296774,0.30606092017643327,-0.15350193460570363
178.44611528822054,0.6089765795407874,0.5733663594279058,-8.540684,2.629375,-0.162658,-0.773357,-0.0038920842319473585,0.3095167070019671,-0.15550890616586546
179.4486215538847,0.6089765474267294,0.573366767311352,-7.772393,2.619059,-0.11571,-0.750286,0.001675516081914551,0.3063925501876046,-0.15264653128600908
180.45112781954887,0.6089765161853355,0.5733671790345225,-7.052598,2.63651,-0.129475,-0.702678,-0.002164208272472962,0.27913052472474575,-0.1572537990855463
181.45363408521303,0.6089764880855347,0.5733675870925017,-6.354468,2.612035,-0.117067,-0.692663,0.000959931088596882,0.226561190201384,-0.16067490621884264
182.45614035087718,0.6089764643490568,0.5733679879946308,-5.74221,2.595632,-0.10114,-0.486752,0.013212142437597073,0.14868458152410446,-0.16468935548464822
183.45864661654133,0.6089764292679388,0.5733683960526099,-5.393097,2.70193,-0.17845,-0.256864,-0.004904375198104068,0.09883799554043904,-0.17633108556788482
184.4611528822055,0.608976389474432,0.5733688123136365,-5.113157,2.729348,-0.19612,-0.310447,-0.01286307658719821,0.0813672497279756,-0.1795247588463538
185.46365914786966,0.6089763503790567,0.5733692345087826,-4.815883,2.658383,-0.131442,-0.224877,0.0102799892942466,0.035046211380046266,-0.1798736327105355
186.46616541353382,0.6089763114582144,0.5733696586237909,-4.669094,2.68905,-0.142908,-0.090369,0.010541788682045751,0.006806784082777906,-0.19059018121058302
187.468671679198,0.608976277598827,0.5733700698233626,-4.564692,2.661187,-0.151345,-0.096215,-0.015533430342749533,-0.0008028514559172972,-0.1962275597879411
188.47117794486215,0.6089762463574334,0.5733704818955989,-4.534457,2.660271,-0.184048,0.055166,0.008307767239493008,-0.023561944901923315,-0.20008435346241282
189.4736842105263,0.6089761950447533,0.5733709040907451,-4.590075,2.75705,-0.253915,0.016614,-0.014852751934471746,-0.01096066770252424,-0.21249362699079938
190.47619047619045,0.6089761414631453,0.5733713282057533,-4.541406,2.694341,-0.220655,-0.052494,-0.014887658519511635,-0.012007865253720995,-0.22031266713314968
191.47869674185463,0.6089760898013994,0.5733717469102408,-4.553977,2.632269,-0.243839,0.096263,0.008813912722571364,-0.035046211380046044,-0.22729440302014697
192.4812030075188,0.6089760302856719,0.5733721614259382,-4.642988,2.689351,-0.31034,0.050637,-0.0014311699866353495,-0.024347343065320937,-0.24078544907221325
193.48370927318294,0.6089759678028847,0.5733725712292466,-4.626997,2.645752,-0.290656,-0.024501,-0.005044001538263611,-0.028763026072866404,-0.2482028889536781
194.48621553884712,0.608975908810756,0.5733729864430755,-4.677637,2.665033,-0.274029,0.145573,0.014137166941154071,-0.043668137884897984,-0.25448635351353777
195.48872180451127,0.6089758414410469,0.573373405671162,-4.823299,2.699929,-0.358411,0.107879,-0.02033308578573394,-0.01696460032938485,-0.26214880271539825
196.49122807017542,0.6089757602832366,0.5733738173943325,-4.862872,2.603145,-0.443899,-0.000481,-0.012025318546240931,-0.011065387457644071,-0.26981071086519154
197.49373433583958,0.6089756717950435,0.57337421759833,-4.847557,2.481913,-0.353138,0.037151,-0.040805797911627424,-0.12779302528431735,-0.2725505636315566
198.49624060150376,0.6089755995384125,0.5733745895279936,-5.028382,2.297342,-0.289028,0.332201,0.3449817974024917,-0.24919811059975028,-0.4112171123288475
199.4987468671679,0.6089755148899438,0.5733749103195102,-5.389387,1.976707,-0.553678,0.425967,0.15360642746802095,-0.23061035406601071,-0.6414085001079165
200.50125313283206,0.6089754073776619,0.5733751874777954,-5.873003,1.678913,-0.870057,0.512976,0.12671090369478835,-0.23556708914167457,-0.8866446260391767
201.50375939849624,0.6089752564066816,0.5733754056439517,-6.26726,1.376353,-1.153815,0.297612,-0.0194778744522567,-0.2123367393443376,-1.1206059948157236
202.5062656641604,0.6089750469671714,0.5733755670869076,-6.562677,0.971009,-1.19477,0.359429,-0.04783947479716462,-0.2710147262496796,-1.3232214073060862
203.50877192982455,0.6089748207725003,0.5733756843730333,-6.949275,0.671368,-1.241144,0.402111,0.045710173109731495,-0.25953045977155687,-1.5190649597520016
204.5112781954887,0.6089745895163744,0.5733757526154071,-7.326416,0.38611,-1.276377,0.368415,-0.03965388060531114,-0.2611710692684315,-1.7232159652781465
205.51378446115288,0.6089743586093144,0.573375773733891,-7.664689,0.060193,-1.230071,0.331138,-0.026755897433073078,-0.268361825786648,-1.9343833340236476
206.51629072681703,0.6089741386978287,0.573375755407934,-7.998875,-0.222897,-1.10726,0.352447,-0.03384193419617007,-0.2727076956241139,-2.140489352658121
207.51879699248119,0.6089739460134791,0.573375696590338,-8.360269,-0.450314,-0.947204,0.382336,-0.006841690667817768,-0.2785894552033348,-2.3445530219084953
208.52130325814534,0.6089737812543977,0.5733756019934926,-8.732819,-0.657551,-0.819565,0.368832,-0.02200860186764851,-0.2770360947157673,-2.5365219259616913
209.52380952380952,0.6089736409299259,0.5733754782496487,-9.089904,-0.854759,-0.671059,0.346422,-0.027628562059070234,-0.27466246438634756,-2.7236385528949567
210.52631578947367,0.6089735316723148,0.5733753272786685,-9.423382,-0.993709,-0.444833,0.341229,-0.005829399701661056,-0.2757096619375441,-2.9137224664494137
211.52882205513782,0.6089734648262044,0.5733751527457431,-9.766059,-1.139716,-0.176121,0.362019,-0.022218041377887812,-0.28050933483382123,-3.0796160991179375
212.531328320802,0.6089734440567863,0.5733749570943341,-10.147193,-1.264837,0.025405,0.407658,-0.021258110289290935,-0.2861816199962175,3.124697831523903
213.53383458646616,0.6089734597647496,0.5733747404989739,-10.568479,-1.39656,0.128505,0.44412,0.050632001600355504,-0.2839127094219176,3.1049233209119773
214.5363408521303,0.6089735004309212,0.5733744978982078,-11.029422,-1.522536,0.170568,0.486327,0.03726277953007893,-0.2765648732710213,3.1055515696295255
215.53884711779446,0.608973540573494,0.5733742359242872,-11.529912,-1.625477,0.182995,0.52291,0.02256710722828668,-0.2681523862764088,3.1097228716352063
216.54135338345864,0.6089735716403546,0.573373960685864,-12.054777,-1.710228,0.186169,0.537893,0.018605209826259555,-0.261432851202938,3.1110142407487573
217.5438596491228,0.6089735978202935,0.5733736728810703,-12.587216,-1.788307,0.187035,0.539341,0.012479104151759452,-0.2596700686584237,3.1093913114372054
218.54636591478695,0.6089736226039688,0.573373374953367,-13.118248,-1.867125,0.190181,0.532636,0.003193952531149623,-0.26014132500975484,3.106738271347834
219.54887218045113,0.6089736480857758,0.5733730660300894,-13.647397,-1.930689,0.209249,0.542511,0.001343903524035633,-0.2611710692684315,3.102898529540154
220.55137844611528,0.6089736770582415,0.5733727489037644,-14.199482,-1.985224,0.227703,0.57693,0.000610865238198016,-0.26199139147016126,3.0999839518623706
221.55388471177943,0.6089737086487009,0.573372423225326,-14.786355,-2.033082,0.227392,0.607322,-0.0016929693744344987,-0.26012387171723494,3.0999141910521684
222.55639097744358,0.6089737390174298,0.5733720924854327,-15.396565,-2.068683,0.210676,0.621661,0.0042586033748661664,-0.2573313274607514,3.1029858658159233
223.55889724310777,0.6089737643247041,0.573371758080348,-16.020292,-2.093903,0.181779,0.634629,-0.0012740903539558595,-0.2561445210226878,3.1053246593734736
224.56140350877192,0.6089737842214575,0.5733714217554011,-16.65419,-2.113218,0.163345,0.641509,-0.012932889757277983,-0.25411992163708175,3.1050104128416516
225.56390977443607,0.6089738020238158,0.573371084034191,-17.289782,-2.127717,0.164071,0.638646,-0.003159045946109738,-0.25146705608063535,3.0993205696669803
226.56641604010025,0.6089738191280426,0.5733707447421843,-17.918545,-2.135623,0.173135,0.629924,-0.006719517620178168,-0.25019293082009453,3.096598013113502
227.5689223057644,0.6089738388502631,0.5733704035303157,-18.53846,-2.141642,0.179432,0.623,-0.006178465552059927,-0.25047218350041356,3.09881482560963
228.57142857142856,0.6089738627612739,0.5733700612712492,-19.155647,-2.14749,0.198726,0.624421,-0.005846852994181005,-0.2516066649675026,3.0975580838284387
229.5739348370927,0.6089738915592066,0.5733697193612488,-19.779388,-2.151767,0.225602,0.631757,-0.007225663103256525,-0.25310763067092523,3.092985164108581
230.5764411027569,0.6089739327489768,0.5733693797201764,-20.415054,-2.156468,0.233741,0.643254,-0.012112585008840646,-0.25315999054848515,3.092514064836883
231.57894736842104,0.6089739749859447,0.5733690397300382,-21.056074,-2.163598,0.219493,0.64339,-0.004433136300065596,-0.25130995899466346,3.0968946841797558
232.5814536340852,0.6089740057037395,0.573368694503912,-21.690956,-2.170963,0.204606,0.634783,-0.00900589894029074,-0.25136231887222316,3.0997048562616847
233.58395989974937,0.6089740318836784,0.5733683489287202,-22.31661,-2.176627,0.201817,0.624316,-0.006736970912698112,-0.25244442300845993,3.1007869080380432
234.58646616541353,0.6089740564928209,0.5733680005610015,-22.935795,-2.179558,0.211555,0.62199,-0.002932153143350472,-0.2540326726277746,3.0999490627306234
235.58897243107768,0.6089740856398194,0.5733676527168815,-23.557888,-2.183025,0.22821,0.63036,-0.007347836150896126,-0.25544637186859753,3.096929573311503
236.59147869674183,0.608974119150141,0.5733673048727616,-24.190512,-2.186692,0.237929,0.642767,-0.011082840750163995,-0.25507987017897116,3.093648563757264
237.593984962406,0.6089741512641992,0.5733669568541088,-24.831676,-2.190729,0.231139,0.646111,-0.0033335788713091696,-0.25361379360729597,3.0943814624167616
238.59649122807016,0.6089741812838623,0.5733666070901267,-25.473154,-2.196503,0.213451,0.640814,-0.0057770398241012285,-0.25247931214020713,3.098360760751431
239.59899749373432,0.6089742081619328,0.5733662575006775,-26.108816,-2.202722,0.201851,0.635591,-0.0033161255787892254,-0.2531949320401099,3.1001583975211076
240.6015037593985,0.6089742322474765,0.5733659066894978,-26.737818,-2.206575,0.199872,0.631782,-0.0024085543677521744,-0.25492277309299927,3.1000364164596856
241.60401002506265,0.608974256682086,0.5733655567509828,-27.36581,-2.207852,0.210536,0.636348,-0.00986111027376796,-0.2567030089300333,3.097697361102748
242.6065162907268,0.6089742849564199,0.5733652052416714,-28.002783,-2.206657,0.223901,0.645968,-0.008360127117052838,-0.256493604326379,3.093596099159949
243.60902255639095,0.6089743167214123,0.5733648546050247,-28.649235,-2.205944,0.228687,0.652431,-0.009581857593448874,-0.2552194790658384,3.091222416470652
244.61152882205513,0.60897434761374,0.5733645025721146,-29.299946,-2.206288,0.219,0.651905,-0.002373647782712287,-0.25425956543053374,3.0930725178376433
245.6140350877193,0.6089743764116727,0.5733641514118691,-29.947243,-2.209616,0.201966,0.644501,-0.010541788682045748,-0.25349160310636387,3.0967202559743114
246.61654135338344,0.6089744018934797,0.5733638004261565,-30.588531,-2.21139,0.198574,0.639871,-0.005480333851262197,-0.2539279528726548,3.096755145106059
247.6190476190476,0.6089744277243527,0.5733634483932464,-31.226927,-2.214168,0.205584,0.639798,-0.006614797865058508,-0.2548704481220243,3.09406721588494
248.62155388471177,0.6089744546024232,0.5733630958367375,-31.868658,-2.216287,0.21333,0.64602,-0.010629055144645468,-0.2551322300565311,3.090559296074649
249.62406015037593,0.6089744821786255,0.5733627434547615,-32.516861,-2.215462,0.201355,0.655093,-0.00884881930761125,-0.24928537706235,3.0916413303977155
250.62656641604008,0.6089745069623007,0.573362390025588,-33.147167,-2.224791,0.179951,0.591929,-0.012583823906879113,-0.20270252187332893,3.0928632005004517
251.62907268170426,0.6089745294770481,0.5733620350256181,-33.679626,-2.239979,0.172535,0.469679,-0.00949459113084915,-0.14308209207849498,3.0895121334300377
252.6315789473684,0.6089745472794065,0.5733616815964446,-34.084854,-2.250199,0.174355,0.337213,-0.002007128639793478,-0.08958775050486878,3.086684403335834
253.63408521303256,0.608974566827094,0.5733613262474089,-34.363792,-2.258841,0.182337,0.217822,-0.0027401669256310987,-0.0489913921034808,3.084188757038407
254.63659147869672,0.6089745896909073,0.5733609696766427,-34.541744,-2.267876,0.183255,0.135075,-0.0018151424220741032,-0.02656391121535373,3.0837525294451638
255.6390977443609,0.6089746104603254,0.5733606103133497,-34.657074,-2.274984,0.180654,0.089547,-0.007819075048934596,-0.015952309363228112,3.0826180130714897
256.64160401002505,0.6089746357675996,0.5733602490301946,-34.739132,-2.278957,0.192843,0.064754,5.235987755982988e-05,-0.011780972450961658,3.0781324470806943
257.64411027568923,0.6089746615984725,0.5733598856526443,-34.79855,-2.280777,0.199469,0.044975,-0.014137166941154071,-0.008115781021773572,3.0758285601081843
258.64661654135335,0.6089746869057466,0.573359522449627,-34.843021,-2.281852,0.199317,0.035755,-0.0067369709126981125,-0.007452555906015679,3.076020825578584
259.64912280701753,0.6089747136092842,0.5733591599447413,-34.876778,-2.284054,0.203635,0.02405,-0.0036128315516282625,-0.0059166661642606755,3.073821588548024
260.6516290726817,0.6089747429308157,0.5733587965671911,-34.899754,-2.287139,0.211137,0.014328,-0.00757472895365539,-0.004712388980384619,3.0715874623857156
261.65413533834584,0.6089747720778141,0.5733584328405749,-34.915386,-2.292462,0.223772,0.010499,-0.010559241974565694,-0.005044001538263565,3.0673988467138544
262.65664160401,0.6089748047154712,0.5733580678922283,-34.929756,-2.296734,0.239726,0.012058,-0.009250245035569947,-0.004642575810304805,3.0631923937770376
263.65914786967414,0.6089748397965892,0.5733577018966842,-34.945045,-2.30019,0.250508,0.013958,-0.011658799403322121,-0.004223696789826148,3.060330018897182
264.6616541353383,0.608974877670234,0.57335733590114,-34.964642,-2.300106,0.255119,0.01915,-0.008447393579652554,-0.004485496177625281,3.058305489324746
265.6641604010025,0.6089749151948128,0.5733569693819972,-34.986412,-2.297883,0.254103,0.017129,-0.00930260491312978,-0.002827433388230771,3.0573978832071242
266.66666666666663,0.6089749523703258,0.573356605655381,-35.00069,-2.295624,0.254887,0.006701,-0.002007128639793479,0.0001221730476397287,3.055827156693499
267.6691729323308,0.6089749897203719,0.5733562421032978,-35.001728,-2.294821,0.261338,-0.007922,-0.0038746309394274113,0.0018500490071140518,3.053558403198832
268.671679197995,0.6089750282921483,0.57335587767855,-34.992359,-2.295958,0.27513,-0.013022,-0.003926990816987243,0.0008377580409573149,3.04881105527353
269.6741854636591,0.6089750700055174,0.5733555136028681,-34.982952,-2.297817,0.292054,-0.005932,-0.00328121899374934,-0.0013439035240356834,3.0424753879157427
270.6766917293233,0.6089751139878146,0.5733551561594373,-34.987122,-2.140823,0.306521,-0.051546,0.15735888535980874,0.11913617474113303,3.036838009338386
271.6791979949875,0.6089751590173094,0.5733548296083342,-34.69595,-1.945431,0.318705,-0.540817,-0.1725956097297192,0.3225368632218446,2.9618410019406793
272.6817042606516,0.6089752258634196,0.5733545421526064,-34.145237,-1.73305,0.551853,-0.496756,-0.13615313494807765,0.26010641842471505,2.7622802123472807
273.6842105263158,0.6089753290123785,0.5733542930941221,-33.667538,-1.488294,0.84025,-0.531685,0.12222540751716288,0.3070732285958826,2.553154966093075
274.68671679197996,0.6089754660207247,0.5733541100090837,-33.119377,-1.133947,1.103472,-0.531854,-0.10105456369047165,0.29705503868943506,2.2905004367736184
275.6892230576441,0.6089756861067434,0.5733539670666179,-32.619888,-0.779536,1.348843,-0.493194,0.04389503068765737,0.3002664445131047,2.0502557430635515
276.69172932330827,0.6089759219007254,0.5733538761349639,-32.121494,-0.413861,1.46026,-0.505991,-0.06276203990171614,0.31038931926808666,1.8080913093493385
277.6942355889724,0.6089761995826094,0.5733538518748873,-31.640574,-0.050663,1.550041,-0.466585,-0.010384709049366298,0.30455993701971806,1.5790342808643094
278.69674185463657,0.6089764791843555,0.5733538672337847,-31.180267,0.275027,1.547301,-0.462904,0.01207767842380079,0.3186622322824173,1.3635384781205702
279.69924812030075,0.6089767538991798,0.5733539379196193,-30.727171,0.586255,1.483184,-0.450191,0.009180431865490191,0.32349677685714906,1.14116613048385
280.7017543859649,0.6089770141277713,0.5733540529368171,-30.285662,0.881967,1.368469,-0.436356,0.014468779499032997,0.3297450555792887,0.9233315341825602
281.70426065162906,0.6089772460820289,0.573354206874857,-29.845673,1.129124,1.208638,-0.446059,0.006771877497738011,0.3356093269594047,0.7100697877879582
282.70676691729324,0.6089774466203599,0.5733543969412126,-29.405064,1.337963,1.012597,-0.43723,0.05005604294719736,0.3369707012292529,0.5000543014421879
283.70927318295736,0.6089776089359803,0.5733546151073692,-28.959692,1.494003,0.788165,-0.452491,-0.0009599310885968846,0.3374594283263961,0.29298843898558063
284.71177944862154,0.6089777279674353,0.5733548536938778,-28.511559,1.611423,0.547589,-0.450678,0.005340707511102646,0.3345272577297531,0.08868017929383187
285.7142857142857,0.6089778012712639,0.573355109908212,-28.055929,1.734406,0.264162,-0.469819,0.021170843826691217,0.3299545125428205,-0.09168251212640512
286.71679197994985,0.6089778225642808,0.5733553884627607,-27.574081,1.84993,0.040555,-0.495564,-0.006981317007977315,0.32635909937712704,-0.1768717187569833
287.719298245614,0.6089778099979102,0.5733556841215359,-27.068731,1.96072,-0.081515,-0.521364,0.0544193660771832,0.3215594613874351,-0.18626148541295717
288.72180451127815,0.6089777623504216,0.5733560049130525,-26.534439,2.077957,-0.135184,-0.550039,0.057752944948492396,0.3160965808286931,-0.16825000169164128
289.72431077694233,0.6089777061508197,0.5733563442050591,-25.968138,2.185554,-0.148186,-0.585968,0.023003439541285257,0.3149097394840443,-0.14679983537146085
290.7268170426065,0.6089776736876955,0.5733566964125021,-25.364624,2.280101,-0.145528,-0.625123,0.031189033733138673,0.31566023106240193,-0.13428563264844431
291.72932330827064,0.6089776468096251,0.5733570617099145,-24.726574,2.362794,-0.142716,-0.653317,0.02022836603061428,0.3139149192637001,-0.13095242029627774
292.7318295739348,0.60897761190304,0.5733574435879548,-24.067526,2.433435,-0.15126,-0.66919,0.010262536001726653,0.3124488252387323,-0.1340241125133244
293.734335839599,0.6089775736803295,0.5733578366361024,-23.398869,2.495879,-0.170209,-0.67662,0.008482300164692445,0.3123266696443854,-0.1373924757966265
294.7368421052631,0.6089775323160262,0.5733582382363633,-22.723036,2.552641,-0.191154,-0.686106,0.004747295565424577,0.3138625593861404,-0.1374798295256883
295.7393483709273,0.6089774872865316,0.5733586466434083,-22.030661,2.603082,-0.207374,-0.707817,0.007853981633974482,0.3148399437672573,-0.13624040141067734
296.7418546365915,0.6089774354502526,0.5733590615081715,-21.312513,2.647005,-0.216118,-0.734607,0.00703367688553715,0.3140021682730074,-0.13671177993505637
297.7443609022556,0.6089773836139739,0.5733594810853236,-20.570717,2.675143,-0.2145,-0.751369,0.0022165681500327912,0.3122044965967459,-0.13786333072222884
298.7468671679198,0.6089773345702219,0.5733599010115418,-19.82645,2.671274,-0.217216,-0.741363,-0.009302604913129777,0.31086061052600256,-0.14142397692922365
299.74937343358397,0.6089772829084761,0.573360320239628,-19.09618,2.671489,-0.232735,-0.726819,-0.007836528341454544,0.3103544475896318,-0.14456544740976462
300.7518796992481,0.6089772308976644,0.5733607365006546,-18.3799,2.673778,-0.244929,-0.715849,-0.010384709049366257,0.31150636489594796,-0.14289031530028612
301.7543859649123,0.6089771764433917,0.5733611541579446,-17.672083,2.68033,-0.250455,-0.708525,-0.00047123889803847016,0.3132866181862748,-0.14098774933598013
302.7568922305764,0.6089771186729935,0.5733615723388334,-16.964539,2.682535,-0.264039,-0.716776,-0.009145525280450286,0.3170041520397302,-0.14281999598472278
303.7593984962406,0.608977058982733,0.5733619903451893,-16.239489,2.673185,-0.276367,-0.739044,-0.005794493116621168,0.3196221808243065,-0.1443390782057812
304.76190476190476,0.6089769999906044,0.5733624066062158,-15.491207,2.656383,-0.274022,-0.760693,-0.0004188790204786319,0.3180164604591793,-0.14426875889021873
305.7644110275689,0.6089769420456731,0.5733628190275182,-14.726213,2.636976,-0.240963,-0.77135,0.0023561944901923527,0.3149970233999366,-0.14200028464823092
306.76691729323306,0.6089768938745859,0.5733632267364314,-13.967636,2.630122,-0.19505,-0.746955,-0.0009599310885968899,0.3110700325829494,-0.13657222340806666
307.76942355889724,0.6089768533829472,0.5733636346198776,-13.245337,2.647413,-0.181559,-0.711064,-0.0012915436464757976,0.30913271711323564,-0.13590910301206383
308.77192982456137,0.6089768099242489,0.5733640454703836,-12.532482,2.651901,-0.214892,-0.731177,-0.008848819307611253,0.3145257845018983,-0.14364078942535066
309.77443609022555,0.6089767634984906,0.5733644564954224,-11.779145,2.629314,-0.221237,-0.775839,-0.007557275661135444,0.31534610670362806,-0.14891117762089157
310.77694235588973,0.6089767193416606,0.5733648675204611,-10.999346,2.614498,-0.171541,-0.779507,0.004031710572106905,0.30981337806822085,-0.14517690605990843
311.77944862155385,0.608976683562411,0.5733652719132488,-10.237429,2.613432,-0.114728,-0.746064,0.0037873644768276955,0.3047170341056902,-0.1399405866913679
312.78195488721803,0.6089766559862088,0.5733656761315037,-9.505986,2.61723,-0.117564,-0.731039,-0.015027284859671175,0.30450757714215815,-0.14789918336070706
313.7844611528822,0.6089766264901444,0.573366081222423,-8.76365,2.606135,-0.1373,-0.766481,-0.008150687606813515,0.30998792844671286,-0.15704448174835522
314.78696741854634,0.6089765989139422,0.5733664850916119,-8.002534,2.600946,-0.118917,-0.750782,0.00836012711705284,0.3080855195620391,-0.15657362682275114
315.7894736842105,0.6089765695924108,0.5733668921023936,-7.286741,2.628544,-0.118434,-0.689712,-0.0068416906678177725,0.29791025002291227,-0.15964531903979864
316.79197994987464,0.608976531718766,0.5733673012075702,-6.643219,2.643636,-0.206189,-0.603573,-0.007138396640656809,0.25048965424622627,-0.1649513992185414
317.7944862155388,0.608976480406086,0.5733677139779383,-6.057623,2.641968,-0.281751,-0.584968,-0.011082840750163992,0.19069467407290053,-0.17051847593362823
318.796992481203,0.6089764238574182,0.5733681230831149,-5.442981,2.611206,-0.179147,-0.623097,0.010890854532444616,0.12407545652427698,-0.17343357721018676
319.79949874686713,0.6089763931396235,0.5733685271268368,-4.9153,2.629881,-0.001396,-0.363055,0.0182212373908208,0.04354596483725848,-0.17362531908181045
320.8020050125313,0.6089763884272344,0.5733689383264086,-4.754609,2.732409,-0.033526,0.003418,-0.013788101090755204,0.008970992355251006,-0.17353796535274874
321.8045112781955,0.6089763769080613,0.573369359299824,-4.796137,2.731627,-0.170492,0.031077,-0.019617500792416268,0.021694442602289588,-0.1747774109210518
322.8070175438596,0.6089763341474946,0.5733697849856286,-4.798793,2.679593,-0.279858,-0.023244,0.0031764992386296795,0.015044738152191206,-0.1916719711875541
323.8095238095238,0.6089762584002051,0.5733702068317089,-4.70118,2.659692,-0.301116,-0.170883,-0.004590215932745088,0.011117747335203987,-0.20926480278119478
324.812030075188,0.6089761985354117,0.5733706131443588,-4.521343,2.630042,-0.191845,-0.115375,0.006579891280018625,-0.02214822820780804,-0.21493733228968662
325.8145363408521,0.6089761615344317,0.573371027834589,-4.499911,2.708492,-0.124672,0.065309,0.0007504915783575608,-0.03741985916275836,-0.21062621195762812
326.8170426065163,0.608976132736499,0.5733714467136095,-4.604463,2.721352,-0.184012,0.124347,-0.014538592669112765,-0.02871066619530671,-0.2057222730918371
327.8195488721804,0.608976090674064,0.5733718696068874,-4.715665,2.668702,-0.274465,0.088364,-0.006440264939859077,-0.022759093446006018,-0.21549606454312745
328.8220551378446,0.6089760227807561,0.5733722909293686,-4.756006,2.665706,-0.321748,0.00266,0.005148721293383271,-0.017383479349863507,-0.245881670861696
329.82456140350877,0.6089759493023946,0.5733727057941319,-4.738435,2.685742,-0.33342,-0.015997,-0.014974924982111348,-0.019966566642815042,-0.26132800927477035
330.8270676691729,0.6089758843761465,0.5733731236259548,-4.732995,2.692209,-0.29046,0.024125,0.0011519173063162576,-0.02136283004441042,-0.2576981258563509
331.8295739348371,0.6089758245113531,0.5733735419813766,-4.813749,2.657585,-0.301562,0.138412,0.010018189906447452,-0.027104963283471895,-0.2583958735847135
332.83208020050125,0.6089757503348598,0.5733739516101519,-4.944987,2.564149,-0.398415,0.077825,-0.07843509658462516,-0.023945917337362177,-0.2680306495610829
333.8345864661654,0.6089756756347678,0.5733743352335217,-4.994359,2.398124,-0.33479,0.112997,0.04567526652469161,-0.16285665505029834,-0.288572686164865
334.83709273182956,0.6089755990148137,0.5733746897098927,-5.227777,2.200923,-0.420637,0.31404,0.4580790805718468,-0.21895155466268856,-0.481553846277633
335.83959899749374,0.6089754834740173,0.5733750035200922,-5.522044,1.996643,-0.689138,0.339582,0.06510078109938851,-0.21490239079806184,-0.6999293375674089
336.84210526315786,0.6089753530979221,0.5733752777113177,-5.953808,1.652892,-0.951787,0.498483,0.1281420736814237,-0.24371777674848816,-0.9248327616853705
337.84461152882204,0.6089751696638178,0.5733754939576119,-6.363539,1.284165,-1.21579,0.314521,-0.06977826349473332,-0.21895155466268856,-1.1549367957353776
338.8471177944862,0.6089749535920563,0.5733756510372446,-6.661836,0.906344,-1.214926,0.345117,-0.08941321757966948,-0.27762952411473796,-1.3559633826477726
339.84962406015035,0.6089747338551036,0.5733757543607364,-7.036479,0.578152,-1.230304,0.392881,0.03495894491744641,-0.27003734186856265,-1.5554549175764507
340.8521303258145,0.608974510976558,0.57337581125847,-7.433556,0.314899,-1.254549,0.405103,-0.008517206749732331,-0.2644871948472207,-1.7647026859441468
341.85463659147865,0.6089742823384261,0.5733758264428345,-7.84437,0.033654,-1.241989,0.411085,-0.02637192499763428,-0.26035076451999406,-1.9770042918106416
342.85714285714283,0.6089740540493599,0.5733758032299554,-8.210789,-0.266355,-1.169823,0.328701,-0.04056145181634825,-0.25965265027248874,-2.183302069770032
343.859649122807,0.6089738514166336,0.573375738827306,-8.522396,-0.527362,-0.967398,0.307467,-0.029565877528783948,-0.2758667415702236,-2.3864759701677394
344.86215538847114,0.608973687530217,0.5733756334094191,-8.841115,-0.741619,-0.738042,0.347013,-0.02066469834361286,-0.28544861661696497,-2.5827208436218587
345.8646616541353,0.6089735672770314,0.5733754974482704,-9.203216,-0.902774,-0.542151,0.380002,-0.016091935703387728,-0.28340654648554664,-2.7722111532444202
346.8671679197995,0.6089734862937543,0.5733753393214402,-9.596245,-1.024616,-0.350569,0.395162,-0.00687659725285766,-0.27733280068860644,-2.962940890981994
347.8696741854636,0.6089734388207986,0.5733751611233235,-9.99707,-1.175302,-0.138643,0.411523,-0.03937462792499206,-0.2800031544441577,-3.1107351451480714
348.8721804511278,0.6089734184004463,0.5733749632029865,-10.408792,-1.30211,0.018623,0.416578,-0.00481710873550435,-0.28003807848249007,3.111119169943387
349.874686716792,0.6089734321885474,0.5733747375319141,-10.826953,-1.432991,0.127063,0.426547,0.04523893421169302,-0.27836256240057544,3.097610286626366
350.8771929824561,0.6089734728547189,0.573374490393292,-11.26508,-1.548569,0.196593,0.46264,0.030892327760299636,-0.27733280068860644,3.0993032560008005
351.8796992481203,0.6089735175351478,0.5733742256268446,-11.751516,-1.650224,0.219054,0.516477,0.025743606466916365,-0.27399923927058967,3.1050279883072194
352.88220551378447,0.6089735568050559,0.5733739458505654,-12.282207,-1.746793,0.2084,0.542199,0.018762289458939038,-0.26481880740509944,3.1074887454728986
353.8847117794486,0.60897358926818,0.5733736543805804,-12.827602,-1.8246,0.205044,0.549805,0.006492624817418905,-0.2596700686584237,3.1034396688747345
354.8872180451128,0.6089736178915798,0.5733733520895539,-13.37507,-1.889318,0.218778,0.551719,0.0021293016874330824,-0.2590592208735183,3.0973135981068194
355.8897243107769,0.6089736472131113,0.5733730415954801,-13.928341,-1.943825,0.227832,0.564197,-0.0032288591161895096,-0.2607172836629128,3.097453416433197
356.8922305764411,0.6089736784545049,0.5733727239455562,-14.498265,-1.994355,0.224231,0.582613,0.0005235987755982979,-0.26026351551068694,3.099774634525179
357.89473684210526,0.6089737086487009,0.5733723989652494,-15.085567,-2.040354,0.205715,0.598467,0.003351032163829112,-0.2582738052568283,3.101205821965107
358.8972431077694,0.6089737346541068,0.573372068748955,-15.684863,-2.077858,0.181428,0.607484,-0.00041887902047864047,-0.25699971490287243,3.1041725849875244
359.89974937343356,0.6089737542017943,0.5733717338202714,-16.290846,-2.103639,0.16452,0.614626,-0.008953539062730912,-0.25672049712913836,3.1040506039261024
360.90225563909775,0.6089737718296199,0.5733713960990612,-16.90867,-2.121018,0.175609,0.630304,-0.009704030641088473,-0.25801202332232154,3.098884342073737
361.90476190476187,0.6089737932971696,0.5733710568070546,-17.539141,-2.133526,0.197682,0.63711,-0.010960667702524393,-0.25514968334905097,3.0919031297855146
362.90726817042605,0.6089738184299108,0.5733707171659821,-18.173103,-2.140167,0.202852,0.637376,-0.005096361415823444,-0.25118776849373137,3.091536418656378
363.90977443609023,0.6089738449589155,0.573370376826778,-18.803228,-2.143973,0.191167,0.630068,-0.009599310885968814,-0.24884904474935143,3.0942419233430645
364.91228070175436,0.6089738713133872,0.5733700368366397,-19.425777,-2.146807,0.187735,0.621792,-0.012705996954518718,-0.25045474766118625,3.0952368657364566
365.91478696741854,0.6089738966206613,0.5733696975446332,-20.043074,-2.151256,0.199163,0.619,-0.004991641660703782,-0.25399776604273483,3.0939276593579508
366.91729323308266,0.6089739241968636,0.5733693554600998,-20.658495,-2.158844,0.212451,0.618308,-0.00703367688553715,-0.2560398012675682,3.094503705277571
367.91979949874684,0.6089739531693291,0.5733690114557042,-21.27627,-2.168901,0.220961,0.621812,-0.0079412480965742,-0.25523696726494327,3.095934892717499
368.922305764411,0.6089739856324532,0.5733686657059793,-21.90156,-2.177388,0.229255,0.633935,-5.235987755982932e-05,-0.2554812959069299,3.0943990378823294
369.92481203007515,0.6089740203645053,0.5733683199562546,-22.538715,-2.184272,0.231164,0.64309,-0.010803588069844898,-0.25427701872305386,3.0924267111078203
370.9273182957393,0.6089740530021623,0.5733679729847992,-23.180742,-2.186711,0.227379,0.643427,-0.006021385919380437,-0.2531949320401099,3.091187544792197
371.9298245614035,0.6089740837199571,0.5733676256642781,-23.818048,-2.18687,0.221611,0.635858,-0.007330382858376186,-0.2528632845756458,3.0917982005908846
372.93233082706763,0.6089741135650875,0.57336727851829,-24.445831,-2.189307,0.218839,0.627173,-0.00867428638241182,-0.25324725701108464,3.0945734835410663
373.9348370927318,0.6089741430611517,0.5733669324194993,-25.0681,-2.194498,0.219227,0.627141,-0.00937241808320955,-0.2545911605351203,3.097034502506133
374.937343358396,0.6089741741280124,0.5733665840517805,-25.695017,-2.202712,0.222011,0.634149,-0.005864306286700947,-0.25504496359393114,3.096929573311503
375.9398496240601,0.6089742058930048,0.5733662344623314,-26.331339,-2.207972,0.219585,0.644852,-0.00481710873550435,-0.25523696726494327,3.095428625061373
376.9423558897243,0.6089742350400033,0.5733658840002176,-26.974806,-2.21012,0.217266,0.64907,-0.012269664641520135,-0.25415482822212176,3.092950274976834
377.9448621553885,0.6089742736117798,0.5733655356324989,-27.619717,-2.209786,0.217877,0.644247,-0.0057246799465414,-0.2530727415391778,3.0909782100017127
378.9473684210526,0.6089743144524842,0.5733651879629118,-28.258217,-2.207612,0.21946,0.641472,-0.010367255756846317,-0.2538581397025752,3.0926014011126526
379.9498746867168,0.6089743442976145,0.5733648392461272,-28.894232,-2.206716,0.213881,0.641124,-0.004049163864626845,-0.254503911525813,3.0960222464465614
