Time [s],Longitude [rad],Latitude [rad],Altitude [m],V North [m/s],V East [m/s],V Down [m/s],Roll [rad],Pitch [rad],Yaw [rad]
0.0,0.5733548859824691,0.60897516442783,-34.696613,-1.957435,0.330125,-0.5533,-0.2776469948605505,-0.3284185878944805,2.95096784504685
1.0025062656641603,0.5733545985267413,0.6089752290050123,-34.143768,-1.726225,0.577043,-0.511894,-0.053581608036225914,-0.27663468644110123,2.747619516443698
2.0050125313283207,0.5733543543551789,0.6089753380880907,-33.636391,-1.461029,0.856127,-0.567698,0.042638393626221474,-0.31702160533225004,2.525002683085359
3.007518796992481,0.5733541543404466,0.6089755180315364,-33.08667,-1.097709,1.137405,-0.522402,-0.06981317007977318,-0.2963045645643699,2.255035119480291
4.010025062656641,0.5733540094781188,0.6089757536509854,-32.588127,-0.743507,1.357531,-0.500995,0.02633701841259443,-0.30471703410569,2.018263840421203
5.012531328320802,0.5733539243060511,0.608975997473482,-32.095142,-0.378788,1.461159,-0.492914,-0.056775560567375545,-0.30962140930379406,1.7766753304535625
6.015037593984962,0.5733539044092978,0.6089762739336355,-31.627916,-0.025702,1.536186,-0.460851,0.016249015336067207,-0.3081378619863064,1.5513708296734923
7.017543859649122,0.5733539257023147,0.6089765467285976,-31.176598,0.294352,1.52012,-0.454044,-0.010576695267085637,-0.3214722123781281,1.3340598146945082
8.020050125313283,0.5733540028458675,0.608976816381967,-30.732691,0.606082,1.456808,-0.443183,0.011082840750163993,-0.32148964821735554,1.114986191703935
9.022556390977442,0.5733541201319933,0.6089770713745707,-30.301252,0.891983,1.346948,-0.43237,0.03230604445441504,-0.33316591836649007,0.9032078879070655
10.025062656641603,0.5733542777352247,0.6089772980928406,-29.863136,1.132634,1.18117,-0.449063,0.020298179200694055,-0.3360456941789882,0.68870690538367
11.027568922305765,0.5733544718158375,0.6089774946169144,-29.425703,1.34423,0.987804,-0.436091,0.043353978619539144,-0.33723253552363686,0.4770333737017976
12.030075187969924,0.5733546913782575,0.6089776532673433,-28.985897,1.491609,0.761055,-0.448165,0.025865779514555962,-0.3427477410533539,0.267314610782159
13.032581453634084,0.5733549306628979,0.6089777672373435,-28.545311,1.594918,0.517542,-0.43813,0.0404741853537485,-0.33751178820395594,0.059934606513485277
14.035087719298245,0.5733551875753639,0.6089778339089209,-28.102665,1.724697,0.237581,-0.455493,0.0049741883681838385,-0.3337069355280233,6.17398024786852
15.037593984962406,0.5733554629883197,0.6089778531075427,-27.637705,1.844406,0.02754,-0.47906,0.016441001553786583,-0.33166491775648244,6.101671169691931
16.040100250626566,0.5733557621377535,0.6089778342579868,-27.139206,1.958482,-0.092413,-0.523517,0.061924281860758816,-0.3265685388873665,6.095684393651617
17.042606516290725,0.573356085547264,0.6089777801527799,-26.598347,2.072583,-0.1468,-0.562726,0.03902556207459321,-0.320390055882014,6.113696400971709
18.045112781954884,0.5733564267591327,0.6089777244767768,-26.019449,2.17397,-0.153195,-0.598224,0.029897490086662867,-0.317475373484476,6.135146567291891
19.047619047619047,0.5733567838534978,0.6089776759566237,-25.411806,2.265641,-0.144605,-0.622809,0.031276300195738384,-0.3152413694952158,6.147799785489828
20.050125313283207,0.5733571545614308,0.6089776316252605,-24.787458,2.350201,-0.142761,-0.636136,0.02155481626212997,-0.3141418295197519,6.152407594341433
21.052631578947366,0.573357536788537,0.6089775930534841,-24.151867,2.427382,-0.154862,-0.647185,0.014398966328953218,-0.3141243413206469,6.15216363221859
22.05513784461153,0.573357928614954,0.6089775539581089,-23.500498,2.493924,-0.17731,-0.668833,0.008133234314293577,-0.3160442209511332,6.14881232080208
23.05764411027569,0.5733583296916162,0.6089775113720752,-22.822145,2.549886,-0.195362,-0.698082,0.008185594191853406,-0.31707396520980985,6.1467526228452165
24.06015037593985,0.5733587396694575,0.6089774651208499,-22.115744,2.596423,-0.199883,-0.722508,0.00815068760681352,-0.31534610670362795,6.147136665093826
25.062656641604008,0.5733591540106219,0.6089774176478943,-21.392675,2.635472,-0.193086,-0.731217,0.008045967851693859,-0.3125884690321844,6.148428296006764
26.065162907268167,0.573359573762307,0.6089773724438666,-20.66815,2.672792,-0.193177,-0.726588,0.005288347633542819,-0.31063366536336573,6.148515649735827
27.06766917293233,0.5733599970046506,0.6089773254945099,-19.949408,2.687665,-0.209912,-0.720254,-0.008482300164692442,-0.31176818173703963,6.145583496592476
28.07017543859649,0.5733604193743296,0.6089772752290273,-19.234533,2.689358,-0.241121,-0.72057,-0.012007865253720986,-0.3147177707196175,6.138531982441983
29.07268170426065,0.5733608420930744,0.6089772183312937,-18.514189,2.686056,-0.267787,-0.727087,-0.010716321607245184,-0.3153984665811878,6.134518074228247
30.075187969924812,0.5733612625428911,0.6089771565466382,-17.790686,2.681199,-0.268217,-0.726184,-0.005009094953223725,-0.31531118266529556,6.1381309057798745
31.07769423558897,0.5733616800256482,0.6089770965073119,-17.067869,2.674787,-0.261339,-0.725588,0.002670353755551324,-0.3160442209511332,6.141621791176666
32.08020050125313,0.5733620971593395,0.6089770371661174,-16.34218,2.669902,-0.2546,-0.734595,-0.004153883619746504,-0.3189239967636313,6.142564548225423
33.08270676691729,0.5733625134203661,0.6089769818391801,-15.602503,2.666076,-0.240208,-0.75186,-0.0036477381366681488,-0.3194301597000022,6.14568790218833
34.08521303258145,0.5733629275869977,0.6089769317482305,-14.849924,2.658545,-0.214498,-0.758311,0.002234021442552742,-0.3160791449894656,6.147852511886531
35.08771929824561,0.573363339833767,0.6089768837516761,-14.099375,2.647161,-0.202862,-0.74845,-0.0026005405854715507,-0.31281536183494363,6.145129693533665
36.09022556390977,0.5733637508588058,0.6089768394203131,-13.361867,2.639927,-0.206968,-0.735778,-0.0052010811709431014,-0.31103510854461697,6.141464659184109
37.092731829573935,0.5733641608366471,0.6089767950889501,-12.624654,2.632647,-0.205894,-0.750681,-0.0025656340004316645,-0.3120823410023986,6.139178068424487
38.095238095238095,0.5733645706399554,0.608976751281186,-11.860985,2.626284,-0.185979,-0.780685,0.002408554367752175,-0.31182054161459943,6.136577754731818
39.097744360902254,0.5733649783488687,0.6089767107895473,-11.08065,2.625883,-0.154923,-0.778391,-0.003543018381548489,-0.30731757469116155,6.1355481850060665
40.100250626566414,0.5733653878031112,0.6089766776282916,-10.323955,2.62827,-0.132028,-0.737757,0.0025132741228718345,-0.30518827300372847,6.137677102721065
41.10275689223057,0.5733657965592219,0.6089766486558259,-9.61151,2.629464,-0.148107,-0.699344,-0.0010122909661567112,-0.30843456795914537,6.138514948028484
42.10526315789473,0.5733662060134646,0.6089766092113847,-8.9144,2.631753,-0.193785,-0.713859,-0.008848819307611252,-0.3132866181862747,6.131254099087507
43.10776942355889,0.5733666140714436,0.6089765627856266,-8.167028,2.608788,-0.200784,-0.789355,-1.7453292519943296e-05,-0.315328618504523,6.124517372520904
44.11027568922306,0.5733670186387643,0.6089765189778625,-7.358892,2.58861,-0.146494,-0.81487,-0.0012740903539558606,-0.30051079060838365,6.122597754689806
45.11278195488722,0.5733674232060849,0.6089764889581993,-6.58645,2.624595,-0.107565,-0.70659,0.007557275661135447,-0.24204226066657364,6.123208689741174
46.11528822055138,0.5733678314385969,0.608976463825458,-5.969006,2.664699,-0.110573,-0.526173,-0.003961897402027128,-0.17498671080495148,6.124953582660855
47.11779448621554,0.5733682433363004,0.6089764402635132,-5.530395,2.680932,-0.114789,-0.357394,0.008063421144213804,-0.11765264487693775,6.121951668707303
48.1203007518797,0.5733686625643867,0.6089764097202514,-5.221989,2.683599,-0.142685,-0.262085,0.0,-0.08056439827205825,6.1102582594249135
49.122807017543856,0.573369081967006,0.6089763711484748,-4.992134,2.689495,-0.19772,-0.200048,-0.0072954762733362976,-0.05504768460790115,6.098023169755875
50.125313283208015,0.573369501718691,0.6089763248972496,-4.791072,2.673214,-0.223072,-0.194435,-0.002775073510670984,-0.03207915165165578,6.0964700187078185
51.127819548872175,0.5733699207722445,0.6089762779478927,-4.609845,2.688987,-0.172809,-0.139164,0.012060225131280817,-0.0005235987755982988,6.091146886662282
52.130325814536334,0.5733703438400553,0.6089762341401286,-4.517211,2.720675,-0.150218,-0.031412,-0.011711159280881952,0.015498523757709647,6.083240492790871
53.1328320802005,0.5733707683041293,0.6089762032478008,-4.535522,2.70897,-0.136318,0.080415,-0.009302604913129777,0.02150245638457014,6.086905544593719
54.13533834586466,0.5733711934663351,0.6089761720064072,-4.634317,2.685249,-0.212037,0.095449,0.0009599310885968813,0.017400932642383467,6.079435378315551
55.13784461152882,0.573371611123625,0.6089761135378772,-4.671909,2.664697,-0.305677,-0.008785,-0.0032812189937493396,0.012566370614359171,6.056414485481745
56.14035087719298,0.5733720273846517,0.6089760498333596,-4.630018,2.676584,-0.274916,-0.03379,0.0032637657012293962,0.0187448361664191,6.042766307437122
57.14285714285714,0.5733724438202111,0.6089759875251052,-4.6156,2.689845,-0.267077,0.023402,-0.006928957130417489,0.02588323280707591,6.040636848670057
58.1453634085213,0.5733728647936268,0.6089759283584436,-4.662369,2.696743,-0.301034,0.078767,6.981317007977319e-05,0.027558748888990462,6.037669544595571
59.14786967418546,0.5733732862906411,0.6089758634321955,-4.743325,2.682734,-0.330156,0.084823,-0.005532693728822024,0.022863813201125717,6.027319969024047
60.150375939849624,0.5733737032497994,0.6089757868122413,-4.819697,2.647682,-0.388181,0.07357,-0.006161012259539983,0.020996310901491785,6.009936454767599
61.152882205513784,0.5733741099115152,0.6089757060034969,-4.851313,2.539224,-0.36199,-0.012881,-0.14191272147965894,0.047647488579445195,6.005520928839686
62.15538847117794,0.5733744900442261,0.6089756410772487,-4.938022,2.375371,-0.287224,0.274275,0.2214997353706004,0.2187246793132219,5.94111824453451
63.1578947368421,0.5733748343976875,0.6089755604430372,-5.294964,2.129111,-0.543098,0.379086,0.40186206027169435,0.2008350370269875,5.72387672856634
64.16040100250626,0.5733751326744567,0.6089754387935884,-5.619872,1.866725,-0.805736,0.360449,-0.06951646410693414,0.2273989482423412,5.521052522337563
65.16290726817043,0.5733753834782703,0.6089753054504335,-6.027986,1.551319,-0.984553,0.458976,0.07749261878854824,0.253159990548485,5.300198698416541
66.16541353383458,0.5733755777334161,0.6089751059593,-6.432521,1.193001,-1.197357,0.376785,-0.02319542575900464,0.2381152698495864,5.070460572644214
67.16791979949875,0.5733757210249476,0.6089748862223472,-6.792609,0.828259,-1.25225,0.360812,-0.05061454830783556,0.2590941100052657,4.842642588301762
68.1704260651629,0.5733758170180565,0.6089746631692688,-7.126086,0.476268,-1.216672,0.333824,-0.025028021473598686,0.26773350725593015,4.617722653369075
69.17293233082707,0.5733758562879647,0.6089744502391001,-7.475651,0.14391,-1.160007,0.379872,-0.047263516144006444,0.27743753789701864,4.405263391911247
70.17543859649122,0.5733758466886538,0.6089742430685179,-7.869671,-0.132012,-1.123086,0.412614,-0.0068591439603377154,0.27148594769442547,4.208913851061886
71.17794486215539,0.5733757978194348,0.6089740423556539,-8.260056,-0.364214,-1.076122,0.368755,-0.024818581963359364,0.2623055158289353,4.017782774862817
72.18045112781954,0.5733757128219001,0.6089738498458374,-8.586853,-0.598721,-0.930678,0.293312,-0.020891591146372127,0.26619761751417514,3.8235451173149526
73.1829573934837,0.5733755993754988,0.6089736903227437,-8.866894,-0.797776,-0.676076,0.303617,-0.03155555287605748,0.28103289870283443,3.6300928230239013
74.18546365914787,0.5733754578292966,0.6089735768763425,-9.200476,-0.949367,-0.446273,0.376284,-0.0005759586531581288,0.28550095904123246,3.439729813868757
75.18796992481202,0.5733752921975505,0.608973510204765,-9.597894,-1.096253,-0.244185,0.405841,0.005427973973702365,0.2751511565769061,3.2565400206728468
76.19047619047619,0.5733751030038595,0.608973484199359,-10.005942,-1.23931,-0.036525,0.416161,-0.047560222116845484,0.27656487327102147,3.1420813457803516
77.19298245614034,0.5733748953096786,0.6089734798360359,-10.430428,-1.347503,0.078144,0.442192,0.03551745027808461,0.2770360947157674,3.1047661889194202
78.19548872180451,0.573374660737427,0.6089735047942443,-10.872724,-1.470033,0.131137,0.451927,0.04447098934081552,0.2734058273249117,3.099687280796117
79.19799498746866,0.5733744078392184,0.6089735407480269,-11.326205,-1.581162,0.167266,0.468955,0.025953045977155684,0.2715383250252778,3.1064242866154004
80.20050125313283,0.5733741388839808,0.6089735712912887,-11.803288,-1.683761,0.191201,0.498081,0.0216071761396898,0.268850500523914,3.1125852290617697
81.203007518797,0.5733738556170431,0.608973603405347,-12.312898,-1.774557,0.216596,0.534186,0.018517943363659837,0.2659881780039358,3.1092866440419633
82.20551378446115,0.5733735592601361,0.6089736369156687,-12.863678,-1.85017,0.226848,0.573376,0.008360127117052838,0.26216590694206826,3.101467603899614
83.20802005012531,0.5733732534784511,0.6089736671098647,-13.439389,-1.911073,0.221032,0.58412,0.005253441048502932,0.25797711673728185,3.0959175790513194
84.21052631578947,0.5733729407154492,0.6089736948605998,-14.012971,-1.961406,0.206127,0.574066,0.0046251225177849735,0.25610963189094044,3.096126896388511
85.21303258145363,0.5733726209711302,0.6089737192952094,-14.571664,-2.010191,0.205827,0.561815,0.0036302848441482054,0.25603980126756815,3.0997048562616847
86.21553884711778,0.5733722940709614,0.6089737456496811,-15.134065,-2.056742,0.2147,0.583224,-0.0024260076602721182,0.2591988472136779,3.1023051699543536
87.21804511278195,0.5733719661235949,0.6089737833487929,-15.733521,-2.096714,0.207606,0.621311,0.003892084231947355,0.25869271918389203,3.104137957655165
88.22055137844612,0.5733716339874383,0.6089738198261742,-16.365259,-2.120043,0.185662,0.646419,-0.005009094953223725,0.25610963189094044,3.102724083881417
89.22305764411027,0.5733712950444976,0.6089738432135863,-17.00853,-2.127852,0.177287,0.645664,-0.01033234917180643,0.2528458487364185,3.0970518161723133
90.22556390977444,0.5733709557524909,0.6089738608414117,-17.641935,-2.130804,0.179593,0.631005,-0.007592182246175334,0.251781197892702,3.0961615237208706
91.22807017543859,0.573370617333149,0.608973878818303,-18.260681,-2.139174,0.182006,0.617989,-0.0003141592653589793,0.2522873259224878,3.1000012655285505
92.23057644110276,0.5733702769939448,0.6089739016821162,-18.874821,-2.152007,0.192448,0.620806,-0.00942477796076938,0.25329963434193703,3.1002108621184226
93.23308270676691,0.5733699342112798,0.6089739287347196,-19.496088,-2.16214,0.207116,0.629923,-0.0031764992386296795,0.25427701872305386,3.0961615237208706
94.23558897243107,0.5733695895087525,0.6089739584053169,-20.126602,-2.165376,0.223386,0.636682,-0.008325220532012952,0.2539803127502148,3.0917635732585254
95.23809523809523,0.5733692451552911,0.6089739891231117,-20.759567,-2.164926,0.22797,0.634798,-0.006213372137099813,0.2527236756887789,3.0934040780356447
96.2406015037594,0.5733689018490272,0.608974018968242,-21.390854,-2.166607,0.220872,0.632946,-0.006387905062299246,0.25253167201776705,3.0985876535541905
97.24310776942356,0.5733685580191645,0.6089740484643063,-22.023935,-2.17384,0.217548,0.635931,-0.005375614096142535,0.25230477921500777,3.0993557205981155
98.24561403508771,0.5733682108731764,0.6089740786585024,-22.657665,-2.184204,0.222552,0.635391,-0.00471238898038469,0.2524967828860197,3.095550867922183
99.24812030075188,0.5733678621563917,0.6089741086781655,-23.289669,-2.191282,0.225428,0.634118,-0.00947713783832921,0.25345671397461655,3.0941372559478224
100.25062656641603,0.5733675123924097,0.6089741362543676,-23.919716,-2.193345,0.225469,0.63338,-0.006946410422937432,0.2550275103014114,3.0954986651242553
101.2531328320802,0.5733671633265593,0.6089741657504321,-24.55044,-2.195143,0.223809,0.634647,-0.006667157742618339,0.25469588029024,3.0974358409676293
102.25563909774435,0.5733668144352417,0.6089741947228975,-25.183249,-2.199876,0.222612,0.636121,-0.0016929693744344998,0.2532647277568971,3.0979943114216826
103.25814536340852,0.5733664655439243,0.6089742226481657,-25.818403,-2.205157,0.216871,0.638392,0.002373647782712288,0.2527585822738188,3.0988494529419897
104.26065162907267,0.5733661164780739,0.6089742500498349,-26.455545,-2.208821,0.210525,0.639915,0.002897246558310587,0.25274112898129886,3.0989541203372317
105.26315789473684,0.5733657656668942,0.6089742771024382,-27.091757,-2.21205,0.213111,0.639184,-0.00466002910282486,0.2532647277568971,3.0962315637837534
106.265664160401,0.5733654146811816,0.6089743038059758,-27.727278,-2.212424,0.221427,0.638391,-0.008168140899333463,0.2531251014167376,3.093334317225443
107.26817042606515,0.5733650643936008,0.6089743317312438,-28.363594,-2.212343,0.220655,0.641175,-0.002356194490192345,0.254242112138014,3.0938578810944555
108.27067669172932,0.5733647127097566,0.6089743603546436,-29.002424,-2.213159,0.21612,0.641915,-0.000296705972839036,0.25445155164825334,3.0951844011391416
109.27318295739347,0.5733643605023135,0.6089743889780433,-29.640245,-2.214718,0.211664,0.64081,-0.0045553093477052,0.2538232156642428,3.0965631239817544
110.27568922305764,0.5733640086439362,0.6089744162051797,-30.276644,-2.215963,0.209819,0.639808,-0.003543018381548489,0.25352654459798885,3.0970693916378806
111.27819548872179,0.573363657134625,0.6089744420360526,-30.914701,-2.216068,0.213573,0.642822,-6.981317007977319e-05,0.25427701872305386,3.094625948138381
112.28070175438596,0.573363304752649,0.6089744690886559,-31.557615,-2.217311,0.216436,0.646815,-0.004153883619746504,0.2542595654305339,3.091588883253693
113.28320802005013,0.5733629525452059,0.6089744966648581,-32.203381,-2.219747,0.206949,0.648825,-0.0062482787221397,0.2538930462876151,3.092496751170703
114.28571428571428,0.5733626008613617,0.6089745210994677,-32.847614,-2.222202,0.189868,0.628899,-0.004886921905584123,0.22905702848502832,3.094119680482255
115.28822055137844,0.5733622470831223,0.6089745436142151,-33.426949,-2.240843,0.179882,0.522329,-0.013735741213195374,0.17231635704940015,3.0928107359031367
116.2907268170426,0.573361893304883,0.6089745629873698,-33.889526,-2.254837,0.17797,0.397515,3.490658503988659e-05,0.11695451317614002,3.0910128373340724
117.29323308270676,0.5733615381303802,0.6089745814878598,-34.230919,-2.265259,0.179478,0.278627,-0.0004886921905584122,0.07028440897781166,3.088482301904898
118.29573934837092,0.573361178767087,0.6089746031299426,-34.465107,-2.270945,0.185464,0.180584,0.002495820830351891,0.03721041965251911,3.085602613358863
119.29824561403508,0.5733608188801954,0.6089746263428215,-34.617779,-2.27515,0.18999,0.116311,-0.0005061454830783556,0.019285888234537342,3.0836476002505337
120.30075187969925,0.5733604582951719,0.6089746506028981,-34.721138,-2.278521,0.19085,0.078461,-0.01085594794740473,0.011780972450961725,3.0824084339349103
121.3032581453634,0.5733600952666874,0.6089746739903102,-34.795006,-2.283652,0.190783,0.053975,-0.0064053583548191895,0.006771877497737999,3.0824608985322253
122.30576441102757,0.5733597325872689,0.6089746973777221,-34.848194,-2.289929,0.189908,0.036512,-0.006876597252857658,0.0045553093477052,3.0810646002240447
123.30827067669172,0.5733593679879883,0.6089747232085951,-34.887417,-2.295551,0.196837,0.024483,0.0019198621771937625,0.002548180707911721,3.07853378554219
124.31077694235589,0.573359002166977,0.6089747488649352,-34.913338,-2.300934,0.210125,0.013047,-0.00874409955249159,0.0008377580409572782,3.073961145075013
125.31328320802004,0.5733586368695645,0.6089747759175386,-34.932938,-2.303474,0.219211,0.011252,-0.008726646259971648,0.0014660765716752368,3.0717445943782726
126.3157894736842,0.5733582696522899,0.6089748054136028,-34.952084,-2.304619,0.225039,0.009761,-0.0009599310885968813,0.00027925268031909274,3.0699645330741636
127.31829573934836,0.5733579057511409,0.608974837527661,-34.967979,-2.304606,0.23135,0.006944,-0.008709192967451705,-0.00153588974175501,3.0669101545232964
128.32080200501252,0.5733575401046626,0.6089748699907852,-34.979092,-2.304677,0.239583,0.00183,-0.0076445421237351634,-0.0029146998508305304,3.0632973229716676
129.32330827067668,0.5733571746327172,0.6089749022793763,-34.984585,-2.304668,0.245178,-0.002671,-0.0010995574287564276,-0.002548180707911721,3.060696468226931
130.32581453634086,0.5733568100334364,0.6089749364878296,-34.985767,-2.305336,0.250497,-0.006954,-0.007243116395776467,-0.0026005405854715507,3.058864221578187
131.328320802005,0.5733564443869581,0.6089749717434806,-34.982189,-2.307359,0.258691,-0.009798,-0.006178465552059927,-0.0026354471705114374,3.0560540494962583
132.33082706766916,0.5733560782168811,0.6089750097916583,-34.976017,-2.308864,0.267958,-0.011269,-0.004468042885105484,-0.0018675022996339325,3.052528292421012
133.33333333333331,0.573355712046804,0.6089750499342311,-34.971409,-2.308121,0.283646,-0.006683,-0.008813912722571364,6.981317007977319e-05,3.0472749386389717
134.3358395989975,0.5733553465748586,0.6089750914730673,-34.978676,-2.266307,0.297007,0.03004,0.1048942880448592,-0.0226543736908864,3.0365237628065644
135.33834586466165,0.5733550055375228,0.6089751356298974,-34.894875,-2.058444,0.280275,-0.311326,-0.021973695282608608,-0.2525491427635795,3.0127001755964744
136.3408521303258,0.5733546969633111,0.6089751885133736,-34.410374,-1.810326,0.416698,-0.551793,-0.29696775477354265,-0.28607690024109805,2.8466845793198217
137.34335839598998,0.5733544398763123,0.608975283284752,-33.932583,-1.59625,0.76625,-0.474765,0.12775810124598494,-0.27942717833770714,2.630699822586135
138.34586466165413,0.5733542309604007,0.6089754173260387,-33.405907,-1.291032,1.016398,-0.579618,-0.03549999698556466,-0.31717868496492946,2.400595771082836
139.34837092731829,0.5733540677721157,0.6089756215295611,-32.878082,-0.940031,1.286553,-0.495891,-0.004904375198104067,-0.2945941244441229,2.1469468614509895
140.35087719298244,0.5733539490897266,0.6089758485968968,-32.382767,-0.577949,1.428081,-0.513298,-0.005811946409141118,-0.31253612660791713,1.9088141906687608
141.35338345864662,0.5733538914938612,0.6089761041130992,-31.893858,-0.200031,1.523586,-0.476565,-0.05846852994181004,-0.3048042831149972,1.6674178065451801
142.35588972431077,0.5733538883522685,0.6089763786533906,-31.43412,0.143233,1.564558,-0.463169,0.002897246558310587,-0.31105259674372193,1.4533007266440534
143.35839598997492,0.5733539373960206,0.6089766545899453,-30.98369,0.45854,1.523717,-0.45587,0.009459684545809267,-0.322432143466725,1.23420951073462
144.36090225563908,0.5733540346108599,0.6089769282575721,-30.536242,0.765367,1.426354,-0.445028,0.015899949485668342,-0.32630677440615236,1.013669758812494
145.36340852130326,0.5733541763315951,0.6089771820284453,-30.098341,1.027376,1.287682,-0.445639,0.02033308578573394,-0.3361678672266278,0.7981041778052596
146.3659147869674,0.5733543508645204,0.608977397402075,-29.659349,1.251664,1.097767,-0.43676,0.03328342883553186,-0.3363772892835746,0.5850518185610192
147.36842105263156,0.5733545653654855,0.6089775881665622,-29.226456,1.429786,0.889098,-0.444063,0.029775317039023263,-0.34065336340425323,0.37692128780740286
148.37092731829574,0.5733547953998808,0.6089777270947707,-28.786516,1.560428,0.649003,-0.442597,0.016126842288427607,-0.33789576063939475,0.17105971998796424
149.3734335839599,0.5733550442838322,0.6089778182009576,-28.343079,1.67177,0.387682,-0.457398,0.00932005820564972,-0.33494613675023177,6.25688338733825
150.37593984962405,0.5733553111446748,0.6089778597397938,-27.873098,1.800361,0.125009,-0.488967,0.0050789081233034985,-0.32934361239803744,6.128025274877903
151.3784461152882,0.5733555992985343,0.6089778614851231,-27.377649,1.90839,-0.035304,-0.513377,0.03277728335245351,-0.32489304025874444,6.092036917314338
152.38095238095238,0.5733559097926083,0.6089778255313405,-26.855099,2.025228,-0.114551,-0.539713,0.05928883469024737,-0.31878437042347174,6.101287144896616
153.38345864661653,0.5733562422778308,0.6089777689826728,-26.30521,2.137424,-0.143896,-0.5676,0.03871140280923423,-0.3150842724092438,6.123435582543933
154.38596491228068,0.573356591692747,0.6089777162737293,-25.724133,2.237071,-0.146937,-0.604631,0.02811725424962865,-0.31581731069508145,6.142232185175967
155.38847117794487,0.5733569571646924,0.6089776694989054,-25.108934,2.324183,-0.144813,-0.635573,0.02864085302522695,-0.3149621168148967,6.150034173451523
156.39097744360902,0.5733573353775413,0.6089776277855363,-24.470146,2.401624,-0.15145,-0.652121,0.014311699866353502,-0.3136182132908611,6.148951859875777
157.39348370927317,0.5733577238878327,0.6089775864212329,-23.817268,2.471882,-0.171303,-0.664002,0.01043706892692609,-0.3134960402432215,6.145914794991089
158.39598997493732,0.5733581230446327,0.6089775450569297,-23.149614,2.53451,-0.192267,-0.684042,0.009669124056048587,-0.31398473243377983,6.145042339804602
159.3984962406015,0.5733585297063485,0.6089774974094412,-22.458464,2.587409,-0.202803,-0.710499,0.007051130178057092,-0.31443853549259093,6.145880185112023
160.40100250626566,0.5733589423021836,0.6089774478420904,-21.741886,2.631689,-0.196067,-0.73092,0.010297442586766544,-0.31321677010960985,6.147346506029793
161.4035087719298,0.5733593594358748,0.6089774010672664,-21.014181,2.667599,-0.186455,-0.732838,0.001239183768915974,-0.31140162768753576,6.148201385750712
162.406015037594,0.5733597791875599,0.6089773569104364,-20.296324,2.675419,-0.193472,-0.713599,-0.0057246799465414016,-0.3108431223268976,6.145932911508725
163.40852130325814,0.5733601999864425,0.6089773106592111,-19.597586,2.682659,-0.227404,-0.702035,-0.004991641660703782,-0.31257101573966445,6.14053947760092
164.4110275689223,0.5733606209598582,0.6089772556813398,-18.898596,2.685696,-0.259965,-0.710878,-0.008290313946973065,-0.31531118266529556,6.136437674606053
165.41353383458645,0.5733610400134116,0.6089771958165464,-18.183943,2.679349,-0.270319,-0.727246,-0.008080874436733746,-0.31667252202855867,6.136403047273693
166.41604010025063,0.5733614562744381,0.6089771331592263,-17.456783,2.668863,-0.27053,-0.734042,-0.006108652381980153,-0.3165329131416916,6.13656017926625
167.41854636591478,0.573361869568405,0.6089770713745707,-16.726305,2.657598,-0.265101,-0.734132,-0.0015184364492350666,-0.317510314976101,6.137206265248754
168.42105263157893,0.5733622812915756,0.6089770139532383,-15.998297,2.657423,-0.256102,-0.73153,0.0014835298641951802,-0.3177197195797552,6.140766370403679
169.4235588972431,0.5733626947600754,0.608976961244295,-15.266303,2.658432,-0.236979,-0.746715,-0.004485496177625427,-0.3176848304480079,6.145967521387791
170.42606516290726,0.5733631073559106,0.6089769102806808,-14.51534,2.642867,-0.215566,-0.760857,-0.0009250245035569946,-0.315642812676467,6.147293779633091
171.42857142857142,0.5733635173337518,0.608976863331324,-13.760493,2.634443,-0.198541,-0.752393,0.00020943951023931956,-0.3101275373335799,6.144623705130219
172.43107769423557,0.5733639262643956,0.6089768191744938,-13.015448,2.635692,-0.194636,-0.74581,-0.005602506898901798,-0.30946434712440707,6.138881920957009
173.43358395989975,0.5733643336242431,0.6089767758903283,-12.272347,2.626728,-0.197702,-0.745007,-0.008988445647770798,-0.31052898051483113,6.134570800624949
174.4360902255639,0.5733647415076891,0.6089767334788276,-11.535166,2.62672,-0.185,-0.738433,-0.004101523742186674,-0.3097959422289935,6.135372936495874
175.43859649122805,0.573365147645806,0.6089766931617218,-10.79367,2.617198,-0.16055,-0.755983,-0.0009075712110370514,-0.31103510854461697,6.137659527255496
176.44110275689223,0.5733655513404621,0.6089766568588734,-10.036786,2.593992,-0.153734,-0.757086,-0.005061454830783556,-0.30944687637859464,6.136507976468323
177.4436090225564,0.5733659546860522,0.6089766193342945,-9.293876,2.610977,-0.17882,-0.741894,0.0031764992386296795,-0.3060609201764331,6.129683372573883
178.44611528822054,0.5733663594279058,0.6089765795407874,-8.540684,2.629375,-0.162658,-0.773357,-0.003892084231947355,-0.30951670700196693,6.127676401013721
179.4486215538847,0.573366767311352,0.6089765474267294,-7.772393,2.619059,-0.11571,-0.750286,0.0016755160819145565,-0.30639255018760453,6.130538775893577
180.45112781954887,0.5733671790345225,0.6089765161853355,-7.052598,2.63651,-0.129475,-0.702678,-0.0021642082724729686,-0.27913052472474564,6.12593150809404
181.45363408521303,0.5733675870925017,0.6089764880855347,-6.354468,2.612035,-0.117067,-0.692663,0.0009599310885968813,-0.2265611902013839,6.122510400960744
182.45614035087718,0.5733679879946308,0.6089764643490568,-5.74221,2.595632,-0.10114,-0.486752,0.013212142437597075,-0.14868458152410444,6.118495951694938
183.45864661654133,0.5733683960526099,0.6089764292679388,-5.393097,2.70193,-0.17845,-0.256864,-0.004904375198104067,-0.09883799554043889,6.106854221611702
184.4611528822055,0.5733688123136365,0.608976389474432,-5.113157,2.729348,-0.19612,-0.310447,-0.012863076587198208,-0.08136724972797564,6.103660548333233
185.46365914786966,0.5733692345087826,0.6089763503790567,-4.815883,2.658383,-0.131442,-0.224877,0.0102799892942466,-0.035046211380046134,6.103311674469051
186.46616541353382,0.5733696586237909,0.6089763114582144,-4.669094,2.68905,-0.142908,-0.090369,0.01054178868204575,-0.006806784082777886,6.092595125969003
187.468671679198,0.5733700698233626,0.608976277598827,-4.564692,2.661187,-0.151345,-0.096215,-0.015533430342749533,0.0008028514559173916,6.086957747391645
188.47117794486215,0.5733704818955989,0.6089762463574334,-4.534457,2.660271,-0.184048,0.055166,0.008307767239493008,0.02356194490192345,6.083100953717174
189.4736842105263,0.5733709040907451,0.6089761950447533,-4.590075,2.75705,-0.253915,0.016614,-0.014852751934471744,0.01096066770252439,6.070691680188787
190.47619047619045,0.5733713282057533,0.6089761414631453,-4.541406,2.694341,-0.220655,-0.052494,-0.014887658519511631,0.012007865253720986,6.062872640046437
191.47869674185463,0.5733717469102408,0.6089760898013994,-4.553977,2.632269,-0.243839,0.096263,0.008813912722571364,0.035046211380046134,6.0558909041594395
192.4812030075188,0.5733721614259382,0.6089760302856719,-4.642988,2.689351,-0.31034,0.050637,-0.0014311699866353504,0.0243473430653209,6.042399858107373
193.48370927318294,0.5733725712292466,0.6089759678028847,-4.626997,2.645752,-0.290656,-0.024501,-0.005044001538263612,0.02876302607286655,6.034982418225908
194.48621553884712,0.5733729864430755,0.608975908810756,-4.677637,2.665033,-0.274029,0.145573,0.014137166941154071,0.04366813788489812,6.028698953666049
195.48872180451127,0.573373405671162,0.6089758414410469,-4.823299,2.699929,-0.358411,0.107879,-0.02033308578573394,0.016964600329384884,6.021036504464188
196.49122807017542,0.5733738173943325,0.6089757602832366,-4.862872,2.603145,-0.443899,-0.000481,-0.01202531854624093,0.011065387457644049,6.013374596314395
197.49373433583958,0.57337421759833,0.6089756717950435,-4.847557,2.481913,-0.353138,0.037151,-0.040805797911627424,0.12779302528431732,6.01063474354803
198.49624060150376,0.5733745895279936,0.6089755995384125,-5.028382,2.297342,-0.289028,0.332201,0.3449817974024917,0.2491981105997504,5.871968194850739
199.4987468671679,0.5733749103195102,0.6089755148899438,-5.389387,1.976707,-0.553678,0.425967,0.15360642746802095,0.23061035406601074,5.64177680707167
200.50125313283206,0.5733751874777954,0.6089754073776619,-5.873003,1.678913,-0.870057,0.512976,0.12671090369478832,0.23556708914167465,5.39654068114041
201.50375939849624,0.5733754056439517,0.6089752564066816,-6.26726,1.376353,-1.153815,0.297612,-0.01947787445225672,0.2123367393443376,5.162579312363863
202.5062656641604,0.5733755670869076,0.6089750469671714,-6.562677,0.971009,-1.19477,0.359429,-0.04783947479716458,0.2710147262496795,4.9599638998735
203.50877192982455,0.5733756843730333,0.6089748207725003,-6.949275,0.671368,-1.241144,0.402111,0.045710173109731495,0.2595304597715568,4.764120347427585
204.5112781954887,0.5733757526154071,0.6089745895163744,-7.326416,0.38611,-1.276377,0.368415,-0.039653880605311165,0.2611710692684315,4.55996934190144
205.51378446115288,0.573375773733891,0.6089743586093144,-7.664689,0.060193,-1.230071,0.331138,-0.02675589743307307,0.2683618257866481,4.348801973155939
206.51629072681703,0.573375755407934,0.6089741386978287,-7.998875,-0.222897,-1.10726,0.352447,-0.03384193419617005,0.272707695624114,4.142695954521465
207.51879699248119,0.573375696590338,0.6089739460134791,-8.360269,-0.450314,-0.947204,0.382336,-0.006841690667817772,0.2785894552033349,3.9386322852710913
208.52130325814534,0.5733756019934926,0.6089737812543977,-8.732819,-0.657551,-0.819565,0.368832,-0.022008601867648494,0.2770360947157674,3.746663381217895
209.52380952380952,0.5733754782496487,0.6089736409299259,-9.089904,-0.854759,-0.671059,0.346422,-0.027628562059070237,0.2746624643863476,3.55954675428463
210.52631578947367,0.5733753272786685,0.6089735316723148,-9.423382,-0.993709,-0.444833,0.341229,-0.005829399701661061,0.27570966193754426,3.369462840730173
211.52882205513782,0.5733751527457431,0.6089734648262044,-9.766059,-1.139716,-0.176121,0.362019,-0.022218041377887812,0.2805093348338212,3.203569208061649
212.531328320802,0.5733749570943341,0.6089734440567863,-10.147193,-1.264837,0.025405,0.407658,-0.02125811028929093,0.2861816199962177,3.124697831523903
213.53383458646616,0.5733747404989739,0.6089734597647496,-10.568479,-1.39656,0.128505,0.44412,0.0506320016003555,0.2839127094219176,3.1049233209119773
214.5363408521303,0.5733744978982078,0.6089735004309212,-11.029422,-1.522536,0.170568,0.486327,0.037262779530078935,0.27656487327102147,3.1055515696295255
215.53884711779446,0.5733742359242872,0.608973540573494,-11.529912,-1.625477,0.182995,0.52291,0.02256710722828668,0.2681523862764088,3.1097228716352063
216.54135338345864,0.573373960685864,0.6089735716403546,-12.054777,-1.710228,0.186169,0.537893,0.018605209826259555,0.2614328512029381,3.1110142407487573
217.5438596491228,0.5733736728810703,0.6089735978202935,-12.587216,-1.788307,0.187035,0.539341,0.012479104151759455,0.25967006865842385,3.1093913114372054
218.54636591478695,0.573373374953367,0.6089736226039688,-13.118248,-1.867125,0.190181,0.532636,0.003193952531149623,0.2601413250097548,3.106738271347834
219.54887218045113,0.5733730660300894,0.6089736480857758,-13.647397,-1.930689,0.209249,0.542511,0.0013439035240356337,0.2611710692684315,3.102898529540154
220.55137844611528,0.5733727489037644,0.6089736770582415,-14.199482,-1.985224,0.227703,0.57693,0.0006108652381980154,0.2619913914701613,3.0999839518623706
221.55388471177943,0.573372423225326,0.6089737086487009,-14.786355,-2.033082,0.227392,0.607322,-0.0016929693744344998,0.2601238717172349,3.0999141910521684
222.55639097744358,0.5733720924854327,0.6089737390174298,-15.396565,-2.068683,0.210676,0.621661,0.004258603374866164,0.25733132746075144,3.1029858658159233
223.55889724310777,0.573371758080348,0.6089737643247041,-16.020292,-2.093903,0.181779,0.634629,-0.0012740903539558606,0.2561445210226878,3.1053246593734736
224.56140350877192,0.5733714217554011,0.6089737842214575,-16.65419,-2.113218,0.163345,0.641509,-0.012932889757277981,0.25411992163708186,3.1050104128416516
225.56390977443607,0.573371084034191,0.6089738020238158,-17.289782,-2.127717,0.164071,0.638646,-0.003159045946109736,0.2514670560806355,3.0993205696669803
226.56641604010025,0.5733707447421843,0.6089738191280426,-17.918545,-2.135623,0.173135,0.629924,-0.006719517620178169,0.25019293082009464,3.096598013113502
227.5689223057644,0.5733704035303157,0.6089738388502631,-18.53846,-2.141642,0.179432,0.623,-0.006178465552059927,0.2504721835004137,3.09881482560963
228.57142857142856,0.5733700612712492,0.6089738627612739,-19.155647,-2.14749,0.198726,0.624421,-0.0058468529941810045,0.25160666496750256,3.0975580838284387
229.5739348370927,0.5733697193612488,0.6089738915592066,-19.779388,-2.151767,0.225602,0.631757,-0.007225663103256524,0.2531076306709251,3.092985164108581
230.5764411027569,0.5733693797201764,0.6089739327489768,-20.415054,-2.156468,0.233741,0.643254,-0.012112585008840646,0.253159990548485,3.092514064836883
231.57894736842104,0.5733690397300382,0.6089739749859447,-21.056074,-2.163598,0.219493,0.64339,-0.004433136300065597,0.2513099589946635,3.0968946841797558
232.5814536340852,0.573368694503912,0.6089740057037395,-21.690956,-2.170963,0.204606,0.634783,-0.009005898940290741,0.2513623188722233,3.0997048562616847
233.58395989974937,0.5733683489287202,0.6089740318836784,-22.31661,-2.176627,0.201817,0.624316,-0.0067369709126981125,0.2524444230084598,3.1007869080380432
234.58646616541353,0.5733680005610015,0.6089740564928209,-22.935795,-2.179558,0.211555,0.62199,-0.0029321531433504737,0.2540326726277747,3.0999490627306234
235.58897243107768,0.5733676527168815,0.6089740856398194,-23.557888,-2.183025,0.22821,0.63036,-0.007347836150896127,0.25544637186859753,3.096929573311503
236.59147869674183,0.5733673048727616,0.608974119150141,-24.190512,-2.186692,0.237929,0.642767,-0.011082840750163993,0.25507987017897127,3.093648563757264
237.593984962406,0.5733669568541088,0.6089741512641992,-24.831676,-2.190729,0.231139,0.646111,-0.0033335788713091696,0.253613793607296,3.0943814624167616
238.59649122807016,0.5733666070901267,0.6089741812838623,-25.473154,-2.196503,0.213451,0.640814,-0.005777039824101231,0.2524793121402072,3.098360760751431
239.59899749373432,0.5733662575006775,0.6089742081619328,-26.108816,-2.202722,0.201851,0.635591,-0.0033161255787892262,0.2531949320401099,3.1001583975211076
240.6015037593985,0.5733659066894978,0.6089742322474765,-26.737818,-2.206575,0.199872,0.631782,-0.002408554367752175,0.25492277309299927,3.1000364164596856
241.60401002506265,0.5733655567509828,0.608974256682086,-27.36581,-2.207852,0.210536,0.636348,-0.00986111027376796,0.25670300893003345,3.097697361102748
242.6065162907268,0.5733652052416714,0.6089742849564199,-28.002783,-2.206657,0.223901,0.645968,-0.008360127117052838,0.2564936043263792,3.093596099159949
243.60902255639095,0.5733648546050247,0.6089743167214123,-28.649235,-2.205944,0.228687,0.652431,-0.00958185759344887,0.2552194790658383,3.091222416470652
244.61152882205513,0.5733645025721146,0.60897434761374,-29.299946,-2.206288,0.219,0.651905,-0.002373647782712288,0.2542595654305339,3.0930725178376433
245.6140350877193,0.5733641514118691,0.6089743764116727,-29.947243,-2.209616,0.201966,0.644501,-0.01054178868204575,0.2534916031063639,3.0967202559743114
246.61654135338344,0.5733638004261565,0.6089744018934797,-30.588531,-2.21139,0.198574,0.639871,-0.005480333851262195,0.253927952872655,3.096755145106059
247.6190476190476,0.5733634483932464,0.6089744277243527,-31.226927,-2.214168,0.205584,0.639798,-0.006614797865058509,0.2548704481220245,3.09406721588494
248.62155388471177,0.5733630958367375,0.6089744546024232,-31.868658,-2.216287,0.21333,0.64602,-0.010629055144645466,0.2551322300565311,3.090559296074649
249.62406015037593,0.5733627434547615,0.6089744821786255,-32.516861,-2.215462,0.201355,0.655093,-0.008848819307611252,0.24928537706235007,3.0916413303977155
250.62656641604008,0.573362390025588,0.6089745069623007,-33.147167,-2.224791,0.179951,0.591929,-0.012583823906879116,0.2027025218733289,3.0928632005004517
251.62907268170426,0.5733620350256181,0.6089745294770481,-33.679626,-2.239979,0.172535,0.469679,-0.009494591130849153,0.14308209207849515,3.0895121334300377
252.6315789473684,0.5733616815964446,0.6089745472794065,-34.084854,-2.250199,0.174355,0.337213,-0.002007128639793479,0.08958775050486893,3.086684403335834
253.63408521303256,0.5733613262474089,0.608974566827094,-34.363792,-2.258841,0.182337,0.217822,-0.0027401669256310974,0.04899139210348083,3.084188757038407
254.63659147869672,0.5733609696766427,0.6089745896909073,-34.541744,-2.267876,0.183255,0.135075,-0.0018151424220741027,0.026563911215353696,3.0837525294451638
255.6390977443609,0.5733606103133497,0.6089746104603254,-34.657074,-2.274984,0.180654,0.089547,-0.007819075048934596,0.01595230936322817,3.0826180130714897
256.64160401002505,0.5733602490301946,0.6089746357675996,-34.739132,-2.278957,0.192843,0.064754,5.235987755982989e-05,0.011780972450961725,3.0781324470806943
257.64411027568923,0.5733598856526443,0.6089746615984725,-34.79855,-2.280777,0.199469,0.044975,-0.014137166941154071,0.008115781021773632,3.0758285601081843
258.64661654135335,0.573359522449627,0.6089746869057466,-34.843021,-2.281852,0.199317,0.035755,-0.0067369709126981125,0.007452555906015787,3.076020825578584
259.64912280701753,0.5733591599447413,0.6089747136092842,-34.876778,-2.284054,0.203635,0.02405,-0.003612831551628262,0.005916666164260778,3.073821588548024
260.6516290726817,0.5733587965671911,0.6089747429308157,-34.899754,-2.287139,0.211137,0.014328,-0.00757472895365539,0.00471238898038469,3.0715874623857156
261.65413533834584,0.5733584328405749,0.6089747720778141,-34.915386,-2.292462,0.223772,0.010499,-0.010559241974565694,0.005044001538263612,3.0673988467138544
262.65664160401,0.5733580678922283,0.6089748047154712,-34.929756,-2.296734,0.239726,0.012058,-0.009250245035569947,0.004642575810304917,3.0631923937770376
263.65914786967414,0.5733577018966842,0.6089748397965892,-34.945045,-2.30019,0.250508,0.013958,-0.011658799403322121,0.004223696789826277,3.060330018897182
264.6616541353383,0.57335733590114,0.608974877670234,-34.964642,-2.300106,0.255119,0.01915,-0.008447393579652554,0.004485496177625427,3.058305489324746
265.6641604010025,0.5733569693819972,0.6089749151948128,-34.986412,-2.297883,0.254103,0.017129,-0.009302604913129777,0.002827433388230814,3.0573978832071242
266.66666666666663,0.573356605655381,0.6089749523703258,-35.00069,-2.295624,0.254887,0.006701,-0.002007128639793479,-0.00012217304763960306,3.055827156693499
267.6691729323308,0.5733562421032978,0.6089749897203719,-35.001728,-2.294821,0.261338,-0.007922,-0.0038746309394274117,-0.0018500490071139892,3.053558403198832
268.671679197995,0.57335587767855,0.6089750282921483,-34.992359,-2.295958,0.27513,-0.013022,-0.003926990816987242,-0.0008377580409572782,3.04881105527353
269.6741854636591,0.5733555136028681,0.6089750700055174,-34.982952,-2.297817,0.292054,-0.005932,-0.0032812189937493396,0.0013439035240356337,3.0424753879157427
270.6766917293233,0.5733551561594373,0.6089751139878146,-34.987122,-2.140823,0.306521,-0.051546,0.15735888535980874,-0.11913617474113293,3.036838009338386
271.6791979949875,0.5733548296083342,0.6089751590173094,-34.69595,-1.945431,0.318705,-0.540817,-0.17259560972971924,-0.32253686322184466,2.9618410019406793
272.6817042606516,0.5733545421526064,0.6089752258634196,-34.145237,-1.73305,0.551853,-0.496756,-0.13615313494807765,-0.26010641842471494,2.7622802123472807
273.6842105263158,0.5733542930941221,0.6089753290123785,-33.667538,-1.488294,0.84025,-0.531685,0.1222254075171629,-0.3070732285958824,2.553154966093075
274.68671679197996,0.5733541100090837,0.6089754660207247,-33.119377,-1.133947,1.103472,-0.531854,-0.10105456369047168,-0.2970550386894349,2.2905004367736184
275.6892230576441,0.5733539670666179,0.6089756861067434,-32.619888,-0.779536,1.348843,-0.493194,0.04389503068765739,-0.30026644451310447,2.0502557430635515
276.69172932330827,0.5733538761349639,0.6089759219007254,-32.121494,-0.413861,1.46026,-0.505991,-0.0627620399017161,-0.31038931926808655,1.8080913093493383
277.6942355889724,0.5733538518748873,0.6089761995826094,-31.640574,-0.050663,1.550041,-0.466585,-0.01038470904936626,-0.30455993701971795,1.5790342808643096
278.69674185463657,0.5733538672337847,0.6089764791843555,-31.180267,0.275027,1.547301,-0.462904,0.01207767842380076,-0.3186622322824172,1.36353847812057
279.69924812030075,0.5733539379196193,0.6089767538991798,-30.727171,0.586255,1.483184,-0.450191,0.009180431865490174,-0.323496776857149,1.14116613048385
280.7017543859649,0.5733540529368171,0.6089770141277713,-30.285662,0.881967,1.368469,-0.436356,0.014468779499032991,-0.3297450555792887,0.9233315341825601
281.70426065162906,0.573354206874857,0.6089772460820289,-29.845673,1.129124,1.208638,-0.446059,0.006771877497737999,-0.3356093269594046,0.710069787787958
282.70676691729324,0.5733543969412126,0.6089774466203599,-29.405064,1.337963,1.012597,-0.43723,0.05005604294719737,-0.3369707012292527,0.5000543014421879
283.70927318295736,0.5733546151073692,0.6089776089359803,-28.959692,1.494003,0.788165,-0.452491,-0.0009599310885968813,-0.3374594283263961,0.29298843898558063
284.71177944862154,0.5733548536938778,0.6089777279674353,-28.511559,1.611423,0.547589,-0.450678,0.005340707511102648,-0.33452725772975317,0.08868017929383189
285.7142857142857,0.573355109908212,0.6089778012712639,-28.055929,1.734406,0.264162,-0.469819,0.021170843826691217,-0.3299545125428205,6.191502795053181
286.71679197994985,0.5733553884627607,0.6089778225642808,-27.574081,1.84993,0.040555,-0.495564,-0.006981317007977318,-0.32635909937712715,6.106313588422603
287.719298245614,0.5733556841215359,0.6089778099979102,-27.068731,1.96072,-0.081515,-0.521364,0.054419366077183194,-0.32155946138743524,6.096923821766629
288.72180451127815,0.5733560049130525,0.6089777623504216,-26.534439,2.077957,-0.135184,-0.550039,0.05775294494849237,-0.316096580828693,6.114935305487945
289.72431077694233,0.5733563442050591,0.6089777061508197,-25.968138,2.185554,-0.148186,-0.585968,0.023003439541285264,-0.3149097394840443,6.136385471808126
290.7268170426065,0.5733566964125021,0.6089776736876955,-25.364624,2.280101,-0.145528,-0.625123,0.03118903373313867,-0.31566023106240193,6.148899674531142
291.72932330827064,0.5733570617099145,0.6089776468096251,-24.726574,2.362794,-0.142716,-0.653317,0.02022836603061428,-0.31391491926370013,6.152232886883309
292.7318295739348,0.5733574435879548,0.60897761190304,-24.067526,2.433435,-0.15126,-0.66919,0.010262536001726658,-0.31244882523873235,6.149161194666262
293.734335839599,0.5733578366361024,0.6089775736803295,-23.398869,2.495879,-0.170209,-0.67662,0.008482300164692442,-0.31232666964438527,6.14579283138296
294.7368421052631,0.5733582382363633,0.6089775323160262,-22.723036,2.552641,-0.191154,-0.686106,0.004747295565424576,-0.31386255938614027,6.145705477653898
295.7393483709273,0.5733586466434083,0.6089774872865316,-22.030661,2.603082,-0.207374,-0.707817,0.007853981633974483,-0.31483994376725716,6.146944905768909
296.7418546365915,0.5733590615081715,0.6089774354502526,-21.312513,2.647005,-0.216118,-0.734607,0.007033676885537149,-0.3140021682730073,6.14647352724453
297.7443609022556,0.5733594810853236,0.6089773836139739,-20.570717,2.675143,-0.2145,-0.751369,0.0022165681500327986,-0.3122044965967457,6.145321976457358
298.7468671679198,0.5733599010115418,0.6089773345702219,-19.82645,2.671274,-0.217216,-0.741363,-0.009302604913129777,-0.31086061052600256,6.141761330250363
299.74937343358397,0.573360320239628,0.6089772829084761,-19.09618,2.671489,-0.232735,-0.726819,-0.00783652834145454,-0.31035444758963165,6.138619859769822
300.7518796992481,0.5733607365006546,0.6089772308976644,-18.3799,2.673778,-0.244929,-0.715849,-0.01038470904936626,-0.3115063648959479,6.1402949918793
301.7543859649123,0.5733611541579446,0.6089771764433917,-17.672083,2.68033,-0.250455,-0.708525,-0.00047123889803846896,-0.3132866181862747,6.142197557843606
302.7568922305764,0.5733615723388334,0.6089771186729935,-16.964539,2.682535,-0.264039,-0.716776,-0.009145525280450288,-0.3170041520397301,6.140365311194864
303.7593984962406,0.5733619903451893,0.608977058982733,-16.239489,2.673185,-0.276367,-0.739044,-0.005794493116621174,-0.3196221808243066,6.138846228973805
304.76190476190476,0.5733624066062158,0.6089769999906044,-15.491207,2.656383,-0.274022,-0.760693,-0.0004188790204786391,-0.3180164604591793,6.138916548289368
305.7644110275689,0.5733628190275182,0.6089769420456731,-14.726213,2.636976,-0.240963,-0.77135,0.002356194490192345,-0.31499702339993657,6.141185022531356
306.76691729323306,0.5733632267364314,0.6089768938745859,-13.967636,2.630122,-0.19505,-0.746955,-0.0009599310885968813,-0.31107003258294935,6.14661308377152
307.76942355889724,0.5733636346198776,0.6089768533829472,-13.245337,2.647413,-0.181559,-0.711064,-0.0012915436464758037,-0.30913271711323564,6.147276204167523
308.77192982456137,0.5733640454703836,0.6089768099242489,-12.532482,2.651901,-0.214892,-0.731177,-0.008848819307611252,-0.31452578450189816,6.139544517754236
309.77443609022555,0.5733644564954224,0.6089767634984906,-11.779145,2.629314,-0.221237,-0.775839,-0.007557275661135447,-0.31534610670362795,6.134274129558695
310.77694235588973,0.5733648675204611,0.6089767193416606,-10.999346,2.614498,-0.171541,-0.779507,0.004031710572106902,-0.3098133780682209,6.138008401119678
311.77944862155385,0.5733652719132488,0.608976683562411,-10.237429,2.613432,-0.114728,-0.746064,0.003787364476827695,-0.30471703410569,6.143244720488219
312.78195488721803,0.5733656761315037,0.6089766559862088,-9.505986,2.61723,-0.117564,-0.731039,-0.015027284859671176,-0.3045075771421582,6.135286123818879
313.7844611528822,0.573366081222423,0.6089766264901444,-8.76365,2.606135,-0.1373,-0.766481,-0.00815068760681352,-0.30998792844671286,6.126140825431231
314.78696741854634,0.5733664850916119,0.6089765989139422,-8.002534,2.600946,-0.118917,-0.750782,0.008360127117052838,-0.30808551956203906,6.126611680356835
315.7894736842105,0.5733668921023936,0.6089765695924108,-7.286741,2.628544,-0.118434,-0.689712,-0.006841690667817772,-0.2979102500229121,6.123539988139788
316.79197994987464,0.5733673012075702,0.608976531718766,-6.643219,2.643636,-0.206189,-0.603573,-0.007138396640656807,-0.25048965424622616,6.118233907961045
317.7944862155388,0.5733677139779383,0.608976480406086,-6.057623,2.641968,-0.281751,-0.584968,-0.011082840750163993,-0.19069467407290044,6.112666831245958
318.796992481203,0.5733681230831149,0.6089764238574182,-5.442981,2.611206,-0.179147,-0.623097,0.010890854532444616,-0.12407545652427689,6.1097517299694
319.79949874686713,0.5733685271268368,0.6089763931396235,-4.9153,2.629881,-0.001396,-0.363055,0.0182212373908208,-0.043545964837258526,6.109559988097776
320.8020050125313,0.5733689383264086,0.6089763884272344,-4.754609,2.732409,-0.033526,0.003418,-0.013788101090755204,-0.008970992355250854,6.109647341826838
321.8045112781955,0.573369359299824,0.6089763769080613,-4.796137,2.731627,-0.170492,0.031077,-0.019617500792416268,-0.021694442602289518,6.108407896258535
322.8070175438596,0.5733697849856286,0.6089763341474946,-4.798793,2.679593,-0.279858,-0.023244,0.0031764992386296795,-0.015044738152191121,6.091513335992032
323.8095238095238,0.5733702068317089,0.6089762584002051,-4.70118,2.659692,-0.301116,-0.170883,-0.004590215932745087,-0.01111774733520388,6.073920504398392
324.812030075188,0.5733706131443588,0.6089761985354117,-4.521343,2.630042,-0.191845,-0.115375,0.006579891280018622,0.02214822820780804,6.0682479748899
325.8145363408521,0.573371027834589,0.6089761615344317,-4.499911,2.708492,-0.124672,0.065309,0.0007504915783575617,0.037419859162758425,6.072559095221958
326.8170426065163,0.5733714467136095,0.608976132736499,-4.604463,2.721352,-0.184012,0.124347,-0.014538592669112765,0.02871066619530672,6.077463034087749
327.8195488721804,0.5733718696068874,0.608976090674064,-4.715665,2.668702,-0.274465,0.088364,-0.006440264939859076,0.02275909344600606,6.067689242636459
328.8220551378446,0.5733722909293686,0.6089760227807561,-4.756006,2.665706,-0.321748,0.00266,0.005148721293383272,0.017383479349863524,6.0373036363178905
329.82456140350877,0.5733727057941319,0.6089759493023946,-4.738435,2.685742,-0.33342,-0.015997,-0.014974924982111348,0.01996656664281513,6.021857297904816
330.8270676691729,0.5733731236259548,0.6089758843761465,-4.732995,2.692209,-0.29046,0.024125,0.0011519173063162576,0.021362830044410593,6.025487181323236
331.8295739348371,0.5733735419813766,0.6089758245113531,-4.813749,2.657585,-0.301562,0.138412,0.01001818990644745,0.027104963283471936,6.024789433594873
332.83208020050125,0.5733739516101519,0.6089757503348598,-4.944987,2.564149,-0.398415,0.077825,-0.07843509658462516,0.023945917337362205,6.0151546576185035
333.8345864661654,0.5733743352335217,0.6089756756347678,-4.994359,2.398124,-0.33479,0.112997,0.0456752665246916,0.16285665505029837,5.9946126210147215
334.83709273182956,0.5733746897098927,0.6089755990148137,-5.227777,2.200923,-0.420637,0.31404,0.4580790805718467,0.21895155466268865,5.8016314609019535
335.83959899749374,0.5733750035200922,0.6089754834740173,-5.522044,1.996643,-0.689138,0.339582,0.0651007810993885,0.2149023907980618,5.5832559696121775
336.84210526315786,0.5733752777113177,0.6089753530979221,-5.953808,1.652892,-0.951787,0.498483,0.12814207368142366,0.24371777674848819,5.358352545494216
337.84461152882204,0.5733754939576119,0.6089751696638178,-6.363539,1.284165,-1.21579,0.314521,-0.0697782634947333,0.21895155466268865,5.128248511444209
338.8471177944862,0.5733756510372446,0.6089749535920563,-6.661836,0.906344,-1.214926,0.345117,-0.08941321757966951,0.277629524114738,4.927221924531814
339.84962406015035,0.5733757543607364,0.6089747338551036,-7.036479,0.578152,-1.230304,0.392881,0.03495894491744642,0.27003734186856265,4.727730389603136
340.8521303258145,0.57337581125847,0.608974510976558,-7.433556,0.314899,-1.254549,0.405103,-0.008517206749732328,0.2644871948472207,4.51848262123544
341.85463659147865,0.5733758264428345,0.6089742823384261,-7.84437,0.033654,-1.241989,0.411085,-0.026371924997634317,0.2603507645199941,4.306181015368945
342.85714285714283,0.5733758032299554,0.6089740540493599,-8.210789,-0.266355,-1.169823,0.328701,-0.04056145181634822,0.2596526502724889,4.099883237409554
343.859649122807,0.573375738827306,0.6089738514166336,-8.522396,-0.527362,-0.967398,0.307467,-0.02956587752878394,0.27586674157022373,3.8967093370118473
344.86215538847114,0.5733756334094191,0.608973687530217,-8.841115,-0.741619,-0.738042,0.347013,-0.02066469834361286,0.28544861661696513,3.7004644635577275
345.8646616541353,0.5733754974482704,0.6089735672770314,-9.203216,-0.902774,-0.542151,0.380002,-0.016091935703387718,0.2834065464855467,3.510974153935166
346.8671679197995,0.5733753393214402,0.6089734862937543,-9.596245,-1.024616,-0.350569,0.395162,-0.006876597252857658,0.27733280068860644,3.3202444161975926
347.8696741854636,0.5733751611233235,0.6089734388207986,-9.99707,-1.175302,-0.138643,0.411523,-0.03937462792499207,0.28000315444415774,3.1724501620315153
348.8721804511278,0.5733749632029865,0.6089734184004463,-10.408792,-1.30211,0.018623,0.416578,-0.00481710873550435,0.2800380784824902,3.111119169943387
349.874686716792,0.5733747375319141,0.6089734321885474,-10.826953,-1.432991,0.127063,0.426547,0.045238934211693026,0.2783625624005756,3.097610286626366
350.8771929824561,0.573374490393292,0.6089734728547189,-11.26508,-1.548569,0.196593,0.46264,0.030892327760299633,0.27733280068860644,3.0993032560008005
351.8796992481203,0.5733742256268446,0.6089735175351478,-11.751516,-1.650224,0.219054,0.516477,0.025743606466916362,0.2739992392705898,3.1050279883072194
352.88220551378447,0.5733739458505654,0.6089735568050559,-12.282207,-1.746793,0.2084,0.542199,0.01876228945893904,0.2648188074050996,3.1074887454728986
353.8847117794486,0.5733736543805804,0.60897358926818,-12.827602,-1.8246,0.205044,0.549805,0.006492624817418906,0.25967006865842385,3.1034396688747345
354.8872180451128,0.5733733520895539,0.6089736178915798,-13.37507,-1.889318,0.218778,0.551719,0.002129301687433082,0.25905922087351835,3.0973135981068194
355.8897243107769,0.5733730415954801,0.6089736472131113,-13.928341,-1.943825,0.227832,0.564197,-0.0032288591161895096,0.26071728366291297,3.097453416433197
356.8922305764411,0.5733727239455562,0.6089736784545049,-14.498265,-1.994355,0.224231,0.582613,0.0005235987755982988,0.26026351551068694,3.099774634525179
357.89473684210526,0.5733723989652494,0.6089737086487009,-15.085567,-2.040354,0.205715,0.598467,0.003351032163829113,0.25827380525682836,3.101205821965107
358.8972431077694,0.573372068748955,0.6089737346541068,-15.684863,-2.077858,0.181428,0.607484,-0.0004188790204786391,0.2569997149028725,3.1041725849875244
359.89974937343356,0.5733717338202714,0.6089737542017943,-16.290846,-2.103639,0.16452,0.614626,-0.00895353906273091,0.25672049712913847,3.1040506039261024
360.90225563909775,0.5733713960990612,0.6089737718296199,-16.90867,-2.121018,0.175609,0.630304,-0.009704030641088473,0.2580120233223217,3.098884342073737
361.90476190476187,0.5733710568070546,0.6089737932971696,-17.539141,-2.133526,0.197682,0.63711,-0.01096066770252439,0.255149683349051,3.0919031297855146
362.90726817042605,0.5733707171659821,0.6089738184299108,-18.173103,-2.140167,0.202852,0.637376,-0.005096361415823442,0.25118776849373137,3.091536418656378
363.90977443609023,0.573370376826778,0.6089738449589155,-18.803228,-2.143973,0.191167,0.630068,-0.009599310885968814,0.2488490447493515,3.0942419233430645
364.91228070175436,0.5733700368366397,0.6089738713133872,-19.425777,-2.146807,0.187735,0.621792,-0.012705996954518718,0.2504547476611863,3.0952368657364566
365.91478696741854,0.5733696975446332,0.6089738966206613,-20.043074,-2.151256,0.199163,0.619,-0.004991641660703782,0.2539977660427348,3.0939276593579508
366.91729323308266,0.5733693554600998,0.6089739241968636,-20.658495,-2.158844,0.212451,0.618308,-0.007033676885537149,0.25603980126756815,3.094503705277571
367.91979949874684,0.5733690114557042,0.6089739531693291,-21.27627,-2.168901,0.220961,0.621812,-0.0079412480965742,0.25523696726494327,3.095934892717499
368.922305764411,0.5733686657059793,0.6089739856324532,-21.90156,-2.177388,0.229255,0.633935,-5.235987755982989e-05,0.25548129590693,3.0943990378823294
369.92481203007515,0.5733683199562546,0.6089740203645053,-22.538715,-2.184272,0.231164,0.64309,-0.0108035880698449,0.25427701872305386,3.0924267111078203
370.9273182957393,0.5733679729847992,0.6089740530021623,-23.180742,-2.186711,0.227379,0.643427,-0.006021385919380436,0.2531949320401099,3.091187544792197
371.9298245614035,0.5733676256642781,0.6089740837199571,-23.818048,-2.18687,0.221611,0.635858,-0.007330382858376184,0.25286328457564594,3.0917982005908846
372.93233082706763,0.57336727851829,0.6089741135650875,-24.445831,-2.189307,0.218839,0.627173,-0.008674286382411817,0.2532472570110847,3.0945734835410663
373.9348370927318,0.5733669324194993,0.6089741430611517,-25.0681,-2.194498,0.219227,0.627141,-0.00937241808320955,0.2545911605351203,3.097034502506133
374.937343358396,0.5733665840517805,0.6089741741280124,-25.695017,-2.202712,0.222011,0.634149,-0.005864306286700947,0.25504496359393136,3.096929573311503
375.9398496240601,0.5733662344623314,0.6089742058930048,-26.331339,-2.207972,0.219585,0.644852,-0.00481710873550435,0.25523696726494327,3.095428625061373
376.9423558897243,0.5733658840002176,0.6089742350400033,-26.974806,-2.21012,0.217266,0.64907,-0.012269664641520135,0.25415482822212176,3.092950274976834
377.9448621553885,0.5733655356324989,0.6089742736117798,-27.619717,-2.209786,0.217877,0.644247,-0.0057246799465414016,0.2530727415391778,3.0909782100017127
378.9473684210526,0.5733651879629118,0.6089743144524842,-28.258217,-2.207612,0.21946,0.641472,-0.010367255756846317,0.25385813970257526,3.0926014011126526
379.9498746867168,0.5733648392461272,0.6089743442976145,-28.894232,-2.206716,0.213881,0.641124,-0.004049163864626845,0.25450391152581314,3.0960222464465614
380.9523809523809,0.5733644894821452,0.6089743725719484,-29.531494,-2.209308,0.206374,0.642994,-0.006876597252857658,0.2546435204126802,3.0978723303602607
381.9548872180451,0.5733641398926961,0.6089743999736176,-30.172134,-2.212165,0.204176,0.646145,-0.006178465552059927,0.2540501433735871,3.09581264985669
382.95739348370927,0.5733637878597859,0.6089744252808919,-30.81391,-2.216069,0.207079,0.645113,-0.008848819307611252,0.253474184720429,3.091536418656378
383.9598997493734,0.5733634365250074,0.6089744502391001,-31.453487,-2.219531,0.204239,0.642726,-0.00603883921190038,0.25342180738957665,3.091745997792958
