Time [s],Longitude [rad],Latitude [rad],Altitude [m],V North [m/s],V East [m/s],V Down [m/s],Roll [rad],Pitch [rad],Yaw [rad]
0.0,0.5733579902250767,0.6090015641035628,-14.991227,1.732677,0.119666,0.00225,0.03597123588360313,0.005864306286700947,0.10140362954087054
1.0025062656641603,0.5733582642417692,0.609001589236304,-14.989928,1.743503,0.151294,-0.004064,0.03408628029144926,0.006021385919380436,0.12199851471440364
2.0050125313283207,0.5733585396547252,0.6090016192559671,-14.982712,1.751861,0.185752,-0.008214,0.03190461872645634,0.0061959188445798695,0.14320426512613474
3.007518796992481,0.5733588169875433,0.6090016557333485,-14.97636,1.751592,0.217928,-0.002359,0.0317649923862968,0.0069638637154573755,0.16498597419102395
4.010025062656641,0.5733590936222298,0.6090016981448493,-14.97682,1.747844,0.243991,0.004721,0.03515093113516579,0.008482300164692442,0.1865582437456739
5.012531328320802,0.5733593688606528,0.6090017461414037,-14.982259,1.748516,0.273351,0.005179,0.036267941856442165,0.00958185759344887,0.20776399415740499
6.015037593984962,0.5733596449717405,0.6090018004211435,-14.984674,1.75274,0.311999,1.2e-05,0.03363249468593073,0.009459684545809267,0.22914427749433552
7.017543859649122,0.5733599216064269,0.6090018602859367,-14.982932,1.755033,0.353422,-0.00093,0.03651228795172137,0.009180431865490174,0.2505943740013458
8.020050125313283,0.5733601989392451,0.6090019295755081,-14.984282,1.754826,0.38336,0.005044,0.035395277230445006,0.00947713783832921,0.27164304478039747
9.022556390977442,0.5733604760975303,0.6090020037520013,-14.990329,1.754529,0.404392,0.006753,0.03262020371977402,0.009983283321407565,0.292237912500638
10.025062656641603,0.5733607536048813,0.6090020817682188,-14.993146,1.75321,0.434565,-0.001046,0.03584906283596353,0.00973893722612836,0.31386255938614027
11.027568922305765,0.5733610300650349,0.6090021657185558,-14.98827,1.748859,0.477623,-0.005561,0.037646751965517686,0.010053096491487338,0.33627258698174745
12.030075187969924,0.5733613056525237,0.6090022575228745,-14.98532,1.742865,0.520947,0.003147,0.03600614246864302,0.01090830782496456,0.35803684275411674
13.032581453634084,0.5733615810654797,0.6090023577047736,-14.993448,1.740404,0.548455,0.013496,0.03495894491744642,0.011309733552923256,0.3786840703519172
14.035087719298245,0.5733618552567051,0.6090024624245287,-15.008282,1.741627,0.568236,0.014785,0.036023595761162965,0.010402162341886203,0.39955822565906185
15.037593984962406,0.5733621297969965,0.6090025694132118,-15.018021,1.741542,0.597044,0.005821,0.035273104182805395,0.008796459430051421,0.42172390715938984
16.040100250626566,0.5733624045118209,0.609002683732278,-15.018629,1.733794,0.638542,-0.002299,0.039252454877352475,0.00747000919853573,0.44532074119306064
17.042606516290725,0.5733626780049146,0.6090028062543914,-15.014297,1.719392,0.681899,-0.003732,0.040491638646268445,0.007033676885537149,0.46876053050063704
18.045112781954884,0.5733629478328169,0.609002937503151,-15.011497,1.705944,0.720322,-2.2e-05,0.040491638646268445,0.00809832772925369,0.49131018443640373
19.047619047619047,0.5733632167880547,0.6090030755586949,-15.014365,1.699975,0.751334,0.006078,0.03876376268679406,0.009215338450530061,0.5117130833922174
20.050125313283207,0.5733634850451608,0.6090032191992923,-15.023951,1.698313,0.779637,0.011983,0.04052654523130833,0.008552113334772215,0.5322730619807107
21.052631578947366,0.5733637538258655,0.609003367377746,-15.037676,1.694822,0.805809,0.013528,0.03953170755767157,0.0064053583548191895,0.5542467921699044
22.05513784461153,0.5733640213848399,0.6090035204431213,-15.048869,1.684668,0.836621,0.007576,0.037576938795437914,0.004031710572106902,0.5784893805735206
23.05764411027569,0.5733642871984849,0.6090036785699515,-15.050676,1.667399,0.875304,-0.002488,0.040125119503349634,0.002827433388230814,0.6033079799901724
24.06015037593985,0.5733645498705373,0.6090038442016976,-15.043322,1.650046,0.916505,-0.009151,0.042551127163621756,0.0029845130209103037,0.6275506033003737
25.062656641604008,0.573364809750063,0.6090040182110239,-15.035205,1.635468,0.959363,-0.004714,0.0439822971502571,0.004328416544945937,0.6515139390236708
26.065162907268167,0.5733650670115946,0.6090042016451284,-15.032809,1.621575,0.997916,-0.000376,0.04070107815650776,0.005270894341022875,0.6742381607912219
27.06766917293233,0.5733653220041984,0.6090043918860168,-15.034649,1.605038,1.033718,0.001839,0.040805797911627424,0.0056199601914217415,0.6965260153391896
28.07017543859649,0.5733655740297424,0.6090045877119589,-15.036181,1.586054,1.067662,-9.3e-05,0.03998549316319009,0.005026548245743669,0.7178888279303076
29.07268170426065,0.5733658232627596,0.6090047891229545,-15.03613,1.568053,1.100215,8.1e-05,0.04316199240181977,0.003926990816987242,0.7387978374626147
30.075187969924812,0.5733660705759146,0.6090049966426027,-15.036899,1.55507,1.127566,0.001328,0.04106759729942658,0.003438298626428829,0.7599861520351183
31.07769423558897,0.57336631492201,0.6090052090491727,-15.037781,1.54072,1.15652,-0.001598,0.0419228086329038,0.003490658503988659,0.7816282522131405
32.08020050125313,0.5733665569991772,0.6090054282625267,-15.031874,1.519164,1.19328,-0.012172,0.044645522266014946,0.0037000980142279784,0.8040906222330151
33.08270676691729,0.5733667948875542,0.6090056551553293,-15.016734,1.489802,1.237274,-0.017868,0.0472460628514865,0.005096361415823442,0.8258025181278245
34.08521303258145,0.573367028587141,0.6090058899021138,-15.002558,1.462661,1.278933,-0.009509,0.048869219055841226,0.00757472895365539,0.8456993239604375
35.08771929824561,0.573367257399806,0.6090061333755444,-14.999967,1.444474,1.309977,0.004045,0.046321038347929507,0.00895353906273091,0.8634143984148874
36.09022556390977,0.5733674839435429,0.6090063817358969,-15.007959,1.431176,1.332009,0.009846,0.041887902047863905,0.008203047484373348,0.8797331920144492
37.092731829573935,0.5733677076947529,0.6090066328887764,-15.016387,1.411082,1.352872,0.005013,0.04305727264670011,0.0062482787221397,0.8977100658566983
38.095238095238095,0.5733679283043704,0.609006888230446,-15.018111,1.38365,1.378606,-0.001564,0.047403142484165994,0.005497787143782138,0.9165596392315297
39.097744360902254,0.5733681448997306,0.6090071477609057,-15.017496,1.358287,1.40746,0.001123,0.05052728184523584,0.006824237375297829,0.9349031020298676
40.100250626566414,0.5733683578298994,0.6090074127018862,-15.019654,1.340298,1.435504,0.003458,0.045186574334133194,0.007801621756414653,0.9526879547478123
41.10275689223057,0.5733685688402059,0.609007683751519,-15.021162,1.32466,1.464776,-0.001816,0.046949356878647465,0.007051130178057092,0.9705776144873391
42.10526315789473,0.5733687779306502,0.6090079605607384,-15.016326,1.305646,1.494993,-0.008621,0.04551818689201212,0.006457718232379019,0.9899856583162236
43.10776942355889,0.5733689830068374,0.6090082438276759,-15.006411,1.276513,1.52597,-0.010793,0.04473278872861467,0.006161012259539983,1.0100569796207435
44.11027568922306,0.5733691833706356,0.6090085325051343,-14.999037,1.24428,1.549578,-0.003064,0.04415683007545653,0.00710349005561692,1.0295348017131227
45.11278195488722,0.5733693776257812,0.6090088251968497,-15.003215,1.212454,1.568779,0.010343,0.04581489286485115,0.008656833089891874,1.049047582750419
46.11528822055138,0.5733695666449392,0.6090091192848288,-15.018343,1.184585,1.588974,0.017182,0.047647488579445195,0.008447393579652554,1.0692759487810335
47.11779448621554,0.5733697507771753,0.6090094165144004,-15.032555,1.161594,1.613738,0.008537,0.047630035286925256,0.006998770300497262,1.0902723120424027
48.1203007518797,0.5733699319423516,0.6090097196780914,-15.032673,1.138207,1.642432,-0.008516,0.04855505979048225,0.004904375198104067,1.1122111007399715
49.122807017543856,0.5733701097914026,0.6090100299976324,-15.017225,1.106728,1.676765,-0.019766,0.049951323192077714,0.005585053606381855,1.134115000305793
50.125313283208015,0.5733702825789984,0.6090103474730234,-14.999555,1.068248,1.712401,-0.014932,0.04822344723260332,0.008011061266653973,1.1567344325050544
51.127819548872175,0.5733704487343433,0.6090106708825338,-14.992517,1.02734,1.73881,0.000736,0.04888667234836117,0.00905825881785057,1.1794759679387854
52.130325814536334,0.5733706079083709,0.6090109981317685,-15.002338,0.988626,1.751062,0.01731,0.04824090052512327,0.008604473212332044,1.2010831266251825
53.1328320802005,0.5733707611482793,0.6090113274753984,-15.024832,0.952068,1.759111,0.024023,0.050265482457436686,0.008307767239493008,1.2215210194324988
54.13533834586466,0.5733709077559365,0.6090116578662258,-15.044678,0.914938,1.780992,0.011679,0.05344198169606637,0.007714355293814937,1.2418890118032728
55.13784461152882,0.5733710484294742,0.6090119926203763,-15.045429,0.879345,1.817996,-0.010171,0.05489060497522166,0.006492624817418906,1.2621697726180319
56.14035087719298,0.573371184390623,0.6090123355775743,-15.026434,0.849321,1.853975,-0.023623,0.048956485518440944,0.005375614096142535,1.2810890020833101
57.14285714285714,0.5733713152903168,0.6090126860396881,-15.007834,0.817458,1.876347,-0.012058,0.04235914094590238,0.006126105674500096,1.3002702927357754
58.1453634085213,0.5733714426993521,0.6090130399924605,-15.009281,0.782392,1.882912,0.012732,0.04461061568097507,0.007592182246175334,1.3192245509591414
59.14786967418546,0.5733715634761365,0.6090133925489694,-15.032302,0.743907,1.884175,0.026905,0.048729592715681676,0.00747000919853573,1.3380915776264926
60.150375939849624,0.5733716781442683,0.6090137442328136,-15.058142,0.703381,1.894182,0.020019,0.047630035286925256,0.004991641660703782,1.3583723384412518
61.152882205513784,0.5733717853074844,0.6090140990582507,-15.065845,0.664001,1.917683,-0.005913,0.051487212933832724,0.002129301687433082,1.378688005841051
62.15538847117794,0.5733718874092457,0.6090144592942082,-15.051023,0.630327,1.94627,-0.023088,0.051696652444072046,0.0006632251157578452,1.3982007170651773
63.1578947368421,0.5733719844495521,0.609014825987884,-15.028008,0.597122,1.968807,-0.019887,0.044645522266014946,0.0014835298641951802,1.4181848068136826
64.16040100250626,0.5733720762538708,0.6090151972194159,-15.015758,0.562257,1.979264,-0.004815,0.043947390565217216,0.00312413936106985,1.4379767532648355
65.16290726817043,0.5733721621240698,0.609015568101882,-15.020795,0.523714,1.980047,0.010874,0.04471533543609472,0.004485496177625427,1.4577338280375338
66.16541353383458,0.5733722415365509,0.6090159377626175,-15.034849,0.482706,1.982443,0.012981,0.04673991736840814,0.0040666171571467884,1.4785730593063462
67.16791979949875,0.5733723150149124,0.6090163086450835,-15.044504,0.439709,1.994594,0.003434,0.04974188368183839,0.002356194490192345,1.5005293536563125
68.1704260651629,0.5733723818610228,0.6090166824946094,-15.042985,0.398583,2.012499,-0.006083,0.05345943498858632,0.000767944870877505,1.5224506367014836
69.17293233082707,0.5733724427730136,0.6090170591366619,-15.033721,0.359788,2.02681,-0.011657,0.050876347695634705,0.00012217304763960306,1.5446163880149817
70.17543859649122,0.5733724974018193,0.6090174390948401,-15.024077,0.317535,2.034653,-0.008746,0.05129522671611335,0.001064650843716541,1.5663456499358486
71.17794486215539,0.5733725452238407,0.6090178209728804,-15.019212,0.272512,2.038276,-0.002963,0.052324970974790004,0.0031066860685499066,1.587691026687739
72.18045112781954,0.573372586239078,0.6090182033745195,-15.020012,0.22452,2.044424,0.002823,0.05150466622635266,0.00466002910282486,1.6093331966789313
73.1829573934837,0.5733726185276693,0.6090185856016257,-15.025208,0.179664,2.052426,0.005749,0.05028293574995663,0.0043982297150257105,1.6304865523065177
74.18546365914787,0.5733726436604105,0.6090189685268637,-15.03221,0.137164,2.059603,0.007073,0.04818854064756344,0.0026354471705114374,1.6515178046996344
75.18796992481202,0.5733726618118348,0.6090193538955625,-15.038701,0.096307,2.060482,0.00328,0.051696652444072046,-0.00010471975511965978,1.6735437376867552
76.19047619047619,0.5733726736800736,0.6090197390897284,-15.041551,0.053822,2.057026,-0.000304,0.05319763560078716,-0.001239183768915974,1.6962156344833315
77.19298245614034,0.5733726794396602,0.6090201237602956,-15.040958,0.006869,2.055926,-0.002563,0.05375614096142535,-0.0008377580409572782,1.718678074316376
78.19548872180451,0.5733726771707321,0.6090205080817969,-15.03637,-0.040431,2.060436,-0.0082,0.05585053606381855,-0.001308996938995747,1.739883754914937
79.19799498746866,0.5733726679204871,0.6090208931014298,-15.025091,-0.0861,2.066904,-0.013711,0.054332099614583476,-0.0011344640137963143,1.7606183187885072
80.20050125313283,0.5733726511653263,0.6090212810881226,-15.01231,-0.132491,2.068427,-0.012545,0.05335471523346665,-0.0002443460952792061,1.781213221415333
81.203007518797,0.5733726272543156,0.6090216682021505,-15.005013,-0.175017,2.060667,-0.00279,0.05246459731494954,0.00020943951023931956,1.8009702787347386
82.20551378446115,0.573372596012922,0.6090220514764544,-15.01017,-0.213303,2.047165,0.011432,0.0546637121724624,0.0010471975511965976,1.8198896478263573
83.20802005012531,0.5733725583138101,0.6090224338780935,-15.024814,-0.249402,2.037273,0.013444,0.055344390580740185,0.0005585053606381855,1.83826798230315
84.21052631578947,0.573372516425908,0.6090228136617386,-15.030959,-0.284305,2.034148,-0.003437,0.055484016920899736,-0.001186823891356144,1.8575014583002498
85.21303258145363,0.5733724679057548,0.6090231941435156,-15.018404,-0.322094,2.035761,-0.021744,0.058538343111889816,-0.0013788101090755204,1.8777124583048068
86.21553884711778,0.5733724146732126,0.6090235753234242,-14.993446,-0.36305,2.036712,-0.026381,0.05806710421385134,0.0009250245035569946,1.897661536748517
87.21804511278195,0.5733723548084193,0.6090239573759975,-14.971551,-0.404803,2.032492,-0.015679,0.05476843192758206,0.0042935099599060505,1.9175933015260473
88.22055137844612,0.5733722879623089,0.6090243359379123,-14.968103,-0.449376,2.020384,0.007267,0.052569317070069205,0.007225663103256524,1.9383451790657975
89.22305764411027,0.5733722141348816,0.6090247124054319,-14.983008,-0.494593,2.000364,0.018375,0.053791047546465236,0.007225663103256524,1.959690555817688
90.22556390977444,0.5733721328025385,0.6090250843350955,-15.002242,-0.537686,1.976829,0.016411,0.05506513790042109,0.005480333851262195,1.9811407221378685
91.22807017543859,0.5733720446634113,0.6090254520759689,-15.015203,-0.576535,1.9605,0.007453,0.057560958730772986,0.003420845333908886,2.00220684620944
92.23057644110276,0.5733719514628292,0.6090258165007167,-15.017543,-0.614475,1.951482,-0.003079,0.05724679946541401,0.002007128639793479,2.022522513609239
93.23308270676691,0.5733718518045289,0.609026179878267,-15.010975,-0.65266,1.945782,-0.011114,0.05628686837681713,0.0015533430342749533,2.0423843604969347
94.23558897243107,0.5733717446413128,0.6090265432558173,-14.998349,-0.697977,1.937596,-0.015441,0.05302310267558773,0.0025132741228718345,2.063520140658953
95.23809523809523,0.5733716306713127,0.6090269047135054,-14.984652,-0.745574,1.920483,-0.013083,0.05405284693426438,0.004258603374866164,2.084254721985816
96.2406015037594,0.5733715100690613,0.609027262680535,-14.976855,-0.790449,1.897077,-0.003628,0.05808455750637129,0.005707226654021458,2.1046575860350445
97.24310776942356,0.5733713824854931,0.6090276159351755,-14.982265,-0.829175,1.872045,0.011443,0.06403613025567195,0.007033676885537149,2.123751662584788
98.24561403508771,0.5733712489678053,0.609027964826493,-14.999119,-0.863276,1.850524,0.016637,0.057805304826052194,0.007051130178057092,2.1417808613980114
99.24812030075188,0.5733711103886626,0.6090283081327569,-15.013345,-0.897317,1.830898,0.006874,0.05551892350593962,0.005253441048502932,2.1598622630091624
100.25062656641603,0.5733709660499334,0.6090286489955599,-15.015697,-0.930659,1.814389,-0.002988,0.06028367236388415,0.0032812189937493396,2.1778567123169794
101.2531328320802,0.5733708157770849,0.6090289860186383,-15.013022,-0.965347,1.797874,-0.001847,0.06052801845916335,0.0021118483949131386,2.1953973585659847
102.25563909774435,0.5733706604427814,0.6090293200746572,-15.015333,-1.003717,1.773308,0.005821,0.0563566815468969,0.0012740903539558606,2.2132346758812442
103.25814536340852,0.5733704984762269,0.6090296501164187,-15.023215,-1.045439,1.742778,0.007557,0.06541494036474747,0.0009948376736367678,2.2321713411857504
104.26065162907267,0.5733703307500857,0.6090299749221925,-15.026123,-1.084025,1.715624,-0.002159,0.06129596333004085,0.0004537856055185257,2.249101052383388
105.26315789473684,0.5733701583115557,0.6090302939683797,-15.014884,-1.112174,1.700629,-0.018563,0.052953289505507956,0.0011693705988362008,2.264652058191705
106.265664160401,0.5733699809861037,0.609030610920172,-14.993383,-1.134627,1.691966,-0.021815,0.05073672135547516,0.0026005405854715507,2.280988148004154
107.26817042606515,0.5733697991227956,0.609030925777569,-14.976014,-1.160385,1.676631,-0.011227,0.05106833391335409,0.0038571776469074684,2.2988427789855934
108.27067669172932,0.5733696148160267,0.6090312380169722,-14.976242,-1.187035,1.647954,0.01037,0.04691445029360758,0.004782202150464463,2.3170465630838946
109.27318295739347,0.5733694257968687,0.609031542053328,-14.997536,-1.218686,1.606293,0.029142,0.04475024202113461,0.004485496177625427,2.3356695054553542
110.27568922305764,0.5733692310181241,0.6090318373630373,-15.026827,-1.254128,1.561236,0.023799,0.049183378321200205,0.001186823891356144,2.354169960619909
111.27819548872179,0.5733690294325956,0.6090321244696992,-15.038817,-1.290224,1.525232,-0.001752,0.05201081170943102,-0.0014486232791552935,2.3719548133378536
112.28070175438596,0.5733688229601449,0.6090324059913076,-15.023211,-1.319289,1.509228,-0.028517,0.04991641660703782,-0.0017278759594743863,2.388814746271996
113.28320802005013,0.5733686114262396,0.6090326857675867,-14.989505,-1.341454,1.503619,-0.035017,0.04963716392671873,0.0011519173063162576,2.4057268820040663
114.28571428571428,0.5733683976234063,0.6090329655438659,-14.962176,-1.360813,1.489441,-0.016905,0.044261549830576195,0.005393067388662479,2.423564216772619
115.28822055137844,0.5733681808535133,0.6090332427021511,-14.958897,-1.386305,1.45441,0.008407,0.04159119607502487,0.007696902001294993,2.4435656201873037
116.2907268170426,0.5733679609420274,0.6090335118319218,-14.977968,-1.412369,1.407152,0.025045,0.040491638646268445,0.007504915783575617,2.463514820804061
117.29323308270676,0.5733677364926856,0.6090337722350462,-15.005541,-1.441749,1.358339,0.026391,0.04431390970813603,0.004363323129985824,2.482957753764693
118.29573934837092,0.5733675071564219,0.6090340214680634,-15.024718,-1.471974,1.319581,0.009744,0.05005604294719737,0.0006806784082777885,2.501335966068438
119.29824561403508,0.5733672725841705,0.6090342644178951,-15.025714,-1.498956,1.290134,-0.008491,0.05197590512439114,-0.0014660765716752368,2.5188939259836234
120.30075187969925,0.5733670341721947,0.6090345012590747,-15.010946,-1.517667,1.266904,-0.018788,0.04967207051175862,-0.00047123889803846896,2.5358585263130085
121.3032581453634,0.573366792793159,0.6090347346095957,-14.993534,-1.5318,1.244223,-0.015639,0.04468042885105484,0.0023212879051524586,2.552788237510646
122.30576441102757,0.5733665493197284,0.6090349656911886,-14.985658,-1.546784,1.215869,-0.002923,0.04427900312309614,0.005235987755982988,2.5712713790090214
123.30827067669172,0.5733663039264356,0.6090351897914645,-14.989694,-1.5686,1.177994,0.007143,0.04651302456564888,0.005672320068981571,2.589998726976335
124.31077694235589,0.5733660548679513,0.609035407957621,-14.995912,-1.596572,1.135496,0.002643,0.04843288674284264,0.0036477381366681488,2.6099828167248402
125.31328320802004,0.5733658009225452,0.6090356172225985,-14.99523,-1.619017,1.09808,-0.003802,0.04673991736840814,0.0023387411976724015,2.6285706256184573
126.3157894736842,0.5733655447082109,0.6090358189826599,-14.992311,-1.632585,1.066095,-0.001856,0.042690753503781306,0.0024434609527920616,2.64696613413509
127.31829573934836,0.5733652862249488,0.6090360141104703,-14.995478,-1.643599,1.030871,0.006945,0.04197516851046362,0.0038048177693476384,2.6650828263037165
128.32080200501252,0.573365026694489,0.6090362026060295,-15.006023,-1.657198,0.991006,0.009968,0.04735078260660616,0.0035953782591083188,2.683827749736598
129.32330827067668,0.5733647640224365,0.6090363844693376,-15.012083,-1.67589,0.950463,-0.000822,0.04892157893340106,0.0014311699866353504,2.701874401842342
130.32581453634086,0.5733644985578573,0.6090365591767957,-15.006068,-1.696449,0.913847,-0.00925,0.04883431247080134,0.0012740903539558606,2.719467512688662
131.328320802005,0.5733642294280866,0.6090367272520026,-14.994251,-1.714237,0.881368,-0.013199,0.04558800006209189,0.0016580627893946131,2.7368158760139756
132.33082706766916,0.573363958029388,0.6090368886949585,-14.983272,-1.723367,0.852125,-0.009238,0.0415213829049451,0.002722713633111154,2.7531000422811784
133.33333333333331,0.5733636861070905,0.6090370450764594,-14.979746,-1.727499,0.822456,0.0011,0.04040437218366873,0.004677482395344803,2.7696806178152467
134.3358395989975,0.5733634138357272,0.6090371951747752,-14.98783,-1.734935,0.784934,0.011362,0.040421825476188666,0.0057421332390613445,2.787360541338561
135.33834586466165,0.5733631398190346,0.6090373384663067,-15.0025,-1.747336,0.744342,0.014983,0.04138175656478555,0.004258603374866164,2.8046393881997678
136.3408521303258,0.573362863533414,0.609037473031192,-15.013973,-1.756887,0.704223,0.007047,0.04237659423842232,0.0015533430342749533,2.821219963733837
137.34335839598998,0.5733625862005959,0.6090376013128921,-15.018909,-1.763635,0.664585,0.001892,0.04431390970813603,-8.726646259971648e-05,2.8377307610044107
138.34586466165413,0.5733623079951131,0.609037722787808,-15.019297,-1.772749,0.62633,-0.000418,0.046635197613288486,3.490658503988659e-05,2.8532990804789073
139.34837092731829,0.5733620280443011,0.6090378369323411,-15.015002,-1.781177,0.596339,-0.006523,0.04267330021126135,0.0009424777960769379,2.86865806516292
140.35087719298244,0.5733617468717586,0.6090379458408863,-15.004758,-1.781472,0.579536,-0.012198,0.037960911230876665,0.001308996938995747,2.8835808048003964
141.35338345864662,0.573361466048282,0.6090380528295696,-14.997089,-1.779108,0.55917,-0.001974,0.03328342883553186,0.0026005405854715507,2.900597607927709
142.35588972431077,0.5733611853993382,0.6090381561530613,-15.003599,-1.784527,0.519879,0.012719,0.03914773512223281,0.0025830872929516074,2.9199010018146434
143.35839598997492,0.5733609033541311,0.6090382497027091,-15.017338,-1.795071,0.466724,0.010011,0.04064871827894794,-8.726646259971648e-05,2.939850219884694
144.36090225563908,0.5733606204362593,0.6090383329549145,-15.020864,-1.799879,0.419893,-0.003025,0.04497713482389387,-0.0026878070480712674,2.958472638657378
145.36340852130326,0.5733603369947888,0.6090384088767369,-15.013635,-1.799365,0.383545,-0.008798,0.03701843343479973,-0.0032288591161895096,2.9753850361888357
146.3659147869674,0.5733600533787854,0.6090384758973802,-15.00657,-1.799286,0.347146,-0.004298,0.03373721444105039,-0.001780235837034216,2.9920005008546515
147.36842105263156,0.5733597701118478,0.60903853733297,-15.002894,-1.796806,0.312203,-0.003077,0.03904301536711315,-0.0009424777960769379,3.008039919600847
148.37092731829574,0.5733594880666406,0.6090385947543022,-15.00059,-1.796199,0.274532,-0.001941,0.037768925013157296,0.00034906585039886593,3.0246902733984102
149.3734335839599,0.5733592042761043,0.609038644321653,-14.995871,-1.79774,0.23814,-0.008468,0.0335801348083709,0.0006632251157578452,3.0414279634717434
150.37593984962405,0.5733589215327655,0.6090386869076868,-14.98076,-1.797927,0.210416,-0.020181,0.032183871406775436,0.0011344640137963143,3.056996544745628
151.3784461152882,0.5733586389639597,0.6090387249558644,-14.962156,-1.793343,0.189764,-0.014369,0.03728023282259888,0.002949606435870417,3.072006376312779
152.38095238095238,0.5733583563951536,0.6090387582916532,-14.962134,-1.786569,0.156392,0.016227,0.0318871654339364,0.005689773361501515,3.0875049175237814
153.38345864661653,0.5733580752226112,0.6090387841225261,-14.992085,-1.783631,0.096804,0.036272,0.0357967029584037,0.004747295565424576,3.103021034200351
154.38596491228068,0.5733577945736674,0.6090387984342259,-15.019081,-1.778184,0.042817,0.011669,0.03904301536711315,0.00012217304763960306,3.116686770257249
155.38847117794487,0.57335751549552,0.6090388027975491,-15.010676,-1.76744,0.02499,-0.024134,0.034191000046568915,-0.0019722220547535923,3.127123699557835
156.39097744360902,0.5733572369409714,0.6090388057646088,-14.979965,-1.760226,0.025761,-0.029742,0.03377212102609028,0.0006108652381980154,3.1382067148409245
157.39348370927317,0.5733569596081532,0.6090388097788662,-14.959787,-1.758662,0.016361,-0.008549,0.03595378259108319,0.005218534463463045,3.1513139978970615
158.39598997493732,0.573356682624401,0.60903881239686,-14.962233,-1.753214,-0.01379,0.01129,0.025324727446437722,0.006265732014659643,3.167545699566949
159.3984962406015,0.5733564061642475,0.6090388096043332,-14.981464,-1.744158,-0.059097,0.024411,0.023422318561763904,0.004799655442984407,3.18477208183084
160.40100250626566,0.5733561311003574,0.6090387958162321,-15.003292,-1.73618,-0.109722,0.014239,0.0313635666583381,0.0015009831567151233,3.2013875464966564
161.4035087719298,0.5733558574327308,0.6090387715561555,-15.00301,-1.724673,-0.142775,-0.015313,0.03275983005993357,-0.0006806784082777885,3.2156817930704897
162.406015037594,0.5733555867321637,0.6090387429327557,-14.979444,-1.711421,-0.15176,-0.025516,0.032183871406775436,0.0011693705988362008,3.228003974669203
163.40852130325814,0.5733553184750576,0.6090387134366915,-14.963364,-1.702908,-0.162792,-0.002495,0.03049090203234094,0.0051836278784231585,3.2417397682422755
164.4110275689223,0.573355051439682,0.6090386820207649,-14.974931,-1.695838,-0.198067,0.022726,0.02790781473938933,0.005777039824101231,3.257936301527735
165.41353383458645,0.5733547845788396,0.6090386436235214,-14.997787,-1.684411,-0.245004,0.016403,0.02841396022246768,0.0016406094968746698,3.273766402936739
166.41604010025063,0.5733545199869249,0.6090385968486974,-14.999265,-1.668493,-0.275535,-0.013662,0.03246312408709453,-0.0011519173063162576,3.2874148427807492
167.41854636591478,0.5733542576639383,0.6090385434416222,-14.974155,-1.641009,-0.281352,-0.030033,0.027768188399229784,0.0016755160819145565,3.2968570740340386
168.42105263157893,0.573354003893065,0.6090384933506727,-14.948433,-1.60063,-0.257224,-0.00085,-0.045779986279811266,0.013264502315156905,3.3446792002584385
169.4235588972431,0.5733537593724369,0.6090384333113464,-14.960745,-1.493397,-0.428099,0.008143,0.03921754829231258,-0.007801621756414653,3.540295563195623
170.42606516290726,0.5733535438242742,0.6090383373182376,-14.963496,-1.268195,-0.732286,-0.001003,0.1033234917180643,-0.003543018381548489,3.796806708080984
171.42857142857142,0.5733533637062955,0.6090382076402743,-14.963558,-0.993173,-1.0047,0.003709,0.12337732482347916,0.008604473212332044,4.03221657796364
172.43107769423557,0.5733532308867394,0.6090380186211163,-14.954889,-0.717266,-1.192227,-0.01439,0.14391985011945244,0.01541125729510993,4.2378339218608465
173.43358395989975,0.5733531439693426,0.6090377817799367,-14.940494,-0.460402,-1.312251,-0.006812,0.12323769848331961,0.018203784098300854,4.427429143224746
174.4360902255639,0.5733530970199857,0.6090375259146683,-14.936239,-0.208145,-1.392149,0.006338,0.11147417932487783,0.016859880574265223,4.612642942394316
175.43859649122805,0.5733530874206749,0.6090372592283586,-14.945956,0.054589,-1.443172,0.011705,0.10629055144645466,0.013281955607676848,4.80126079683039
176.44110275689223,0.5733531169167392,0.60903698782966,-14.954603,0.328042,-1.440504,0.007146,0.10543534011297745,0.00937241808320955,4.991484528711226
177.4436090225564,0.5733531884752385,0.609036721841482,-14.960144,0.605084,-1.378026,0.0121,0.11150908590991772,0.012269664641520135,5.180433681545914
178.44611528822054,0.5733533019216399,0.6090364692923391,-14.981695,0.856032,-1.289367,0.025732,0.11465067856350751,0.012339477811599909,5.36322187448094
179.4486215538847,0.5733534588267397,0.6090362338474231,-15.009318,1.141437,-1.198779,0.025105,0.14999359591639266,-0.0032288591161895096,5.4998292488201415
180.45112781954887,0.5733536467987002,0.6090360153322008,-14.996764,1.199979,-1.100225,-0.043156,0.05405284693426438,-0.02495820830351891,5.4603846506454365
181.45363408521303,0.57335384070478,0.6090358072889539,-14.947422,1.165494,-1.155997,-0.048082,0.047472955654245766,-0.021048670779051613,5.315609344846412
182.45614035087718,0.5733540400213806,0.6090356112884789,-14.899091,1.033375,-1.266417,-0.03903,0.09285151620609834,-0.016126842288427607,5.116537526696252
183.45864661654133,0.5733542007662047,0.6090353885844664,-14.863041,0.812415,-1.370572,-0.030998,0.046094145545170245,-0.020926497731412013,4.895246951583211
184.4611528822055,0.5733543190995279,0.6090351435402395,-14.831556,0.537761,-1.440948,-0.030348,0.04804891430740389,-0.0226543736908864,4.673119072214817
185.46365914786966,0.5733543873419018,0.609034885406043,-14.794453,0.243226,-1.460802,-0.047731,0.05960299395560636,-0.024364796357840838,4.458443783659025
186.46616541353382,0.5733544033989308,0.6090346237811882,-14.734193,-0.04892,-1.421928,-0.074211,0.02336995868420407,-0.02014109956801456,4.254118070674756
187.468671679198,0.573354372506603,0.6090343750717698,-14.660961,-0.336257,-1.316545,-0.072706,-0.0077492618788548235,-0.004590215932745087,4.056512067296883
188.47117794486215,0.5733542927450563,0.6090341443392427,-14.61256,-0.641768,-1.229951,-0.023504,-0.047647488579445195,0.014870205226991687,3.9205680751530725
189.4736842105263,0.5733541724918708,0.6090339225078948,-14.623026,-0.844709,-1.226876,0.031791,-0.006213372137099813,0.023335052099164186,3.881489908854824
190.47619047619045,0.5733540124451785,0.6090336966622895,-14.658497,-0.982251,-1.296072,0.030391,0.0419228086329038,0.024329889772800952,3.890949733026974
191.47869674185463,0.5733538352942593,0.6090334627881697,-14.678504,-1.008115,-1.305179,0.014173,-0.010297442586766544,0.027104963283471936,3.9133599526087983
192.4812030075188,0.5733536616339988,0.6090332198383378,-14.69558,-1.005507,-1.298636,0.024139,-0.0033335788713091696,0.030316369107141507,3.9272177097900007
193.48370927318294,0.5733534967003845,0.609032976713973,-14.730025,-0.999191,-1.301888,0.044483,-0.0012566370614359172,0.0317649923862968,3.931476382978037
194.48621553884712,0.5733533370027578,0.6090327330660095,-14.777655,-0.996295,-1.307477,0.048524,-0.016004669240788003,0.029600784113823827,3.9296787462083604
195.48872180451127,0.5733531800976581,0.6090324885453813,-14.820971,-0.998321,-1.297558,0.037615,-0.012583823906879116,0.025551620249196983,3.92524564481488
196.49122807017542,0.5733530221453608,0.6090322455955494,-14.856493,-1.000591,-1.277024,0.03746,-0.011519173063162575,0.023439771854283847,3.921527866615329
197.49373433583958,0.5733528641930635,0.6090320077071724,-14.900039,-0.995326,-1.267868,0.049378,-0.010890854532444616,0.021327923459370707,3.920742503358517
198.49624060150376,0.5733527079860955,0.6090317713895916,-14.949944,-0.978587,-1.274992,0.04547,-0.0053058009260627615,0.01619665545850738,3.921911908863938
199.4987468671679,0.5733525542225885,0.6090315347229451,-14.980806,-0.968126,-1.265839,0.015934,-0.008045967851693859,0.010297442586766544,3.921597644878824
200.50125313283206,0.5733524013317459,0.6090313001506936,-14.989138,-0.974391,-1.237472,0.006005,-0.0102799892942466,0.00815068760681352,3.919241555108387
201.50375939849624,0.57335224704464,0.6090310699417653,-15.002373,-0.982115,-1.223279,0.022147,-0.00773180858633488,0.0079412480965742,3.9175834748656992
202.5062656641604,0.5733520911867379,0.6090308425253637,-15.031775,-0.972615,-1.229581,0.033623,-0.0027925268031909274,0.004956735075663896,3.9172518972144057
203.50877192982455,0.5733519377722965,0.6090306130145672,-15.06223,-0.955985,-1.23746,0.024819,-0.00932005820564972,-0.0002617993877991494,3.917391453741395
204.5112781954887,0.573351787324915,0.6090303812348424,-15.077748,-0.95034,-1.230603,0.005864,-0.00916297857297023,-0.0050789081233034985,3.916902761550837
205.51378446115288,0.5733516367030006,0.609030151200447,-15.074206,-0.952665,-1.20976,-0.010629,-0.008517206749732328,-0.00757472895365539,3.9162918264994686
206.51629072681703,0.573351486255619,0.6090299258784405,-15.059694,-0.951817,-1.188078,-0.014414,-0.0049741883681838385,-0.00710349005561692,3.9159253771697196
207.51879699248119,0.5733513389498301,0.6090297057924219,-15.050066,-0.898222,-1.1589,0.000124,-0.006928957130417489,-0.002076941809873252,3.8753289489551617
208.52130325814534,0.5733511916440414,0.6090294996690372,-15.062021,-0.982968,-1.041722,0.022185,0.11957250705413151,-0.003473205211468716,3.700988044880033
209.52380952380952,0.5733510302010855,0.6090293190274596,-15.077216,-1.142295,-0.814165,0.013734,0.09133307975686326,-0.018884462506578648,3.4811289190063075
210.52631578947367,0.5733508520029689,0.6090291738160659,-15.065653,-1.290283,-0.55911,-0.019592,0.030979594222899347,-0.02473131550075965,3.2911672308593674
211.52882205513782,0.5733506491957099,0.6090290860260045,-15.030063,-1.396312,-0.275267,-0.040695,0.06105161723476165,-0.017523105690023067,3.1241566747360294
212.531328320802,0.5733504203830448,0.6090290654311193,-14.981963,-1.471398,0.01453,-0.045301,0.019024088846738195,-0.010140362954087054,2.979294556260011
213.53383458646616,0.5733501807493385,0.6090291005122374,-14.952673,-1.519987,0.284337,-0.01399,0.019547687622336492,-0.0020594885173533086,2.852758185490422
214.5363408521303,0.5733499376249738,0.6090291830663109,-14.959166,-1.487129,0.500234,0.020058,0.0381354441560761,0.0,2.7422436580014606
215.53884711779446,0.5733497047980516,0.6090292987816402,-14.985182,-1.403953,0.647948,0.028971,0.019792033717615697,-0.001710422666954443,2.6557279487794894
216.54135338345864,0.573349486631895,0.6090294366626512,-15.007086,-1.31775,0.768248,0.018235,0.019216075064457567,-0.002775073510670984,2.5883755358653957
217.5438596491228,0.5733492859190311,0.6090295926950863,-15.016651,-1.240753,0.872172,0.005707,0.02295107966372543,-0.0033161255787892262,2.5387384766584318
218.54636591478695,0.5733490981216035,0.6090297646100177,-15.020631,-1.184806,0.948939,0.006218,0.023858650874762483,-0.0038571776469074684,2.5045299011462956
219.54887218045113,0.5733489169564272,0.6090299501385172,-15.022036,-1.147511,1.000817,-0.000236,0.029530970943744055,-0.005096361415823442,2.480479421133446
220.55137844611528,0.573348739980041,0.6090301443936629,-15.017355,-1.115765,1.0365,-0.006362,0.0291469985083053,-0.005864306286700947,2.4647715625852524
221.55388471177943,0.5733485668433793,0.6090303419649342,-15.011498,-1.085844,1.060405,-0.001671,0.022933626371205492,-0.0055152404363020815,2.4546137463386453
222.55639097744358,0.573348397197376,0.6090305411070019,-15.014998,-1.06678,1.071505,0.01017,0.023963370629882144,-0.004607669225265031,2.4498836946262306
223.55889724310777,0.5733482298203008,0.609030741645333,-15.025597,-1.057948,1.076642,0.010073,0.02633701841259443,-0.005323254218582705,2.4480338725119193
224.56140350877192,0.573348063490423,0.6090309428817957,-15.032077,-1.04925,1.084705,0.003395,0.025167647813758232,-0.006702064327658226,2.450581721607273
225.56390977443607,0.573347897684144,0.6090311437691925,-15.028805,-1.051581,1.080098,-0.006149,0.027838001569309555,-0.007853981633974483,2.4732364269107174
226.56641604010025,0.5733477289108054,0.609031341340464,-15.017675,-1.074035,1.053338,-0.012779,0.03565707661824415,-0.0075223690760955605,2.5164155933523764
227.5689223057644,0.5733475576940057,0.6090315347229451,-15.006438,-1.122221,0.999984,-0.006299,0.04408701690537676,-0.005131268000863329,2.5762280617248074
228.57142857142856,0.5733473767033623,0.6090317171098519,-15.000023,-1.191294,0.925257,-0.003522,0.04392993727269727,-0.0029670597283903604,2.6489909429602063
229.5739348370927,0.57334718384448,0.6090318820434663,-14.99472,-1.266803,0.831902,-0.005153,0.046338491640449446,-0.0009948376736367678,2.730567562385251
230.5764411027569,0.5733469780701612,0.6090320283020575,-14.988542,-1.33857,0.720844,-0.004713,0.05400048705670455,0.0012915436464758037,2.8191605450296535
231.57894736842104,0.5733467604276035,0.6090321503005722,-14.985886,-1.402839,0.586277,0.001358,0.05742133239061344,0.0038746309394274117,2.9134955736466543
232.5814536340852,0.5733465326621361,0.6090322448974177,-14.991809,-1.458528,0.428418,0.01254,0.06016149931624454,0.005550147021341968,3.0114434338152836
233.58395989974937,0.5733462975662859,0.6090323086019354,-15.008416,-1.497241,0.258824,0.022579,0.057875117996131965,0.006161012259539983,3.109967357356826
234.58646616541353,0.5733460575835136,0.609032337748934,-15.033173,-1.520335,0.080814,0.026938,0.056775560567375545,0.0046251225177849735,3.208438537048373
235.58897243107768,0.5733458156808793,0.6090323325129461,-15.056646,-1.524214,-0.099526,0.021611,0.05775294494849237,0.0015533430342749533,3.3055488311622634
236.59147869674183,0.5733455741273109,0.6090322934175708,-15.072491,-1.50768,-0.272552,0.016045,0.054489179247262966,-0.0009075712110370514,3.3998489706475166
237.593984962406,0.573345335889868,0.6090322232553349,-15.082372,-1.471257,-0.43576,0.009662,0.052185344634630454,-0.0032114058236695662,3.490501371996102
238.59649122807016,0.5733451056809397,0.609032122898903,-15.085884,-1.413666,-0.585845,6e-06,0.051557026103912496,-0.005375614096142535,3.5762493108801205
239.59899749373432,0.5733448873402502,0.6090319963625322,-15.081228,-1.342953,-0.718392,-0.005276,0.05321508889330711,-0.005358160803622592,3.6564820965943
240.6015037593985,0.5733446798206021,0.6090318464387495,-15.076064,-1.274244,-0.832155,-0.001834,0.04913101844364037,-0.005323254218582705,3.730780832664869
241.60401002506265,0.5733444834710613,0.609031677316345,-15.081736,-1.207777,-0.93469,0.013949,0.036861353802120245,-0.006754424205218055,3.800070421422336
242.6065162907268,0.5733442981170948,0.6090314891698516,-15.099334,-1.133663,-1.038111,0.017276,0.03600614246864302,-0.011711159280881952,3.864630237720069
243.60902255639095,0.5733441256785646,0.6090312837445986,-15.105952,-1.045248,-1.123715,-0.006204,0.03499385150248631,-0.017348572764823635,3.9217896660031286
244.61152882205513,0.5733439670281356,0.6090310650548434,-15.084981,-0.958931,-1.173261,-0.031247,0.03817035074111599,-0.019250981649497456,3.9702922262897107
245.6140350877193,0.573343821467676,0.6090308376384418,-15.053095,-0.896398,-1.208498,-0.026479,0.031642819338657195,-0.01621410875102732,4.01190091056384
246.61654135338344,0.5733436851574615,0.6090306053351184,-15.036725,-0.853459,-1.255478,-0.008817,0.03146828641345776,-0.014259339988793671,4.048902082692338
247.6190476190476,0.5733435547813663,0.6090303662250108,-15.025311,-0.806545,-1.297564,-0.018023,0.027593655474030348,-0.016510814723866358,4.081888788101738
248.62155388471177,0.5733434301648577,0.6090301187373228,-14.999049,-0.752272,-1.315171,-0.030668,0.032114058236695664,-0.017191493132144145,4.110023495643887
249.62406015037593,0.5733433139259296,0.6090298681080424,-14.974205,-0.70317,-1.332335,-0.013003,0.03834488366631542,-0.012793263417118436,4.134859600712936
250.62656641604008,0.5733432057155159,0.609029614511702,-14.972966,-0.670815,-1.365847,0.007229,0.02956587752878394,-0.00973893722612836,4.154721447600632
251.62907268170426,0.5733431023920242,0.6090293563775057,-14.974525,-0.637796,-1.391191,-0.007511,0.021537362969610025,-0.011239920382843483,4.171249820336773
252.6315789473684,0.5733430046535861,0.6090290937054532,-14.952281,-0.600639,-1.393924,-0.033177,0.025446900494077326,-0.010611601852125523,4.184042856861089
253.63408521303256,0.5733429119766028,0.6090288320805983,-14.913465,-0.576339,-1.384088,-0.036709,0.0322885911618951,-0.005009094953223725,4.193502401780558
254.63659147869672,0.5733428222666793,0.6090285734228031,-14.890511,-0.568417,-1.388841,-0.006082,0.03420845333908886,0.0027052603405912107,4.201025032656042
255.6390977443609,0.5733427327312886,0.6090283123215472,-14.900125,-0.562221,-1.409361,0.020589,0.027104963283471936,0.004694935687864747,4.208233416999703
256.64160401002505,0.5733426442430954,0.6090280473805666,-14.922789,-0.548285,-1.422325,0.02017,0.018081611050661254,0.0016231562043547264,4.215319017430487
257.64411027568923,0.5733425576747646,0.6090277798215923,-14.93675,-0.528988,-1.42314,0.008096,0.021362830044410593,-0.0008726646259971648,4.221689835719409
258.64661654135335,0.5733424747716253,0.6090275119135522,-14.936203,-0.508797,-1.421516,-0.005756,0.027768188399229784,-0.000890117918517108,4.227501380702822
259.64912280701753,0.5733423946610126,0.6090272454017753,-14.925086,-0.50408,-1.418296,-0.012607,0.025097834643678457,0.0015009831567151233,4.231219158902373
260.6516290726817,0.5733423135032023,0.6090269808098607,-14.915688,-0.510228,-1.415856,-0.001434,0.019146261894377795,0.004694935687864747,4.235844002167478
261.65413533834584,0.5733422319963262,0.6090267148216827,-14.925572,-0.506516,-1.425363,0.023084,0.022060961745208326,0.006492624817418906,4.244239350028836
262.65664160401,0.573342151013049,0.6090264469136425,-14.952879,-0.488926,-1.441549,0.028246,0.020210912738094333,0.003979350694547071,4.254379608263168
263.65914786967414,0.5733420726477656,0.6090261767366743,-14.969936,-0.469387,-1.443319,0.005933,0.021048670779051613,-0.0005410520681182421,4.264467663699572
264.6616541353383,0.5733419979476736,0.6090259058615745,-14.964782,-0.458788,-1.431553,-0.0101,0.023631758072003222,-0.0016406094968746698,4.274293919748178
265.6641604010025,0.5733419255165095,0.6090256374299354,-14.957529,-0.448647,-1.431075,0.001607,0.024661502330679878,0.0014486232791552935,4.286232076551575
266.66666666666663,0.5733418548306749,0.6090253700454942,-14.967348,-0.427276,-1.451158,0.01902,0.02256710722828668,0.002897246558310587,4.300805418726094
267.6691729323308,0.5733417881590975,0.6090250979486637,-14.982852,-0.402003,-1.470062,0.009785,0.022846359908605774,-0.00027925268031909274,4.315518317427604
268.671679197995,0.5733417248036456,0.6090248216630432,-14.982407,-0.383755,-1.467173,-0.007992,0.023527038316883565,-0.0028623399732707008,4.328975277199378
269.6741854636591,0.5733416645897864,0.6090245452028896,-14.97251,-0.371046,-1.459691,-0.006703,0.023963370629882144,-0.0013962634015954637,4.342937422523143
270.6766917293233,0.5733416062957893,0.6090242722333946,-14.968962,-0.352645,-1.462584,0.002476,0.022794000031045945,0.0007330382858376184,4.358069776203783
271.6791979949875,0.5733415520160496,0.6090239989148336,-14.975961,-0.320411,-1.47373,0.012889,0.022444934180647077,0.0018500490071139892,4.375086841130483
272.6817042606516,0.5733415029722977,0.6090237219310813,-14.991192,-0.289084,-1.488433,0.016329,0.022305307840487534,0.0012915436464758037,4.391073795279364
273.6842105263158,0.5733414582918689,0.6090234425038682,-15.001835,-0.268168,-1.495244,0.002561,0.019757127132575807,-0.0016755160819145565,4.405612527574816
274.68671679197996,0.5733414171020984,0.6090231622039903,-14.99201,-0.248759,-1.487182,-0.018129,0.025132741228718343,-0.0038571776469074684,4.420325688075714
275.6892230576441,0.573341378530322,0.6090228839985075,-14.973988,-0.227077,-1.478553,-0.010659,0.027209683038591597,-0.0007155849933176752,4.43521303243596
276.69172932330827,0.5733413424020065,0.6090226071892881,-14.978656,-0.213528,-1.489648,0.017859,0.022532200643246795,0.001832595714594046,4.4504324605929835
277.6942355889724,0.5733413087171519,0.6090223286347396,-14.998734,-0.20067,-1.503896,0.016659,0.017208946424664088,-0.001064650843716541,4.4663848048627965
278.69674185463657,0.5733412773012253,0.6090220469385983,-15.005035,-0.169835,-1.503863,-0.003071,0.021746802479849347,-0.00481710873550435,4.484815481763857
279.69924812030075,0.5733412516448855,0.6090217643697924,-14.996597,-0.131089,-1.501264,-0.009002,0.02769837522915001,-0.004241150082346221,4.503368122273046
280.7017543859649,0.5733412319226648,0.609021483022717,-14.988509,-0.107282,-1.504692,-0.005518,0.026668630970473357,-0.002548180707911721,4.519792368666014
281.70426065162906,0.5733412155165699,0.6090212018501745,-14.981143,-0.094254,-1.505818,-0.008505,0.021851522234969004,-0.0019373154697137059,4.535570005477702
282.70676691729324,0.5733412017284688,0.6090209210266978,-14.970595,-0.071965,-1.49926,-0.009366,0.022532200643246795,-0.00012217304763960306,4.55307548334228
283.70927318295736,0.5733411926527566,0.6090206409013529,-14.968357,-0.036968,-1.497523,0.007542,0.02811725424962865,0.0025656340004316645,4.571698443167032
284.71177944862154,0.5733411875913018,0.6090203611250739,-14.983232,-0.006964,-1.508691,0.02109,0.02567379329683659,0.003420845333908886,4.588435871440978
285.7142857142857,0.5733411867186372,0.6090200780326691,-14.999995,0.018125,-1.518245,0.009679,0.020629791758572973,0.00020943951023931956,4.604911779579805
286.71679197994985,0.5733411910819604,0.6090197938930669,-14.99474,0.043269,-1.510429,-0.016406,0.02064724505109292,-0.002949606435870417,4.621212997713799
287.719298245614,0.5733411994595407,0.6090195118478597,-14.973801,0.067084,-1.494187,-0.017529,0.02816961412718848,-0.0012915436464758037,4.636973582658695
288.72180451127815,0.573341210280582,0.6090192322461137,-14.96565,0.091068,-1.494596,0.005126,0.029164451800825247,0.0027925268031909274,4.652210062682511
289.72431077694233,0.5733412252904136,0.6090189531679662,-14.977093,0.115106,-1.502503,0.015266,0.022078415037728265,0.002827433388230814,4.667377305494899
290.7268170426065,0.5733412444890355,0.6090186723444895,-14.990152,0.136408,-1.502751,0.009796,0.021676989309769572,0.00020943951023931956,4.681933072203851
291.72932330827064,0.573341266480184,0.6090183913464801,-14.994393,0.156186,-1.498883,-0.000643,0.023858650874762483,-0.0016929693744344998,4.696593768107434
292.7318295739348,0.5733412928346557,0.6090181105230034,-14.987836,0.188661,-1.492194,-0.008629,0.026145032194875056,-0.0023038346126325153,4.711865399062384
293.734335839599,0.5733413237269834,0.6090178323175206,-14.980083,0.215372,-1.486445,-0.002483,0.028029987787028934,-0.0005061454830783556,4.725583337917209
294.7368421052631,0.573341357586371,0.6090175541120377,-14.979251,0.220384,-1.486298,0.000143,0.023544491609403504,0.0005759586531581288,4.737120156259109
295.7393483709273,0.5733413931910877,0.6090172769537525,-14.973129,0.232185,-1.479642,-0.010546,0.02345722514680379,0.00012217304763960306,4.7514666056308705
296.7418546365915,0.5733414314137983,0.6090170017153296,-14.963362,0.266609,-1.470114,-0.004041,0.031415926535897934,0.0020943951023931952,4.7682397258880185
297.7443609022556,0.573341473999832,0.609016725429709,-14.96965,0.299407,-1.475733,0.01588,0.029845130209103034,0.004380776422505767,4.782603750725347
298.7468671679198,0.5733415223454523,0.6090164491440884,-14.987228,0.31614,-1.483746,0.014179,0.01715658654710426,0.002356194490192345,4.795728347447664
299.74937343358397,0.5733415731345336,0.6090161712876715,-14.988704,0.329397,-1.474064,-0.012441,0.018552849948699723,-0.0011344640137963143,4.810197301479621
300.7518796992481,0.573341625843477,0.6090158962237814,-14.966351,0.349797,-1.450158,-0.026547,0.02829178717482808,-0.0003665191429188092,4.825590896042702
301.7543859649123,0.5733416809958813,0.609015626395879,-14.946506,0.375147,-1.437433,-0.006677,0.031642819338657195,0.005113814708343385,4.840129104739379
302.7568922305764,0.5733417406861417,0.6090153583133058,-14.954093,0.399144,-1.444728,0.018491,0.022602013813326566,0.007557275661135447,4.854232133040364
303.7593984962406,0.5733418047397254,0.6090150884854034,-14.974216,0.42006,-1.453122,0.015451,0.015847589608108514,0.00466002910282486,4.868142354818882
304.76190476190476,0.5733418721094345,0.6090148156904414,-14.978431,0.442892,-1.44601,-0.006176,0.022479840765686966,0.0011519173063162576,4.882942607249453
305.7644110275689,0.573341942969802,0.6090145451644073,-14.963363,0.465458,-1.427962,-0.017694,0.024853488548399253,0.0013962634015954637,4.898126884475341
306.76691729323306,0.5733420171462953,0.6090142793507622,-14.946601,0.487446,-1.413928,-0.012062,0.026371924997634317,0.0048345620280242935,4.912595838507299
307.76942355889724,0.5733420958606446,0.6090140156315123,-14.940784,0.509313,-1.410351,-0.000334,0.026476644752753978,0.008220500776893291,4.92626159201749
308.77192982456137,0.5733421777165866,0.6090137522613281,-14.941964,0.528583,-1.40794,0.001059,0.02214822820780804,0.009128071987930343,4.939700435271628
309.77443609022555,0.5733422621905222,0.6090134899383416,-14.940155,0.54403,-1.398454,-0.003444,0.02076941809873252,0.008918632477691025,4.95333156144946
310.77694235588973,0.573342349282452,0.6090132286625526,-14.93888,0.569086,-1.386036,0.004653,0.02537708732399755,0.010419615634406148,4.968166964811166
311.77944862155385,0.5733424409122376,0.6090129700047575,-14.95157,0.597137,-1.383266,0.020114,0.026092672317315227,0.011571532940722405,4.9818156664545645
312.78195488721803,0.5733425353345503,0.6090127123941599,-14.969708,0.611667,-1.383076,0.012163,0.017034413499464655,0.008499753457212385,4.994468867199211
313.7844611528822,0.5733426322003237,0.6090124549580951,-14.966658,0.618859,-1.367726,-0.014982,0.018256143975860686,0.005585053606381855,5.008187347106103
314.78696741854634,0.5733427315095582,0.6090122015362879,-14.946272,0.637988,-1.345976,-0.017601,0.02684316389567279,0.008045967851693859,5.023458978061054
315.7894736842105,0.5733428329131878,0.6090119510815402,-14.940295,0.667244,-1.337864,0.007726,0.02998475654926258,0.011990411961201045,5.038259771543694
316.79197994987464,0.5733429381565416,0.6090117013249241,-14.95831,0.685165,-1.339559,0.024529,0.02054252529597326,0.012060225131280817,5.051559058270843
317.7944862155388,0.573343046890554,0.6090114512192424,-14.979875,0.695308,-1.337667,0.014935,0.014957471689591405,0.008325220532012952,5.065887932177037
318.796992481203,0.5733431577189615,0.6090112019862252,-14.983788,0.715181,-1.322835,-0.004897,0.021153390534171274,0.005375614096142535,5.08241604311379
319.79949874686713,0.5733432715144288,0.609010955022136,-14.974793,0.741341,-1.303121,-0.008276,0.028012534494508988,0.00614355896702004,5.0992584005823645
320.8020050125313,0.5733433888005545,0.6090107127704358,-14.970584,0.760033,-1.292713,0.001459,0.026930430358272504,0.008220500776893291,5.113971840335942
321.8045112781955,0.5733435106245361,0.6090104729621967,-14.973843,0.778816,-1.286853,0.004654,0.018081611050661254,0.008080874436733746,5.129627496086209
322.8070175438596,0.5733436357646436,0.6090102329794245,-14.976757,0.799904,-1.274326,0.001477,0.022898719786165606,0.0068591439603377154,5.145858935956709
323.8095238095238,0.5733437626500802,0.6090099950910475,-14.974791,0.82011,-1.255707,-0.003798,0.02398082392240209,0.0069638637154573755,5.16266614249415
324.812030075188,0.5733438921535108,0.6090097598206643,-14.971283,0.839087,-1.238727,-0.00072,0.02605776573227534,0.008936085770210968,5.1786711957073726
325.8145363408521,0.5733440254966656,0.6090095283900054,-14.976933,0.856032,-1.233375,0.012971,0.0216071761396898,0.010716321607245184,5.19387306585212
326.8170426065163,0.5733441614578143,0.6090092980065442,-14.990508,0.869705,-1.232294,0.01084,0.01673770752662562,0.008552113334772215,5.209493570671252
327.8195488721804,0.5733442995133581,0.6090090684957475,-14.992024,0.889816,-1.213235,-0.00588,0.020996310901491785,0.005654866776461628,5.227313312520944
328.8220551378446,0.5733444407104946,0.6090088428246752,-14.983537,0.915453,-1.186416,-0.004174,0.027611108766550294,0.006719517620178169,5.244574322117196
329.82456140350877,0.5733445855728225,0.6090086208187945,-14.985338,0.933217,-1.175291,0.008979,0.02415535684760152,0.008779006137531478,5.259776715860719
330.8270676691729,0.5733447332276773,0.609008402478105,-14.992274,0.944526,-1.166235,0.003882,0.01907644872429802,0.0076445421237351634,5.27550214987448
331.8295739348371,0.5733448829769271,0.6090081862318107,-14.992003,0.96136,-1.14684,-0.000183,0.026145032194875056,0.006806784082777886,5.292728532138372
332.83208020050125,0.5733450349951049,0.6090079715563127,-14.998446,0.981261,-1.133384,0.015238,0.025237460983838004,0.007539822368615503,5.309710446133937
333.8345864661654,0.5733451901548755,0.6090077593242755,-15.017239,0.997452,-1.128974,0.018676,0.015044738152191121,0.005340707511102648,5.3259072586720775
334.83709273182956,0.5733453491543703,0.6090075490121007,-15.027374,1.015504,-1.112761,0.00112,0.0187448361664191,0.001117010721276371,5.343430329455514
335.83959899749374,0.5733455105973261,0.6090073432377819,-15.020512,1.033515,-1.084549,-0.011395,0.027209683038591597,-0.00047123889803846896,5.361564317837028
336.84210526315786,0.5733456741346771,0.6090071418267862,-15.010047,1.045993,-1.064442,-0.007523,0.02659881780039358,0.0012740903539558606,5.378127579704917
337.84461152882204,0.573345839766423,0.6090069446045808,-15.006741,1.059684,-1.056168,0.001059,0.02275909344600606,0.0032288591161895096,5.394533727033542
338.8471177944862,0.5733460080161629,0.6090067484295729,-15.009436,1.080567,-1.044692,0.003724,0.021519909677090086,0.0032114058236695662,5.411777684763001
339.84962406015035,0.5733461794074954,0.60900655434896,-15.013569,1.1017,-1.024627,0.005211,0.022794000031045945,0.0021118483949131386,5.429789185937609
340.8521303258145,0.5733463539404207,0.6090063623627423,-15.018924,1.114296,-1.006605,0.005492,0.021310470166850764,0.000890117918517108,5.446980417270366
341.85463659147865,0.5733465298696092,0.609006174041716,-15.020578,1.120358,-0.994896,-0.003558,0.02022836603061428,-5.235987755982989e-05,5.463561254603822
342.85714285714283,0.5733467064969295,0.6090059892113482,-15.010219,1.13706,-0.974773,-0.015344,0.024801128670839424,0.0,5.482078761635169
343.859649122807,0.5733468862658425,0.6090058085697707,-14.994225,1.162681,-0.946939,-0.012234,0.025220007691318064,0.0019722220547535923,5.500422608405942
344.86215538847114,0.5733470700490128,0.609005632640582,-14.989697,1.176092,-0.928758,0.003351,0.020210912738094333,0.004014257279586958,5.516305174412261
345.8646616541353,0.5733472562756439,0.6090054605511178,-14.997917,1.179958,-0.91872,0.011117,0.01802925117310142,0.004241150082346221,5.532170147499719
346.8671679197995,0.5733474432004069,0.609005289857917,-15.008672,1.193531,-0.905857,0.010004,0.022846359908605774,0.0037524578917878084,5.549885501206849
347.8696741854636,0.5733476325686306,0.6090051217827099,-15.015367,1.216144,-0.889995,0.00373,0.021432643214490368,0.002408554367752175,5.568106843317425
348.8721804511278,0.5733478250784472,0.6090049568490956,-15.010921,1.230565,-0.86884,-0.011192,0.018430676901060122,0.0002443460952792061,5.585821655972488
349.874686716792,0.5733480193335929,0.6090047971514692,-14.992894,1.234681,-0.835587,-0.02065,0.024294983187761066,0.00013962634015954637,5.603589212477544
350.8771929824561,0.5733482149850021,0.6090046439115608,-14.978819,1.243512,-0.80533,-0.003353,0.02988003679414292,0.004363323129985824,5.620274437953563
351.8796992481203,0.573348411334543,0.6090044952095085,-14.990746,1.264209,-0.799985,0.024713,0.023090706003884978,0.006702064327658226,5.635057655970635
352.88220551378447,0.573348611872874,0.6090043456347917,-15.017055,1.284627,-0.804871,0.022803,0.011222467090323538,0.002408554367752175,5.650607841474204
353.8847117794486,0.5733488148546659,0.6090041964091406,-15.024676,1.290502,-0.790278,-0.00737,0.015969762655748117,-0.0037000980142279784,5.6690566348928995
354.8872180451128,0.5733490185345897,0.6090040503250822,-15.004151,1.286959,-0.751959,-0.027225,0.025778513051956248,-0.004258603374866164,5.6889355336473875
355.8897243107769,0.5733492215163817,0.6090039112223409,-14.978436,1.296313,-0.716059,-0.018725,0.03429571980168858,0.0009250245035569946,5.707139300292396
356.8922305764411,0.573349426243503,0.6090037804971798,-14.969096,1.32028,-0.696488,-2.8e-05,0.026494098045273924,0.005061454830783556,5.722899885237292
357.89473684210526,0.5733496349848815,0.6090036536117432,-14.976233,1.342723,-0.685514,0.012045,0.015254177662430441,0.0048520153205442364,5.737839694194854
358.8972431077694,0.5733498477405172,0.6090035267263065,-14.989551,1.347422,-0.679192,0.012071,0.013596114873035827,0.0019373154697137059,5.753844223809301
359.89974937343356,0.5733500611942849,0.6090033996663371,-14.993649,1.339957,-0.665516,-0.005414,0.01984439359517553,-0.00027925268031909274,5.772170495114507
360.90225563909775,0.5733502727281902,0.6090032764460919,-14.977214,1.343969,-0.634229,-0.023726,0.028483773392547457,0.0011344640137963143,5.79161316627575
361.90476190476187,0.5733504856583589,0.6090031598580978,-14.952407,1.366319,-0.598427,-0.019173,0.031171580440618726,0.005480333851262195,5.809293369051746
362.90726817042605,0.5733507012065215,0.6090030492042232,-14.943599,1.386464,-0.581024,0.002705,0.022776546738526,0.008709192967451705,5.824757282930388
363.90977443609023,0.5733509207689413,0.6090029420410071,-14.951502,1.389329,-0.580217,0.007566,0.014224433403753785,0.008447393579652554,5.840534902288784
364.91228070175436,0.5733511408549602,0.609002835226857,-14.949587,1.385999,-0.564416,-0.012452,0.01783726495538205,0.008011061266653973,5.858773837318221
365.91478696741854,0.5733513593701824,0.6090027312052335,-14.930079,1.396191,-0.521558,-0.02119,0.029269171555944908,0.010524335389525807,5.878112120336903
366.91729323308266,0.5733515801543327,0.6090026355611905,-14.918793,1.412626,-0.488294,0.00208,0.02665117767795341,0.014974924982111348,5.894273764490616
367.91979949874684,0.57335180373101,0.6090025446295365,-14.933656,1.419448,-0.487135,0.022642,0.014468779499032991,0.015760323145508796,5.909160847051473
368.922305764411,0.5733520288784835,0.6090024556177447,-14.951291,1.418125,-0.489502,0.008527,0.01244419756671957,0.013351768777756621,5.926806422495108
369.92481203007515,0.5733522524551607,0.6090023652096893,-14.945718,1.423817,-0.461381,-0.016484,0.023911010752322315,0.011885692206081384,5.94719185070511
370.9273182957393,0.5733524774281014,0.6090022802121549,-14.926733,1.436075,-0.414545,-0.01503,0.03061307507998054,0.014049900478554353,5.967071273058373
371.9298245614035,0.573352704320904,0.6090022044648653,-14.922948,1.443452,-0.383018,0.008592,0.02415535684760152,0.01741838593490341,5.984122965317432
372.93233082706763,0.5733529320863714,0.6090021344771622,-14.942182,1.446614,-0.377401,0.024604,0.016283921921107097,0.017976891295541596,6.000162663316308
373.9348370927318,0.5733531603754376,0.6090020660602556,-14.964378,1.455768,-0.378282,0.015383,0.016388641676226754,0.014870205226991687,6.017877475971371
374.937343358396,0.5733533914570306,0.6090019957234868,-14.969694,1.468428,-0.358871,-0.003385,0.023823744289722597,0.011990411961201045,6.03835078150921
375.9398496240601,0.5733536241094199,0.6090019288773764,-14.96145,1.480316,-0.32031,-0.008657,0.02946115777366428,0.011972958668681102,6.059433974900866
376.9423558897243,0.5733538586816713,0.6090018711069781,-14.958667,1.491052,-0.283005,0.005807,0.026145032194875056,0.013805554383275147,6.078685427789262
377.9448621553885,0.5733540955228508,0.6090018204924299,-14.974272,1.501101,-0.265444,0.022876,0.024905848425959082,0.01403244718603441,6.09612060379157
378.9473684210526,0.573354333062162,0.6090017726704084,-14.998264,1.511039,-0.260052,0.020121,0.021624629432209747,0.011397000015522973,6.114080443220319
379.9498746867168,0.5733545728704013,0.6090017253719856,-15.008086,1.5235,-0.247077,-0.003215,0.023474678439323732,0.008325220532012952,6.134099422100571
380.9523809523809,0.5733548142494368,0.609001679993425,-14.995058,1.538582,-0.213481,-0.020549,0.02946115777366428,0.007557275661135447,6.154973280701743
381.9548872180451,0.5733550582464663,0.6090016407235169,-14.977013,1.550607,-0.173807,-0.011496,0.028797932657906436,0.009599310885968814,6.175079613311057
