Time [s],Longitude [rad],Latitude [rad],Altitude [m],V North [m/s],V East [m/s],V Down [m/s],Roll [rad],Pitch [rad],Yaw [rad]
0.0,0.6096736261703892,0.5734651002086069,-10.775089,-2.067389,0.174624,-0.037936,-0.0005934119456780719,0.010925761117484667,3.108134831455402
1.0025062656641603,0.609673659680711,0.5734647794170904,-10.738838,-2.059546,0.178457,-0.03214,-0.004153883619746504,0.010437068926926196,3.119845816203359
2.0050125313283207,0.6096736935400984,0.5734644601963702,-10.715885,-2.057283,0.161658,-0.015391,0.0008552113334772215,0.008482300164692536,3.1344716229751937
3.007518796992481,0.6096737211163006,0.573464141150183,-10.706233,-2.066299,0.109172,-0.01129,0.004642575810304919,0.007330382858376172,-3.1307541240283236
4.010025062656641,0.6096737385695931,0.5734638194860018,-10.678985,-2.071294,0.058205,-0.043328,0.013020156219877696,0.007086036763096937,-3.1138244128306862
5.012531328320802,0.6096737472962394,0.5734634962510243,-10.623218,-2.07034,0.045259,-0.061097,0.00682423737529783,0.003577924966588375,-3.1010835791042974
6.015037593984962,0.6096737544520894,0.5734631730160469,-10.570864,-2.059202,0.054222,-0.035689,-0.002722713633111154,0.00022689280275933754,-3.0900706038840906
7.017543859649122,0.6096737607352747,0.5734628532717279,-10.565763,-2.046503,0.030251,0.025195,0.012217304763960306,-0.006091199089460098,-3.0787782712638103
8.020050125313283,0.6096737628296697,0.5734625354472711,-10.608986,-2.04915,-0.037575,0.047774,0.014468779499032991,-0.01038470904936628,-3.067067286515853
9.022556390977442,0.6096737516595625,0.5734622165756168,-10.643324,-2.057064,-0.083806,0.014682,0.005934119456780721,-0.010594148559605499,-3.061621649810121
10.025062656641603,0.6096737322864078,0.5734618961331661,-10.632156,-2.056833,-0.072053,-0.02623,0.0022689280275926286,-0.008953539062730886,-3.0640999998946605
11.027568922305765,0.6096737179747079,0.5734615760397812,-10.603238,-2.056397,-0.034238,-0.019879,0.005393067388662479,-0.009546951008408966,-3.06886492328553
12.030075187969924,0.6096737116915226,0.573461254899199,-10.596615,-2.056392,-0.018406,0.009494,0.0028274333882308145,-0.010419615634406076,-3.0709765447876403
13.032581453634084,0.6096737087244629,0.5734609323623532,-10.620914,-2.058125,-0.026131,0.035206,0.007347836150896128,-0.010786134777324818,-3.07108147398227
14.035087719298245,0.6096737029648763,0.5734606110472378,-10.661548,-2.062837,-0.043654,0.039133,0.005340707511102647,-0.008988445647770682,-3.0714127723808837
15.037593984962406,0.6096736916202363,0.5734602895575897,-10.691954,-2.060744,-0.053276,0.019198,0.0038222710618675817,-0.005218534463462987,-3.075304978785879
16.040100250626566,0.6096736790538656,0.5734599671952768,-10.695365,-2.054071,-0.04636,-0.012506,0.005131268000863328,-0.0012391837689158525,-3.0821817854782467
17.042606516290725,0.6096736691054889,0.5734596479745566,-10.670823,-2.048343,-0.012966,-0.029425,0.006021385919380437,0.0008726646259973325,-3.0904543668800195
18.045112781954884,0.6096736666620279,0.5734593282302376,-10.64589,-2.058441,0.015492,-0.015133,0.0014835298641951802,0.0006283185307180972,-3.0957953361905095
19.047619047619047,0.6096736671856267,0.573459007787787,-10.641478,-2.072165,0.011737,0.005893,0.0010646508437165412,-8.726646259971105e-05,-3.0972265236304377
20.050125313283207,0.6096736684073571,0.5734586849018753,-10.643428,-2.074774,-0.001351,-0.007459,0.005951572749300665,0.001745329251994443,-3.0989019175393047
21.052631578947366,0.6096736677092255,0.5734583607942332,-10.627099,-2.060368,0.011883,-0.022745,0.0005235987755982988,0.002199114857512896,-3.103335018932785
22.05513784461153,0.6096736694545547,0.5734580389555192,-10.607635,-2.046289,0.036651,-0.012083,0.00022689280275926284,-0.00024434609527923534,-3.106825625076896
23.05764411027569,0.6096736764358718,0.5734577207819965,-10.605637,-2.047953,0.039211,0.00544,0.009494591130849153,-0.0037000980142278816,-3.1049233209119778
24.06015037593985,0.6096736834171887,0.5734574022594081,-10.61278,-2.059777,0.022044,0.005267,0.007714355293814936,-0.005253441048502783,-3.100420179455615
25.062656641604008,0.6096736865587814,0.5734570805952269,-10.616152,-2.068026,0.006582,0.000522,0.0028972465583105875,-0.0056374134839416445,-3.097470730099377
26.065162907268167,0.6096736858606496,0.5734567557894531,-10.613294,-2.06725,-0.000781,-0.0053,0.0039269908169872435,-0.005009094953223769,-3.09638869577631
27.06766917293233,0.6096736844643862,0.5734564334271403,-10.604094,-2.054837,0.00821,-0.009601,0.0005585053606381855,-0.005131268000863276,-3.097941846824368
28.07017543859649,0.6096736856861168,0.5734561140318871,-10.601252,-2.045635,0.025095,0.007989,0.004991641660703782,-0.00773180858633471,-3.0994779634589253
29.07268170426065,0.6096736890022423,0.5734557956838316,-10.623626,-2.051024,0.020472,0.035258,0.0007853981633974481,-0.010506882097005787,-3.097610286626366
30.075187969924812,0.6096736921438349,0.5734554766376444,-10.660575,-2.06526,-0.00584,0.029058,0.00640535835481919,-0.010646508437165414,-3.0947130226147634
31.07769423558897,0.609673691969302,0.5734551541007986,-10.670613,-2.06738,-0.008726,-0.009756,0.005393067388662479,-0.008726646259971549,-3.094835265475573
32.08020050125313,0.609673689700374,0.5734548306912882,-10.644892,-2.061369,0.021668,-0.030851,-0.003560471674068432,-0.00715584993317675,-3.0965282348500076
33.08270676691729,0.6096736954599605,0.5734545100743046,-10.625714,-2.054662,0.044062,-0.000251,0.0003141592653589792,-0.007784168463894625,-3.0957079824614477
34.08521303258145,0.6096737040120739,0.5734541913771831,-10.650726,-2.055766,0.015878,0.042922,0.005166174585903215,-0.008918632477690869,-3.0911702311260174
35.08771929824561,0.6096737048847386,0.5734538716328642,-10.696466,-2.055946,-0.032299,0.03852,0.00720820981073658,-0.008569566627292025,-3.0868069079960314
36.09022556390977,0.609673694761829,0.5734535520630781,-10.715149,-2.047113,-0.044898,-0.001643,0.004939281783143952,-0.0071034900556168346,-3.0876620495163385
37.092731829573935,0.6096736830681229,0.5734532337150225,-10.699828,-2.044012,-0.020569,-0.020042,0.0042935099599060505,-0.00813323431429347,-3.091780886924705
38.095238095238095,0.6096736773085364,0.5734529143197694,-10.684242,-2.060527,0.006975,-0.007383,-0.0013264502315156906,-0.00989601685880781,-3.095306382200564
39.097744360902254,0.6096736802755961,0.5734525926555883,-10.686674,-2.073503,0.021686,0.010022,0.004799655442984408,-0.009564404300928864,-3.0975929729601868
40.100250626566414,0.6096736846389191,0.5734522680243475,-10.702311,-2.066881,0.016423,0.018017,-0.0038222710618675813,-0.007592182246175305,-3.0983956498831784
41.10275689223057,0.609673687605979,0.5734519461856333,-10.722018,-2.05228,0.002631,0.019557,0.006335545184739417,-0.007644542123734999,-3.0986225426859377
42.10526315789473,0.6096736855115839,0.5734516269649131,-10.743366,-2.048277,-0.007338,0.022367,0.008569566627292156,-0.01008800307652713,-3.0990414566130013
43.10776942355889,0.6096736801010632,0.5734513082677918,-10.76382,-2.061449,-0.018235,0.015419,0.0002443460952792061,-0.01068141502220521,-3.0997048562616847
44.11027568922306,0.609673673643345,0.5734509866036106,-10.765826,-2.071318,-0.007381,-0.012071,0.0023387411976724015,-0.007190756518216546,-3.1029685696030365
45.11278195488722,0.6096736729452132,0.5734506631941002,-10.743466,-2.065611,0.03622,-0.025535,-0.000296705972839036,-0.003403392041388953,-3.1071571852748976
46.11528822055138,0.6096736813227935,0.5734503417044521,-10.728624,-2.054632,0.072255,0.002658,-0.002705260340591211,-0.0028099800957108734,-3.1080650531919076
47.11779448621554,0.6096736935400984,0.5734500230073306,-10.755054,-2.052482,0.048225,0.043295,0.003560471674068432,-0.0031241393610697,-3.102619416486175
48.1203007518797,0.6096737008704812,0.5734497039611434,-10.80161,-2.056039,-0.012572,0.0382,0.011135200627723819,-0.0025132741228717226,-3.097522932897304
49.122807017543856,0.6096736949363617,0.5734493836932256,-10.812875,-2.053994,-0.0402,-0.01957,0.005445427266222309,-0.0005585053606380619,-3.0975405083628718
50.125313283208015,0.6096736837662546,0.5734490623781103,-10.766129,-2.051409,0.00053,-0.061551,-0.002879793265790644,3.4906585040017646e-05,-3.1013802501705516
51.127819548872175,0.6096736807991949,0.5734487417611267,-10.708363,-2.059804,0.056519,-0.039792,-0.0014835298641951804,-0.001640609496874612,-3.1020958526171616
52.130325814536334,0.6096736910966375,0.5734484211441432,-10.698591,-2.070016,0.057699,0.020769,-0.00022689280275926284,-0.003473205211468766,-3.097453154633809
53.1328320802005,0.6096737005214155,0.5734480977346328,-10.739743,-2.070233,0.003683,0.048071,0.0032637657012293962,-0.004223696789826148,-3.0918855543199473
54.13533834586466,0.6096736984270203,0.5734477741505895,-10.775792,-2.056867,-0.0387,0.014829,0.007609635538695276,-0.002478367537831927,-3.090943059070578
55.13784461152882,0.6096736886531765,0.5734474535336058,-10.765201,-2.042075,-0.027719,-0.02942,0.00043633231299858234,-0.0009948376736366171,-3.0946608372701285
56.14035087719298,0.6096736794029315,0.5734471364072807,-10.729123,-2.046521,0.0083,-0.03414,-0.002408554367752175,-0.001099557428756448,-3.098256093356189
57.14285714285714,0.609673680624662,0.5734468170120276,-10.704268,-2.063398,0.03155,-0.014546,0.004468042885105484,-0.0006632251157578928,-3.0984654281466733
58.1453634085213,0.6096736879550448,0.5734464937770501,-10.700676,-2.070955,0.029522,0.004269,-0.002949606435870417,0.0008901179185172303,-3.097174059033123
59.14786967418546,0.6096736916202363,0.5734461689712764,-10.708206,-2.066229,0.005341,0.004399,-0.0006806784082777885,0.0029146998508304822,-3.0960046535277015
60.150375939849624,0.6096736895258411,0.5734458464344306,-10.703848,-2.056245,-0.010649,-0.015912,0.005497787143782138,0.0054628805587422224,-3.095515978790436
61.152882205513784,0.6096736841153205,0.5734455277373093,-10.679586,-2.047216,-0.001933,-0.028783,0.006457718232379018,0.006510078109938977,-3.0964059919891977
62.15538847117794,0.6096736788793327,0.5734452092147206,-10.653621,-2.04676,0.011847,-0.022014,0.0061959188445798695,0.005724679946541356,-3.0972787264283648
63.1578947368421,0.6096736797519974,0.5734448899940005,-10.636463,-2.053779,0.01265,-0.013287,-0.0003141592653589792,0.004921828490624058,-3.097418265502062
64.16040100250626,0.609673680450129,0.5734445683298194,-10.620701,-2.064225,-0.002032,-0.019932,0.00322885911618951,0.004886921905584263,-3.0960920072567637
65.16290726817043,0.6096736774830693,0.5734442450948418,-10.588116,-2.070699,-0.005275,-0.046967,0.0024609142453120045,0.006510078109938977,-3.0972265236304377
66.16541353383458,0.6096736778321351,0.5734439223834632,-10.53782,-2.057759,0.022993,-0.044041,-0.01007054978400728,0.0054628805587422224,-3.1007344434407287
67.16791979949875,0.609673680450129,0.573443600719282,-10.51357,-2.047009,0.031751,-0.003017,0.0076619954162551055,0.0013962634015955988,-3.1008742443138138
68.1704260651629,0.6096736820209253,0.5734432813240289,-10.525149,-2.053078,0.00346,0.015692,0.007557275661135449,-0.0017104226669544254,-3.0975753974946185
69.17293233082707,0.6096736807991949,0.5734429600089137,-10.528322,-2.062747,-0.010704,-0.015404,-0.00013962634015954634,-0.002303834612632505,-3.0964235849080577
70.17543859649122,0.6096736788793327,0.5734426367739361,-10.497598,-2.061415,0.017943,-0.036088,-0.004468042885105485,-0.0027227136331111623,-3.099338406931936
71.17794486215539,0.6096736801010632,0.5734423156333539,-10.467077,-2.054835,0.032997,-0.017658,0.0005585053606381856,-0.004502949470145401,-3.100856668848246
72.18045112781954,0.6096736835917217,0.5734419976343641,-10.464487,-2.049256,0.01482,0.012015,0.006318091892219473,-0.0076619954162551185,-3.100036416459686
73.1829573934837,0.6096736828935899,0.5734416785881769,-10.482234,-2.055796,-0.00584,0.015959,0.0037699111843077513,-0.00949459113084905,-3.098064351484565
74.18546365914787,0.609673680624662,0.5734413584947919,-10.487952,-2.063639,0.006612,-0.005443,-0.0019896753472735357,-0.009983283321407521,-3.0990590495318617
75.18796992481202,0.6096736816718594,0.5734410349107487,-10.4779,-2.058232,0.044519,-0.006353,-0.005131268000863329,-0.010559241974565703,-3.101205542712427
76.19047619047619,0.609673687431446,0.5734407132465676,-10.487479,-2.046587,0.041162,0.027108,0.004869468613064181,-0.013072516097437425,-3.0988843420737373
77.19298245614034,0.6096736910966375,0.5734403952475778,-10.524179,-2.048141,-0.006144,0.037897,0.008220500776893291,-0.015620696805349166,-3.0949226192046355
78.19548872180451,0.6096736869078473,0.5734400765504565,-10.547212,-2.057008,-0.024148,0.008588,0.002007128639793479,-0.015742869852988672,-3.0946083726728135
79.19799498746866,0.6096736792283985,0.57343975575894,-10.542977,-2.065774,0.008905,-0.008932,-0.0008377580409572781,-0.013561208287995896,-3.09731359810682
80.20050125313283,0.6096736795774644,0.5734394333966271,-10.539304,-2.061873,0.045841,0.00826,-0.003385938748869,-0.011990411961201097,-3.0981338679486723
81.203007518797,0.6096736888277093,0.5734391110343142,-10.564449,-2.047747,0.043126,0.038705,0.002321287905152459,-0.012932889757278021,-3.0963711203107427
82.20551378446115,0.6096736958090264,0.5734387930353245,-10.609174,-2.039852,0.010293,0.043747,0.005864306286700948,-0.01490511181203158,-3.092199800851769
83.20802005012531,0.6096736952854276,0.5734384759089993,-10.643511,-2.046275,-0.01446,0.023879,0.006632251157578452,-0.015725416560468775,-3.0896341144914596
84.21052631578947,0.609673687605979,0.5734381565137464,-10.651873,-2.058323,-0.018029,-0.002406,0.005235987755982988,-0.014852751934471664,-3.089442372619836
85.21303258145363,0.6096736811482608,0.5734378325806372,-10.643209,-2.06342,-0.00235,-0.007502,-0.0034906585039886583,-0.014451326206512904,-3.091623754932148
86.21553884711778,0.609673680624662,0.5734375103928573,-10.643624,-2.058503,0.015477,0.013421,-0.0012740903539558606,-0.015341444125030135,-3.0943638869511942
87.21804511278195,0.6096736834171887,0.5734371885541432,-10.672853,-2.051635,0.011811,0.041744,0.006754424205218057,-0.016999506914424645,-3.093962810289086
88.22055137844612,0.6096736830681229,0.5734368689843572,-10.717286,-2.050295,-0.00813,0.040745,0.002408554367752175,-0.01822123739082082,-3.0924616002395684
89.22305764411027,0.6096736795774644,0.5734365499381698,-10.748582,-2.052675,-0.006795,0.023754,0.0008377580409572786,-0.019250981649497456,-3.093316741759875
90.22556390977444,0.6096736774830693,0.573436229844785,-10.766677,-2.054103,0.012476,0.018752,0.0006806784082777884,-0.018989182261698323,-3.0958478007878245
91.22807017543859,0.609673678181201,0.5734359090532685,-10.789086,-2.051289,0.020252,0.028836,0.0007679448708775048,-0.017680185322702435,-3.0964235849080577
92.23057644110276,0.6096736794029315,0.5734355887853508,-10.823308,-2.05012,0.007639,0.041451,0.003159045946109736,-0.017034413499464662,-3.095550867922183
93.23308270676691,0.6096736802755961,0.573435268517433,-10.86343,-2.053696,-0.005566,0.03699,0.003996803987067015,-0.014974924982111393,-3.0954462005269407
94.23558897243107,0.609673678006668,0.573434946678719,-10.891603,-2.05654,-0.002482,0.021596,-0.0033510321638291125,-0.012880529879718106,-3.097941846824368
95.23809523809523,0.60967367573774,0.5734346239673402,-10.901956,-2.054998,0.015356,0.003257,0.0024434609527920616,-0.010663961729685312,-3.1007344434407287
96.2406015037594,0.6096736774830693,0.5734343036994225,-10.904165,-2.047828,0.031213,0.007635,0.001553343034274953,-0.010035643198967437,-3.1023403208854883
97.24310776942356,0.6096736821954583,0.5734339843041694,-10.920262,-2.049335,0.019566,0.023643,0.004363323129985824,-0.009843656981247895,-3.101572271294856
98.24561403508771,0.6096736827190571,0.5734336645598506,-10.9429,-2.057302,-0.002809,0.01735,0.001815142422074103,-0.00822050077689318,-3.0997048562616847
99.24812030075188,0.6096736814973265,0.5734333432447352,-10.947041,-2.062067,0.006062,-0.007207,-0.0009773843811168243,-0.0054628805587422224,-3.100088619257613
100.25062656641603,0.6096736814973265,0.5734330205333564,-10.936004,-2.05597,0.035709,-0.007233,-0.0031590459461097358,-0.003193952531149513,-3.1016071604266036
101.2531328320802,0.6096736877805119,0.5734327006145046,-10.941515,-2.046799,0.035694,0.020369,-0.0002094395102393196,-0.0028972465583105844,-3.100420179455615
102.25563909774435,0.6096736917947692,0.5734323815683173,-10.967982,-2.047272,0.001352,0.024502,0.011431906600562857,-0.0025481807079117402,-3.097156483567555
103.25814536340852,0.6096736900494399,0.5734320607768009,-10.976338,-2.051906,-0.013487,-0.011865,5.235987755982988e-05,5.2359877559915446e-05,-3.0959870780621337
104.26065162907267,0.6096736863842485,0.5734317403343501,-10.952227,-2.054287,0.006741,-0.028112,-0.002897246558310586,0.0019722220547535585,-3.0980465142196096
105.26315789473684,0.6096736860351826,0.5734314195428336,-10.928663,-2.060729,0.015879,-0.018298,-0.0016755160819145565,0.004485496177625503,-3.0983261334190715
106.265664160401,0.609673687431446,0.5734310970059879,-10.914661,-2.057504,0.00845,-0.011172,-0.0017278759594743863,0.007138396640656852,-3.097767401165631
107.26817042606515,0.6096736891767752,0.5734307751672737,-10.900239,-2.053948,-0.000477,-0.020675,0.005916666164260777,0.008325220532013011,-3.096894684179756
108.27067669172932,0.6096736881295777,0.5734304545502902,-10.871544,-2.050364,0.005424,-0.033824,0.005323254218582705,0.009372418083209544,-3.097261133509505
109.27318295739347,0.6096736870823802,0.5734301339333066,-10.840826,-2.050895,0.006648,-0.024172,-0.003385938748869,0.00923279174305014,-3.0975929729601868
110.27568922305764,0.6096736860351826,0.5734298126181914,-10.823477,-2.057997,-0.008607,-0.013308,0.0009773843811168243,0.009372418083209544,-3.0966329022452492
111.27819548872179,0.6096736820209253,0.5734294918266748,-10.805824,-2.05854,-0.013028,-0.02413,0.0028274333882308145,0.010995574287564258,-3.0976454375575013
112.28070175438596,0.6096736790538656,0.5734291705115595,-10.775275,-2.049382,0.001199,-0.033911,-0.0023387411976724007,0.01117010721276368,-3.1005773114481716
113.28320802005013,0.6096736771340034,0.5734288504181747,-10.746516,-2.045599,0.012532,-0.020048,0.00010471975511965982,0.00930260491312973,-3.1035270226037968
114.28571428571428,0.6096736764358718,0.573428529975724,-10.730725,-2.057602,0.00207,-0.016565,0.003735004599267865,0.00891863247769109,-3.1043824259234922
115.28822055137844,0.6096736748650754,0.5734282074388782,-10.702505,-2.068143,-0.007478,-0.040543,-0.005410520681182421,0.010210176124166859,-3.105638905905295
116.2907268170426,0.6096736724216144,0.5734278838548349,-10.646639,-2.065749,0.016676,-0.065192,-0.005864306286700947,0.011711159280882066,-3.1088155273169726
117.29323308270676,0.609673675912273,0.5734275609689233,-10.587539,-2.051299,0.057156,-0.042779,-0.0018325957145940463,0.010716321607245227,-3.1108573705555886
118.29573934837092,0.6096736872569132,0.5734272403519397,-10.573821,-2.045356,0.053585,0.01217,0.0009948376736367678,0.006894050545377617,-3.107506320938467
119.29824561403508,0.6096736938891643,0.5734269209566866,-10.598404,-2.048039,0.003956,0.024638,0.007819075048934596,0.003473205211468766,-3.101676921236806
120.30075187969925,0.6096736905730387,0.5734266008633018,-10.606564,-2.055917,-0.029213,-0.014211,0.008307767239493008,0.0021642082724731004,-3.100088619257613
121.3032581453634,0.6096736820209253,0.5734262779773902,-10.568131,-2.057947,-0.014327,-0.05148,-0.006108652381980153,0.0019547687622336607,-3.1033874835301
122.30576441102757,0.6096736769594705,0.5734259557896103,-10.514144,-2.054415,0.022611,-0.043539,-0.004660029102824858,-0.0008377580409573149,-3.1068429212897835
123.30827067669172,0.6096736802755961,0.5734256349980937,-10.48867,-2.04913,0.045034,-0.002299,-0.00317649923862968,-0.005759586531581151,-3.105865816161347
124.31077694235589,0.6096736900494399,0.5734253138575114,-10.510427,-2.049598,0.037001,0.04253,0.004712388980384691,-0.011239920382843493,-3.1014851793651816
125.31328320802004,0.6096736942382301,0.573424992542396,-10.558186,-2.053478,-0.003459,0.045306,0.00567232006898157,-0.014625859131712327,-3.096720255974312
126.3157894736842,0.6096736902239729,0.5734246710527479,-10.582824,-2.050782,-0.033357,0.005535,0.0025481807079117216,-0.015271630954950322,-3.0959870780621337
127.31829573934836,0.6096736823699912,0.5734243492140338,-10.570828,-2.051871,-0.012973,-0.017453,-0.0025830872929516074,-0.015254177662430424,-3.099146124008244
128.32080200501252,0.6096736801010632,0.5734240278989184,-10.562186,-2.057943,0.023293,0.012465,-0.003438298626428829,-0.016790067404185427,-3.1013802501705516
129.32330827067668,0.6096736835917217,0.5734237055366056,-10.598619,-2.062589,0.013886,0.05782,-0.0005061454830783556,-0.01939060798965686,-3.1003504011921197
130.32581453634086,0.609673684987985,0.5734233819525624,-10.661705,-2.057316,-0.017871,0.058573,0.0038222710618675813,-0.020315632493213887,-3.099128810342064
131.328320802005,0.6096736816718594,0.5734230594157166,-10.707423,-2.04755,-0.013854,0.035216,0.0022514747350726853,-0.020350539078253904,-3.101781588632048
132.33082706766916,0.6096736762613388,0.5734227389732659,-10.736686,-2.045115,0.010542,0.028924,-0.0034906585039886596,-0.02010619298297467,-3.1056564988241555
133.33333333333331,0.609673675912273,0.5734224204506775,-10.763517,-2.045064,0.017033,0.027816,-5.421926498478528e-20,-0.018378317023500124,-3.107279689935095
134.3358395989975,0.6096736787047997,0.5734221008808914,-10.787663,-2.048205,0.013644,0.023236,0.0013439035240356337,-0.016632987771505903,-3.1075936746675286
135.33834586466165,0.6096736794029315,0.5734217809620394,-10.807468,-2.056766,0.01085,0.01796,-0.000820304748437335,-0.014329153158873398,-3.1067734222789696
136.3408521303258,0.6096736816718594,0.5734214585997266,-10.824155,-2.065221,0.018106,0.017484,-0.0016929693744344996,-0.011344640137963102,-3.10569137050261
137.34335839598998,0.6096736842898535,0.5734211343175517,-10.836551,-2.06182,0.024743,0.008813,-0.0027925268031909274,-0.00694641042293731,-3.105534255963346
138.34586466165413,0.6096736869078473,0.5734208110825741,-10.845337,-2.046216,0.019547,0.010866,0.0032463124087094533,-0.004241150082346268,-3.1045917607139764
139.34837092731829,0.6096736881295777,0.5734204897674589,-10.858862,-2.040029,-0.004703,0.014749,0.0041713369122664485,-0.004031710572106828,-3.103352594398353
140.35087719298244,0.6096736853370509,0.5734201681032777,-10.865308,-2.047928,-0.018545,-0.005669,0.002949606435870418,-0.002391101075232216,-3.1035094471382294
141.35338345864662,0.6096736813227935,0.5734198464390966,-10.844698,-2.05512,0.005794,-0.028943,-0.0017802358370342163,-0.00024434609527923534,-3.1063718220180854
142.35588972431077,0.6096736818463924,0.573419523378652,-10.813119,-2.063513,0.037503,-0.028523,-0.0028274333882308145,0.0010471975511967546,-3.1069478504844135
143.35839598997492,0.6096736893513082,0.5734192006672734,-10.79145,-2.060163,0.045053,-0.010148,-0.0011519173063162579,0.0023212879051526247,-3.104853542648483
144.36090225563908,0.6096736977288887,0.5734188774322958,-10.789934,-2.054047,0.017688,0.002784,0.00486946861306418,0.002216568150032794,-3.100856668848246
145.36340852130326,0.6096737003468825,0.5734185562917136,-10.789341,-2.046267,-0.003849,-0.007125,0.0004537856055185257,0.0023387411976725225,-3.097750104952744
146.3659147869674,0.6096736972052899,0.5734182363728616,-10.778424,-2.043036,-0.004303,-0.013175,-0.0007330382858376183,0.0016231562043547143,-3.0978720685608727
147.36842105263156,0.6096736921438349,0.5734179162794768,-10.765062,-2.045177,-0.009911,-0.012492,0.004014257279586959,-0.0002268928027591155,-3.0980989788169246
148.37092731829574,0.6096736879550448,0.5734175949643615,-10.744724,-2.055683,-0.010709,-0.028047,0.001954768762233649,-0.0010471975511965326,-3.0984654281466733
149.3734335839599,0.6096736860351826,0.5734172706821864,-10.708343,-2.064856,0.015773,-0.037602,-0.007853981633974483,0.0005410520681183861,-3.10024575125017
150.37593984962405,0.6096736886531765,0.5734169464000115,-10.680064,-2.066104,0.033454,-0.013539,-0.0010297442586766543,0.001553343034275123,-3.1004553303867497
151.3784461152882,0.6096736938891643,0.5734166217687705,-10.681197,-2.059447,0.01588,0.011138,-0.0008028514559173914,0.002460914245312029,-3.097907219492008
152.38095238095238,0.6096736949363617,0.5734162994064577,-10.688299,-2.042439,-0.007855,-0.000845,0.0037873644768276955,0.0036477381366681882,-3.0961268963885114
153.38345864661653,0.6096736916202363,0.5734159796621388,-10.676027,-2.036582,-0.008525,-0.023377,0.005724679946541401,0.002391101075232216,-3.096667791376997
154.38596491228068,0.6096736883041106,0.5734156602668857,-10.647593,-2.046557,0.006726,-0.027904,0.0011344640137963145,0.0018500490071140518,-3.098081665150745
155.38847117794487,0.6096736860351826,0.5734153391263033,-10.623583,-2.064076,0.007651,-0.019364,-0.0035604716740684317,0.0022340214425526916,-3.097156483567555
156.39097744360902,0.6096736856861168,0.5734150171130563,-10.608237,-2.065904,0.00073,-0.010718,-0.0010297442586766543,0.0035430183815485794,-3.0963711203107427
157.39348370927317,0.609673684987985,0.5734146928308812,-10.592495,-2.056536,0.002763,-0.023643,0.00158824961931484,0.005794493116621169,-3.096877387966869
158.39598997493732,0.6096736848134521,0.573414371690299,-10.565274,-2.037665,0.021156,-0.025625,-0.0010471975511965976,0.005393067388662631,-3.0987623610123154
159.3984962406015,0.6096736869078473,0.5734140529931775,-10.548745,-2.038865,0.02039,-0.00845,6.98131700797732e-05,0.0029845130209102955,-3.098552781875736
160.40100250626566,0.6096736884786436,0.5734137348196547,-10.54247,-2.052829,-0.004972,-0.007253,0.007278022980816353,0.0025307274153918424,-3.096161785520259
161.4035087719298,0.6096736853370509,0.5734134117592103,-10.528057,-2.065058,-0.028724,-0.024385,0.0015009831567151235,0.004974188368183974,-3.09511464032894
162.406015037594,0.6096736795774644,0.5734130871279695,-10.492037,-2.064126,-0.013349,-0.04415,-0.006108652381980154,0.008168140899333487,-3.099163699473811
163.40852130325814,0.6096736773085364,0.5734127628457945,-10.443095,-2.05156,0.034982,-0.045576,-0.004642575810304916,0.009267698328089935,-3.104259921263295
164.4110275689223,0.6096736830681229,0.5734124424033438,-10.411086,-2.041801,0.05738,-0.015569,-0.0025307274153917782,0.0077492618788548295,-3.1040157147943557
165.41353383458645,0.6096736937146313,0.5734121226590247,-10.407172,-2.041043,0.034172,0.004242,0.0069464104229374326,0.007347836150896292,-3.0998095236569267
166.41604010025063,0.6096736984270203,0.5734118020420412,-10.411665,-2.048447,-0.008191,-0.00057,0.0036477381366681488,0.008953539062730886,-3.095515978790436
167.41854636591478,0.6096736935400984,0.57341148037786,-10.390457,-2.051902,-0.027574,-0.040599,0.001832595714594046,0.01206022513128091,-3.0954810896586884
168.42105263157893,0.6096736858606496,0.5734111574919484,-10.330515,-2.049758,-0.004998,-0.070348,-0.004572762640225143,0.013159782560037359,-3.098343447085252
169.4235588972431,0.6096736827190571,0.5734108356532344,-10.260564,-2.057332,0.029947,-0.06059,-0.003071779483510019,0.01069886831472533,-3.100001265528551
170.42606516290726,0.6096736870823802,0.5734105127673227,-10.212046,-2.063501,0.044287,-0.035742,0.0016406094968746698,0.008779006137531464,-3.0981863150926947
171.42857142857142,0.6096736975543557,0.5734101905795428,-10.191828,-2.057072,0.035106,-0.006754,-0.0054105206811824215,0.007190756518216768,-3.095062175731625
172.43107769423557,0.6096737031394093,0.5734098669954995,-10.191529,-2.044095,0.005533,0.001795,0.0005235987755982988,0.006248278722139844,-3.091658923316576
173.43358395989975,0.6096737020922118,0.5734095481238451,-10.187117,-2.031756,-0.023365,-0.01027,0.009075712110370513,0.003560471674068477,-3.090192584945513
174.4360902255639,0.6096736933655654,0.5734092301248555,-10.168829,-2.043539,-0.034512,-0.027756,0.005096361415823442,0.0003141592653590486,-3.0911177665287024
175.43859649122805,0.6096736855115839,0.5734089096824049,-10.130046,-2.061838,-0.00978,-0.045298,-0.003665191429188092,-8.726646259971105e-05,-3.0935438963620223
176.44110275689223,0.6096736841153205,0.5734085850511639,-10.085707,-2.071047,0.033607,-0.036991,-0.004590215932745087,0.0012391837689160745,-3.0955860188533184
177.4436090225564,0.6096736926674338,0.5734082590236597,-10.066825,-2.058155,0.049283,0.002705,-0.0027227136331111536,0.00040142572795875964,-3.094119680482255
178.44611528822054,0.609673701743146,0.5734079370104127,-10.088304,-2.040287,0.011426,0.034885,0.005044001538263613,-0.002565634000431638,-3.0893025542934582
179.4486215538847,0.6096737013940801,0.5734076177896925,-10.119019,-2.033183,-0.032939,0.02091,0.008848819307611252,-0.0056374134839416445,-3.0863528256845405
180.45112781954887,0.6096736912711704,0.573407299092571,-10.124506,-2.043432,-0.037806,-0.007059,-0.0023387411976724015,-0.007784168463894625,-3.0880633879778348
181.45363408521303,0.6096736794029315,0.5734069789991862,-10.101681,-2.061159,-0.008952,-0.032564,-0.0037175513067479217,-0.006841690667817701,-3.092339619178146
182.45614035087718,0.609673678006668,0.5734066547170111,-10.066183,-2.063442,0.034899,-0.029634,-0.008499753457212387,-0.004974188368183752,-3.0963189175128156
183.45864661654133,0.6096736860351826,0.5734063299112374,-10.057014,-2.055903,0.042934,0.012503,0.0013613568165555773,-0.004345869837465877,-3.094905305538455
184.4611528822055,0.6096736933655654,0.5734060063271941,-10.088189,-2.053762,0.00578,0.043863,0.004764748857944521,-0.005235987755982885,-3.0905068314773345
185.46365914786966,0.6096736914457034,0.5734056837903483,-10.126332,-2.050488,-0.033498,0.023594,0.0034732052114687154,-0.0060039326268603865,-3.089773932817837
186.46616541353382,0.6096736828935899,0.5734053617771013,-10.129624,-2.038871,-0.012872,-0.011611,-0.0030368728984701337,-0.008936085770210989,-3.0948874682735004
187.468671679198,0.6096736769594705,0.5734050420327823,-10.118128,-2.03679,0.019006,-0.002402,0.0019198621771937623,-0.01499237827463129,-3.097680064889861
188.47117794486215,0.609673680624662,0.5734047219393976,-10.126219,-2.049616,0.015303,0.020064,0.005916666164260778,-0.02087413785385217,-3.096214250117574
189.4736842105263,0.6096736853370509,0.5734043978317555,-10.149208,-2.063765,0.007307,0.02561,-0.004380776422505767,-0.025220007691318047,-3.094695726401876
190.47619047619045,0.6096736877805119,0.5734040719787841,-10.176828,-2.064932,0.012994,0.032288,-0.003961897402027128,-0.02813470754214853,-3.09485284094114
191.47869674185463,0.6096736872569132,0.5734037475220762,-10.217871,-2.054245,0.016094,0.054303,0.0023212879051524578,-0.03186971214141643,-3.094311684153267
192.4812030075188,0.6096736877805119,0.5734034246361646,-10.287653,-2.045472,-0.007396,0.082889,0.0003665191429188092,-0.0354650904005247,-3.09265360391058
193.48370927318294,0.6096736865587814,0.5734031040191809,-10.37382,-2.045938,-0.028593,0.085061,0.002740166925631098,-0.03682644721708028,-3.092810735903137
194.48621553884712,0.6096736788793327,0.5734027825295328,-10.447709,-2.051177,-0.028183,0.061034,0.007278022980816354,-0.0362504885639221,-3.095131936541827
195.48872180451127,0.6096736731197462,0.5734024592945552,-10.494737,-2.054368,0.000924,0.038555,0.0015184364492350669,-0.03384193419616999,-3.0986577110703655
196.49122807017542,0.6096736732942791,0.5734021357105119,-10.533488,-2.057111,0.035113,0.048062,-0.009791297103688189,-0.030892327760299487,-3.1011360437016124
197.49373433583958,0.6096736799265302,0.5734018129991333,-10.595369,-2.054943,0.034501,0.075003,0.005899212871740834,-0.028623399732707,-3.1008742443138138
198.49624060150376,0.609673685162518,0.57340148941509,-10.677207,-2.05076,0.000208,0.082614,0.0030717794835100195,-0.025656340004316602,-3.0995650379353075
199.4987468671679,0.6096736827190571,0.5734011665291783,-10.746607,-2.052659,-0.027986,0.051743,-0.0003141592653589793,-0.02007128639793465,-3.100280902181306
200.50125313283206,0.6096736773085364,0.573400847657524,-10.774478,-2.030273,0.011369,0.017208,-0.033457961760731285,-0.005951572749300693,-3.089651689957027
201.50375939849624,0.609673671025351,0.573400535069055,-10.756442,-1.919961,-0.0666,-0.079239,0.08850564636863245,0.06976081020221336,-2.9337939099269814
202.5062656641604,0.6096736284393174,0.5734002552927758,-10.652039,-1.709275,-0.440508,-0.091774,0.1585980691287247,0.059166661642607865,-2.6655715184942745
203.50877192982455,0.6096735565317521,0.5734000116448122,-10.561808,-1.438085,-0.793342,-0.113652,0.0918392252399416,0.07208209810736577,-2.4288527214857947
204.5112781954887,0.6096734062589035,0.5733998228001872,-10.426844,-1.108365,-1.049286,-0.154524,0.10969394348784363,0.06965609044709375,-2.1862690945918373
205.51378446115288,0.6096731929796689,0.5733996873626372,-10.273053,-0.755578,-1.1976,-0.141505,0.11718140597889931,0.05654866776461631,-1.953773802386965
206.51629072681703,0.6096729596291479,0.5733996032377673,-10.160965,-0.431759,-1.307739,-0.083014,0.13908528809142814,0.04174827570770434,-1.7384529689007375
207.51879699248119,0.6096727110942625,0.5733995674585176,-10.088992,-0.130515,-1.378741,-0.068406,0.10203194807158851,0.0398109602379908,-1.5366924186780027
208.52130325814534,0.6096724541817965,0.5733995801994212,-10.017116,0.191523,-1.369844,-0.070748,0.10595893888857573,0.036320301734002136,-1.3295565510650973
209.52380952380952,0.6096721950004026,0.5733996432058072,-9.945396,0.55394,-1.383244,-0.065713,0.03551745027808462,0.03087487446777981,-1.158933145936839
210.52631578947367,0.6096719295358234,0.5733997515907537,-9.875727,0.794461,-1.435269,-0.074873,0.04806636759992384,0.03218387140677548,-1.0920350596803323
211.52882205513782,0.6096716516794065,0.5733999043070632,-9.800696,0.930392,-1.512059,-0.06967,0.014259339988793671,0.027523842303950552,-1.0807603025256187
212.531328320802,0.6096713577659605,0.5734000830287787,-9.743898,1.030835,-1.614214,-0.05035,0.015568336927789419,0.02492330171847912,-1.084024277666358
213.53383458646616,0.6096710420358987,0.5734002685572782,-9.691837,1.125187,-1.721402,-0.061399,0.012199851471440365,0.026022859147235566,-1.086554813095532
214.5363408521303,0.6096707053618861,0.5734004629869568,-9.614786,1.201741,-1.790085,-0.088121,0.017243853009703974,0.023788837704682875,-1.0832908379547928
215.53884711779446,0.6096703568196344,0.573400663525288,-9.536516,1.24911,-1.829707,-0.055759,0.011431906600562858,0.010279989294246672,-1.078508862697132
216.54135338345864,0.6096700014705988,0.573400868601475,-9.517287,1.293994,-1.901717,0.011489,0.0012217304763960308,-0.0010646508437164304,-1.077165028986266
217.5438596491228,0.6096696326825278,0.5734010796117816,-9.533627,1.341517,-2.009865,0.002405,-0.0031415926535897933,1.74532925198978e-05,-1.0760827328638112
218.54636591478695,0.6096692464411643,0.5734012967307405,-9.497931,1.376741,-2.060429,-0.072485,0.0015707963267948962,-0.0009773843811167193,-1.0722781419872667
219.54887218045113,0.6096688542656814,0.5734015176894238,-9.432258,1.404318,-2.03879,-0.031814,0.004537856055185259,-0.02057743188101302,-1.070498080683157
220.55137844611528,0.6096684640100606,0.5734017430114302,-9.464367,1.428978,-2.082463,0.083828,-0.013596114873035827,-0.03227113786937519,-1.0723127518663331
221.55388471177943,0.6096680685184521,0.573401972173161,-9.554745,1.462141,-2.171164,0.073529,-0.008831366015091303,-0.02244493418064697,-1.073342339045378
222.55639097744358,0.6096676594132755,0.5734022063963466,-9.599244,1.474992,-2.203874,0.020142,-0.0036651914291880904,-0.01870992958137907,-1.0723127518663333
223.55889724310777,0.60966724262865,0.5734024395723348,-9.621711,1.473404,-2.191113,0.037779,-0.01148426647812269,-0.02647664475275402,-1.0723649546642602
224.56140350877192,0.6096668284620187,0.5734026725737899,-9.681567,1.480587,-2.204845,0.076771,-0.004537856055185258,-0.028867745827986235,-1.0745641916948216
225.56390977443607,0.6096664139463213,0.5734029066224425,-9.755377,1.491308,-2.248302,0.06319,-0.009861110273767962,-0.022130774915288143,-1.0760129546003168
226.56641604010025,0.6096659908785105,0.5734031424164245,-9.802196,1.498545,-2.282395,0.033759,-0.011414453308042916,-0.017121679962064373,-1.0771820808530577
227.5689223057644,0.6096655601312512,0.5734033799557356,-9.826335,1.506144,-2.299376,0.018342,-0.007504915783575615,-0.016615534478986005,-1.07819461616531
228.57142857142856,0.6096651283367942,0.5734036167969152,-9.845602,1.501492,-2.28861,0.028261,-0.012496557444279402,-0.018343410438460328,-1.0788753120268801
229.5739348370927,0.6096647002075287,0.5734038525908972,-9.900725,1.505192,-2.286536,0.080154,-0.008115781021773634,-0.019669860669976114,-1.080253773070105
230.5764411027569,0.609664272427329,0.5734040882103462,-9.984211,1.51189,-2.326781,0.06957,-0.016877333866785166,-0.008307767239492891,-1.0819821551750632
231.57894736842104,0.6096638371422136,0.5734043269713878,-10.015614,1.506311,-2.330677,-0.010082,-0.01562069680534925,0.0008028514559175193,-1.0818772434337254
232.5814536340852,0.6096634048241579,0.5734045622417709,-9.984695,1.501674,-2.290379,-0.0381,-0.012304571226560023,-0.003665191429188086,-1.0822964191601765
233.58395989974937,0.6096629759967607,0.5734047950686932,-9.970942,1.492681,-2.291149,0.012096,-0.00909316540289046,-0.01048942880448589,-1.0856120560467748
234.58646616541353,0.6096625478674952,0.573405028942813,-9.999398,1.484864,-2.321671,0.035636,-0.02094395102393195,-0.00813323431429347,-1.087794241210543
235.58897243107768,0.6096621153749066,0.5734052614206694,-10.026853,1.476039,-2.334381,0.010222,-0.012025318546240931,-0.0011519173063161414,-1.0904467577011403
236.59147869674183,0.6096616785189948,0.5734054925022624,-10.019448,1.471496,-2.310578,-0.021004,-0.013107422682477415,0.0006108652381979773,-1.091615883953881
237.593984962406,0.6096612481208012,0.5734057230602565,-10.005224,1.47896,-2.285042,-0.001969,-0.00822050077689329,-0.0048171087355042275,-1.0909703390234455
238.59649122807016,0.6096608220859308,0.5734059544909152,-10.018623,1.470706,-2.303701,0.018883,-0.0073129295658562405,-0.0041713369122664545,-1.0939024747135033
239.59899749373432,0.6096603916877372,0.5734061852234424,-10.039338,1.463981,-2.330461,0.015535,-0.01647590813882647,-0.000366519142918742,-1.0959445797515068
240.6015037593985,0.6096599579734182,0.5734064157814367,-10.040408,1.467346,-2.331887,-0.018001,-0.009773843811168244,0.0037000980142281037,-1.0962236753521932
241.60401002506265,0.6096595235609673,0.5734066456412991,-10.010484,1.455755,-2.315749,-0.038467,-0.010297442586766544,0.0006632251157578928,-1.0990514228996893
242.6065162907268,0.6096590942099713,0.5734068735812994,-9.976819,1.447219,-2.294165,-0.021635,-0.008936085770210968,-0.006056292504420302,-1.101424843789599
243.60902255639095,0.609658670444029,0.57340709855424,-9.984262,1.4447,-2.306694,0.036029,-0.008918632477691027,-0.010471975511965992,-1.1035543025566643
244.61152882205513,0.6096582381259732,0.573407322479983,-10.022587,1.431962,-2.350015,0.021607,-0.013892820845874862,-0.0013962634015953768,-1.1068358531629718
245.6140350877193,0.6096578003973968,0.5734075457075943,-10.018222,1.41745,-2.33973,-0.022191,-0.006387905062299246,0.002391101075232216,-1.1091213792717511
246.61654135338344,0.6096573616216229,0.5734077663172119,-10.000615,1.413185,-2.320763,-0.003613,-0.007749261878854823,-0.003665191429188086,-1.1105877176428136
247.6190476190476,0.6096569294781,0.5734079879740268,-10.009382,1.424215,-2.332757,0.013909,-0.002862339973270701,-0.0034208453339088507,-1.1119491093659548
248.62155388471177,0.6096564966364456,0.5734082117252368,-10.011659,1.413799,-2.343301,-0.018998,-0.009407324668249437,0.0004712388980385729,-1.1122809488166363
249.62406015037593,0.6096560620494619,0.5734084325093873,-9.970521,1.382791,-2.325565,-0.056238,-0.008691739674931764,-0.0007155849933175862,-1.1150559525141372
250.62656641604008,0.6096556318258012,0.5734086489302146,-9.935852,1.369552,-2.315728,-0.002912,-0.005462880558742251,-0.01331686219271666,-1.1194720194941186
251.62907268170426,0.609655209979721,0.5734088573225272,-9.971128,1.264424,-2.18375,0.045591,0.06852162643329739,0.049061205273560615,-1.1309731458528154
252.6315789473684,0.6096548263563514,0.5734090468652839,-9.819423,1.188378,-1.970149,-0.427607,0.05239478414486971,0.30134853119604843,-1.1041300692236053
253.63408521303256,0.6096544842718181,0.5734092318701848,-9.246156,1.163411,-1.817136,-0.640694,0.017016960206944685,0.331944152983509,-1.096468161073812
254.63659147869672,0.6096541660982954,0.5734093985491283,-8.60512,1.135444,-1.745828,-0.652738,-0.009808750396208087,0.33985051194833593,-1.0942689240432524
255.6390977443609,0.6096538713121847,0.5734095716857901,-7.954988,1.130642,-1.726565,-0.659813,0.01033234917180646,0.34599405346206336,-1.0925762164682054
256.64160401002505,0.6096535615162425,0.5734097498839067,-7.281759,1.155206,-1.699769,-0.700529,0.012636183784438985,0.3506017226873286,-1.0885793426679682
257.64411027568923,0.6096532504985698,0.5734099324453464,-6.570389,1.182865,-1.652936,-0.725868,0.0063006385996995035,0.3502875808752619,-1.0836924382156765
258.64661654135335,0.6096529485566091,0.5734101207663728,-5.854343,1.188328,-1.625265,-0.703225,0.010227629416686828,0.34667473187034115,-1.07980049361007
259.64912280701753,0.609652648010912,0.5734103092619319,-5.179466,1.178896,-1.646778,-0.661623,0.0025307274153918043,0.34384731593540274,-1.0762744747354351
260.6516290726817,0.6096523425782929,0.5734104946158984,-4.512043,1.172299,-1.661176,-0.693327,0.0012217304763960254,0.3474601649403237,-1.0765019085902632
261.65413533834584,0.6096520429052603,0.5734106827623919,-3.802001,1.232936,-1.48909,-0.707036,0.0374896723328382,0.3509682767368323,-0.9899859201156113
262.65664160401,0.6096517886107883,0.573410892550968,-3.157753,1.409927,-1.248047,-0.583863,0.006073745796940277,0.3410722424247319,-0.8058709453365122
263.65914786967414,0.6096515632887818,0.5734110974526222,-2.596971,1.445223,-1.060447,-0.579334,-0.0004886921905584461,0.3298672286269284,-0.643188561412025
264.6616541353383,0.6096513882322578,0.5734113267888858,-2.021303,1.550166,-0.893547,-0.5425,0.1342856326484437,0.261432851202938,-0.5566203701394471
265.6641604010025,0.6096512232986435,0.5734115636300654,-1.543976,1.57877,-0.79778,-0.421788,-0.009826203688728089,0.20450022845617566,-0.5293235079047183
266.66666666666663,0.6096511054889191,0.57341180972149,-1.162897,1.551642,-0.671127,-0.35254,-0.002932153143350474,0.16934929732100978,-0.5198463875196817
267.6691729323308,0.6096510030380919,0.5734120647140937,-0.837281,1.647831,-0.565405,-0.310373,0.006370451769779299,0.18341665109208405,-0.5460614772307316
268.671679197995,0.6096509098375099,0.5734123097583206,-0.592601,1.425026,-0.616849,-0.138001,-0.025743606466916365,0.1868025898409531,-0.527647852196463
269.6741854636591,0.6096508267598376,0.5734125277499442,-0.421725,1.262696,-0.376557,-0.272747,-0.015533430342749538,0.1054876999905372,-0.4643274640137415
270.6766917293233,0.6096507674186429,0.5734127162455034,-0.273404,1.35693,-0.464687,0.202626,0.02186897552748895,-0.010262536001726552,-0.5237383321252882
271.6791979949875,0.6096506494343855,0.5734129146894393,-0.522204,1.37871,-0.571862,0.213876,-0.05234242426730996,0.09347983473681643,-0.556411052802255
272.6817042606516,0.6096506122588725,0.57341311400604,-0.659846,1.047815,-0.383877,0.037457,0.039531707557671575,0.027122416575992014,-0.4815362708120656
273.6842105263158,0.6096504989870041,0.5734132752744628,-0.444009,1.113089,-0.304625,-0.304935,0.05667084081225587,0.04310963252425992,-0.5517334831404485
274.68671679197996,0.6096504838026395,0.5734134340994247,-0.339004,1.152908,-0.130274,0.085335,0.06466444878638991,0.10224138758182799,-0.5146803874667029
275.6892230576441,0.6096504557028385,0.5734136100286134,-0.545755,1.100686,-0.345753,0.226045,-0.038589229761594616,0.1009149373503122,-0.5151512249390139
276.69172932330827,0.6096503829226088,0.5734137828162092,-0.620522,1.023083,-0.488375,-0.065256,0.010698868314725241,0.10705849631733222,-0.5243140987922282
277.6942355889724,0.6096502829152427,0.5734139329145249,-0.427383,1.026656,-0.298583,-0.255927,0.004188790204786394,0.10595893888857577,-0.5200035020589457
278.69674185463657,0.609650242249071,0.5734140943574808,-0.184511,1.089008,0.005743,-0.143649,0.0437728576400178,0.08745844881743592,-0.5133365537558376
279.69924812030075,0.6096502298572334,0.5734142566731012,-0.371716,1.008606,-0.11216,0.383702,-0.03214896482173556,0.09768607823412268,-0.5083447201089168
280.7017543859649,0.6096502078660848,0.5734144052006205,-0.552067,0.851536,-0.383091,-0.071819,-0.07105235384868915,0.1001644457719546,-0.5082397909142868
281.70426065162906,0.6096501544590096,0.5734145483176193,-0.396466,1.021693,-0.156946,-0.105047,0.10445795573186062,0.093305301811617,-0.5064943569425371
282.70676691729324,0.6096501148400357,0.5734147015575275,-0.336836,0.990972,-0.037769,-0.004194,-0.030072023011862292,0.1355247989640671,-0.5019217164753595
283.70927318295736,0.6096500801079835,0.5734148293156287,-0.398859,0.723522,-0.241909,-0.005694,-0.07806857744170637,0.07009242276009231,-0.48621385792716537
284.71177944862154,0.6096500637018886,0.5734149720835616,-0.403638,0.969386,-0.170507,0.056701,0.08227482093901271,0.06012659273120469,-0.5078035633210435
285.7142857142857,0.609650004360694,0.5734151015869922,-0.382423,0.891184,-0.242585,-0.050492,-0.026703537555513242,0.07913322828542291,-0.5125333357807771
286.71679197994985,0.6096499870819344,0.5734152508126431,-0.360509,0.884597,-0.023921,-0.014895,-0.002391101075232231,0.014852751934471886,-0.4991642707901331
287.719298245614,0.6096499591566664,0.5734153876464565,-0.372597,0.854209,-0.097705,0.035356,0.031555552876057484,0.049602257341679,-0.5082046399831511
288.72180451127815,0.6096499403071104,0.573415503187253,-0.324588,0.702683,-0.223068,-0.222415,-0.06899286533133585,0.01363102145807571,-0.5097237047509168
289.72431077694233,0.6096499233774167,0.5734156382757372,-0.179493,0.934357,-0.006736,0.073152,0.06475171524898964,0.046617744320768706,-0.5239124985313446
290.7268170426065,0.609649894754017,0.5734157578307909,-0.317858,0.695381,-0.200625,0.108043,0.010978120995044333,0.04522148091917311,-0.49879782146038404
291.72932330827064,0.6096498677014136,0.5734158829708982,-0.30842,0.898324,-0.083391,-0.079586,0.017016960206944712,-0.05262167694762887,-0.5299866283007203
292.7318295739348,0.6096498565313063,0.5734160332437468,-0.259037,0.858374,-0.109322,-0.025342,0.1152091839241457,0.02588323280707594,-0.5378232439086379
293.734335839599,0.6096498331438944,0.5734161379635019,-0.27933,0.541369,-0.228128,0.057547,-0.0659908990179056,-0.011676252695842049,-0.5021315748646188
294.7368421052631,0.609649801378902,0.5734162550750947,-0.25154,0.880328,-0.006176,-0.156033,0.06206390820091835,-0.006021385919380284,-0.545625249637488
295.7393483709273,0.6096497823548132,0.5734163487992755,-0.150361,0.613338,-0.102008,-0.137284,0.048048914307403885,0.00930260491312973,-0.4663519935861775
296.7418546365915,0.6096498142943384,0.5734164781281731,-0.140923,0.785771,0.122155,0.191792,-0.009232791743050002,-0.024766222085799372,-0.4929681599593361
297.7443609022556,0.6096497795622864,0.5734165800554014,-0.392501,0.655205,-0.305903,0.277897,-0.0006457718232379017,-0.0033510321638290375,-0.45284284846976897
298.7468671679198,0.609649764377922,0.57341669332727,-0.335117,0.721168,-0.130712,-0.384956,0.03063052837250048,-0.021240656996770912,-0.45755556906271105
299.74937343358397,0.6096497380234501,0.5734168174201798,-0.090152,0.838824,0.222904,0.084715,0.10773917472560997,0.026895523773232677,-0.43313811612133724
300.7518796992481,0.6096497647269876,0.5734169214418031,-0.31336,0.46751,-0.029863,0.141738,-0.07195992505972622,-0.004276056667386063,-0.39531697085696055
301.7543859649123,0.6096497849728071,0.5734170177839778,-0.321838,0.727928,-0.035691,-0.027644,0.01731366617978375,-0.07244861725028451,-0.3964520108294105
302.7568922305764,0.609649759316467,0.5734171392588938,-0.231536,0.916211,-0.052886,-0.09011,0.09957103382627651,0.0196000474998963,-0.4348483991619523
303.7593984962406,0.6096497652505865,0.573417264573534,-0.306682,0.516531,-0.04328,0.209927,-0.05677556056737555,0.045326200674292716,-0.34981632452393124
304.76190476190476,0.6096497261552112,0.5734173624865051,-0.212001,0.692467,-0.116248,-0.41481,0.02754129559647053,-0.060423298704043615,-0.38500254621657193
305.7644110275689,0.6096497299949356,0.5734174684279907,-0.032277,0.807628,0.337856,0.198265,0.1579522973054869,0.05892231554732863,-0.33740706844883606
306.76691729323306,0.6096497786896217,0.5734175652937642,-0.351624,0.527255,-0.018529,0.218875,-0.1540951196585794,-0.039235001584832396,-0.29270909903879916
307.76942355889724,0.6096497560003414,0.5734176689663218,-0.385665,0.686497,-0.148476,-0.184294,-0.04951499087907914,-0.018151424220741008,-0.3016104527568955
308.77192982456137,0.6096497607127305,0.5734177696718196,-0.186139,0.724332,0.183356,-0.089645,0.19355701404617115,0.02216568150032816,-0.2578722922624073
309.77443609022555,0.6096497486699586,0.5734178705518503,-0.180465,0.573509,0.095128,0.014285,-0.11971213339429107,-0.0028099800957108734,-0.24223421197770834
310.77694235588973,0.6096497910814594,0.5734179813802579,-0.203801,0.719189,0.080018,0.011765,-0.04312708581677988,-0.017505652397503013,-0.25132730756742855
311.77944862155385,0.6096498055676922,0.5734180822602887,-0.254901,0.669187,-0.001632,0.047451,0.0831649388575298,-0.0017627825445141188,-0.20802589826495962
312.78195488721803,0.6096498228464519,0.5734181941358937,-0.267984,0.590888,0.087655,-0.010427,0.0036651914291880917,0.018081611050661417,-0.19711759043999533
313.7844611528822,0.6096498029496984,0.5734182731993088,-0.221712,0.574375,0.08739,-0.062239,0.021380283336930535,-0.026319565120074495,-0.19746646430417525
314.78696741854634,0.6096498383798821,0.573418373032142,-0.223245,0.671614,0.18646,0.109602,0.03255039054969424,0.0020420352248333717,-0.18919362110301496
315.7894736842105,0.6096498474555943,0.57341846658179,-0.311992,0.596731,-0.070489,-0.019203,-0.0648738882966292,-0.010541788682045583,-0.17407912214062218
316.79197994987464,0.6096498567058393,0.5734185802027243,-0.197508,0.690143,0.080286,-0.158519,0.06290166624187563,0.0006806784082777906,-0.18746576259683348
317.7944862155388,0.6096498678759465,0.5734186683418515,-0.186699,0.51217,0.309706,0.127314,0.0562345084992573,0.012287117934040026,-0.13692109727224833
318.796992481203,0.609649917966896,0.5734187664293554,-0.304514,0.684909,0.034436,0.050526,-0.0492182849062401,-0.0693768377667745,-0.14664270337890467
319.79949874686713,0.6096499240755484,0.5734188592808716,-0.394664,0.591982,-0.085487,0.042557,0.00874409955249159,0.049864056729478134,-0.11622194612920045
320.8020050125313,0.6096499437977689,0.573418963651561,-0.327283,0.660432,0.211475,-0.156999,0.13716542591423442,-0.036808993924560385,-0.11845581049212076
321.8045112781955,0.6096499080185194,0.5734190683713161,-0.155293,0.747108,0.061548,-0.099155,-0.04797910113732412,0.031014500807939216,-0.09976307240387362
322.8070175438596,0.6096499619491932,0.573419170996676,-0.205189,0.542178,0.266317,0.042966,0.009930923443847734,-0.01624901533606704,-0.10623829628864927
323.8095238095238,0.6096499923179223,0.5734192696077788,-0.138249,0.672024,0.256196,-0.083202,0.0738099740668402,-0.033946653951289596,-0.07012741661159552
324.812030075188,0.6096500560224398,0.5734193701387438,-0.327808,0.629892,-0.002108,0.384451,-0.016720254234105676,0.050649454892875534,-0.08332179159740631
325.8145363408521,0.6096499219811534,0.5734193125428784,-0.517233,0.535816,-0.254007,-0.199785,-0.07726572598578897,-0.044732788728614636,-0.04122467693210676
326.8170426065163,0.609649920410357,0.5734193563506427,-0.162722,0.780011,0.387915,-0.282437,0.20938715036175973,-0.01673770752662551,-0.06511802495239861
327.8195488721804,0.6096499794024857,0.5734194462350991,-0.137413,0.594272,0.289095,0.159456,-0.06066764479932289,-0.021642082724729672,0.025970499269675627
328.8220551378446,0.6096500675416129,0.5734195204115923,-0.309045,0.658314,0.265836,0.247294,-0.06051056516664341,-0.05026548245743667,0.010105456369047168
329.82456140350877,0.60965009302342,0.5734195989514086,-0.509915,0.519984,-0.105451,-0.048185,0.06951646410693413,-0.009581857593448762,0.06859143960337716
330.8270676691729,0.6096501268828075,0.5734196654484531,-0.214814,0.626943,0.305325,-0.281814,0.052534410485029305,-0.047001716756207124,0.07572983624403395
331.8295739348371,0.6096501658036498,0.5734197658048852,-0.195946,0.554759,0.124641,0.101277,0.028640853025226946,0.04197516851046368,0.13760175822723295
332.83208020050125,0.6096502370130833,0.5734198282876724,-0.235776,0.593927,0.21528,0.049406,0.0850498944496837,-0.03820525732615576,0.1637118838370681
333.8345864661654,0.609650270348872,0.5734199225354519,-0.27507,0.651304,0.158504,0.02594,-0.009005898940290741,-0.006824237375297804,0.18565067253463685
334.83709273182956,0.6096503366713836,0.573419997061011,-0.340756,0.485262,0.202858,0.011706,0.011239920382843483,0.0016231562043547143,0.23760910691321552
335.83959899749374,0.6096503789083515,0.573420062336325,-0.214404,0.512245,0.288858,-0.219705,0.029967303256742635,-0.05256931707006918,0.2798286215189584
336.84210526315786,0.6096504464525936,0.5734201543151766,-0.206391,0.653605,0.184407,0.26402,0.06085963101704227,0.060039326268604976,0.2987654613563893
337.84461152882204,0.6096503804791479,0.5734202784080865,-0.462601,0.392325,0.038897,0.045611,-0.042743113381341125,-0.03933972133995223,0.34665731348440626
338.8471177944862,0.6096503879840637,0.5734203962178109,-0.235295,0.791761,0.414263,-0.269668,0.03984586682303053,-0.07204719152232597,0.3776543435465331
339.84962406015035,0.6096504530848447,0.5734205098387453,-0.335134,0.518465,0.290586,0.38647,0.046739917368408136,0.04359832471481839,0.4093146161777102
340.8521303258145,0.6096504796138492,0.5734205724960654,-0.465996,0.33657,0.078563,-0.218998,-0.13863150248590958,-0.062290801003677565,0.47169266619069494
341.85463659147865,0.6096505077136504,0.5734206655221145,-0.110861,0.719056,0.290414,-0.264349,0.10583676584093614,-0.029740410453983346,0.5178217183209052
342.85714285714283,0.6096505721162997,0.5734207566283015,-0.163675,0.397831,0.382501,0.284046,0.11421434625050891,0.05286602304290833,0.5277875658030854
343.859649122807,0.6096506572883672,0.5734208023559278,-0.402443,0.506669,0.155211,0.12213,-0.15830138060917817,-0.04855505979048225,0.5736548185454962
344.86215538847114,0.6096507187239568,0.5734208948583782,-0.367557,0.79542,0.22166,-0.061084,0.006126105674500096,0.001832595714594154,0.6159267104820914
345.8646616541353,0.6096507878389953,0.5734209709547337,-0.390453,0.304048,0.301924,-0.009403,0.1344776188661631,0.02432988977280104,0.5929581426192609
346.8671679197995,0.6096508152406646,0.5734210268052696,-0.280224,0.417558,0.242754,-0.183131,-0.1108633140866798,-0.026424284875194104,0.6548126636698176
347.8696741854636,0.6096508436895314,0.5734211238455762,-0.176489,0.659025,0.304665,0.12017,-0.005218534463463046,0.02420771672516131,0.652037572705854
348.8721804511278,0.6096508759781225,0.5734211943568779,-0.429745,0.296579,0.148085,0.152243,0.08960520379738887,0.025062928058638523,0.6757565623338719
349.874686716792,0.6096508838321041,0.5734212702787004,-0.382028,0.593637,0.297592,-0.209645,-0.1554739297676549,-0.15406021307353934,0.729320717077578
350.8771929824561,0.6096509508527473,0.573421369238869,-0.310501,0.490847,0.492765,0.134694,0.1607273708161578,0.007504915783575594,0.7194595544439323
351.8796992481203,0.6096510067032834,0.5734214360849792,-0.429063,0.411763,0.192975,0.061259,-0.02192133540504878,-0.04440117617073569,0.7786088326071902
352.88220551378447,0.6096510391664075,0.5734215062472151,-0.470956,0.481662,0.227233,0.00877,-0.10768681484805014,-0.04314453910929972,0.7927285113492393
353.8847117794486,0.6096510655208793,0.5734215854851633,-0.490988,0.499102,0.142193,-0.056342,0.10046115174479361,-0.007452555906015679,0.8330631576292912
354.8872180451128,0.6096510857666986,0.5734216601852553,-0.313581,0.389323,0.297712,-0.284644,-0.014556045961632708,-0.05754350543825293,0.8409170869033878
355.8897243107769,0.6096511601177246,0.5734217303474912,-0.138198,0.413178,0.531235,-0.00961,0.009232791743050002,-0.011833332328521573,0.8560142023864312
356.8922305764411,0.6096512349923495,0.5734218050475831,-0.202224,0.537155,0.311437,0.178665,-0.030857421175259747,0.02197369528260862,0.8862956125486554
357.89473684210526,0.6096512648374799,0.573421886903525,-0.436216,0.434554,0.068157,0.173823,-0.04096287754430692,0.03106686068549913,0.9488482827533024
358.8972431077694,0.6096512847342332,0.5734219462447196,-0.461597,0.370022,0.238424,-0.160783,0.0752585973459955,-0.061295963330040726,0.9394409231784677
359.89974937343356,0.6096513250513389,0.5734220284497275,-0.237728,0.523584,0.310651,-0.142372,-0.04907865856608055,-0.00045378560551845304,0.9706823342424588
360.90225563909775,0.6096513898030542,0.5734220942486402,-0.200956,0.33399,0.428781,-0.031497,0.07314674895108235,-0.05094616086571446,0.958883873592392
361.90476190476187,0.6096514754987206,0.5734221630146127,-0.216851,0.466671,0.449472,0.206751,0.01918116847941768,0.027977627909469227,0.9714851507917912
362.90726817042605,0.6096515149431616,0.5734222427761595,-0.492019,0.567843,-0.016746,0.247884,-0.06604325889546545,0.018692476288859394,1.0513165282313046
363.90977443609023,0.6096515201791494,0.5734223241085027,-0.423148,0.481103,0.203933,-0.347639,0.06295402611943547,-0.044924774946333956,1.0500424029707638
364.91228070175436,0.6096515896432536,0.5734223988085947,-0.1916,0.373607,0.567513,-0.058659,0.07655014099247129,-0.007452555906015679,1.0428691171983593
365.91478696741854,0.6096516694048004,0.5734224609423161,-0.199439,0.418061,0.282418,0.143133,-0.08440412262644578,0.043668137884898206,1.1025594823363205
366.91729323308266,0.6096517174013549,0.5734225225524386,-0.364541,0.423137,0.224932,0.128711,0.0016755160819145608,-0.02371902453460284,1.1357031801119375
367.91979949874684,0.6096517477700838,0.5734225890494832,-0.387526,0.44712,0.146433,-0.137321,0.029094638630745476,0.004834562028024347,1.163995002193351
368.922305764411,0.6096517959411711,0.5734226707308921,-0.272234,0.5188,0.427033,-0.095433,-0.05951572749300664,-0.05263913024014899,1.1717966064964729
369.92481203007515,0.6096518718629937,0.5734227447328524,-0.369077,0.271328,0.376048,0.091756,0.07129669994396835,0.04450589592585552,1.2167214687092693
370.9273182957393,0.6096519165434225,0.5734228044231128,-0.306693,0.466335,0.20845,-0.10188,-0.05761331860833282,-0.04998622977711764,1.234960124486025
371.9298245614035,0.6096519746628866,0.5734228676040317,-0.332838,0.236535,0.358628,0.087063,0.0038920842319473507,0.02501056818107883,1.2395327824064954
372.93233082706763,0.6096520212631776,0.5734229190912448,-0.355554,0.414283,0.230339,0.020873,0.01485275193447174,-0.02380629099720255,1.3149136924264708
373.9348370927318,0.609652069259732,0.5734230030415818,-0.293542,0.575504,0.264621,0.049835,-0.1057844059633763,-0.01284562329467831,1.3231516464958837
374.937343358396,0.6096521242376035,0.5734230637790396,-0.338058,0.332878,0.291491,-0.005778,0.10355038452082359,0.0033684854563491573,1.3701706769182709
375.9398496240601,0.6096521781682773,0.5734231227711685,-0.238961,0.40075,0.352102,-0.20081,-0.03373721444105039,-0.018954275676658305,1.3710433939041458
376.9423558897243,0.6096522682272667,0.5734231842067581,-0.167205,0.366135,0.547443,0.077048,-0.06825982704549821,0.005061454830783685,1.430611516181297
377.9448621553885,0.6096523343752455,0.5734232536708623,-0.42688,0.418792,0.090102,0.415919,0.028553586562627232,0.047019170048727243,1.423019246668659
