Time [s],Longitude [rad],Latitude [rad],Altitude [m],V North [m/s],V East [m/s],V Down [m/s],Roll [rad],Pitch [rad],Yaw [rad]
0.0,0.5734651002086069,0.6096736261703892,-10.775089,-2.067389,0.174624,-0.037936,-0.000593411945678072,-0.010925761117484502,3.108134831455402
1.0025062656641603,0.5734647794170904,0.609673659680711,-10.738838,-2.059546,0.178457,-0.03214,-0.004153883619746504,-0.01043706892692609,3.119845816203359
2.0050125313283207,0.5734644601963702,0.6096736935400984,-10.715885,-2.057283,0.161658,-0.015391,0.0008552113334772215,-0.008482300164692442,3.1344716229751937
3.007518796992481,0.573464141150183,0.6096737211163006,-10.706233,-2.066299,0.109172,-0.01129,0.004642575810304917,-0.007330382858376184,3.152431183151263
4.010025062656641,0.5734638194860018,0.6096737385695931,-10.678985,-2.071294,0.058205,-0.043328,0.013020156219877699,-0.007086036763096978,3.1693608943489004
5.012531328320802,0.5734634962510243,0.6096737472962394,-10.623218,-2.07034,0.045259,-0.061097,0.006824237375297829,-0.0035779249665883754,3.1821017280752892
6.015037593984962,0.5734631730160469,0.6096737544520894,-10.570864,-2.059202,0.054222,-0.035689,-0.002722713633111154,-0.00022689280275926284,3.193114703295496
7.017543859649122,0.5734628532717279,0.6096737607352747,-10.565763,-2.046503,0.030251,0.025195,0.012217304763960306,0.0060911990894602095,3.2044070359157764
8.020050125313283,0.5734625354472711,0.6096737628296697,-10.608986,-2.04915,-0.037575,0.047774,0.014468779499032991,0.01038470904936626,3.2161180206637336
9.022556390977442,0.5734622165756168,0.6096737516595625,-10.643324,-2.057064,-0.083806,0.014682,0.005934119456780721,0.01059414855960558,3.2215636573694657
10.025062656641603,0.5734618961331661,0.6096737322864078,-10.632156,-2.056833,-0.072053,-0.02623,0.0022689280275926286,0.00895353906273091,3.219085307284926
11.027568922305765,0.5734615760397812,0.6096737179747079,-10.603238,-2.056397,-0.034238,-0.019879,0.005393067388662479,0.009546951008408983,3.214320383894057
12.030075187969924,0.573461254899199,0.6096737116915226,-10.596615,-2.056392,-0.018406,0.009494,0.002827433388230814,0.010419615634406148,3.2122087623919464
13.032581453634084,0.5734609323623532,0.6096737087244629,-10.620914,-2.058125,-0.026131,0.035206,0.007347836150896127,0.010786134777324957,3.212103833197317
14.035087719298245,0.5734606110472378,0.6096737029648763,-10.661548,-2.062837,-0.043654,0.039133,0.005340707511102648,0.008988445647770798,3.2117725347987025
15.037593984962406,0.5734602895575897,0.6096736916202363,-10.691954,-2.060744,-0.053276,0.019198,0.0038222710618675817,0.005218534463463045,3.2078803283937076
16.040100250626566,0.5734599671952768,0.6096736790538656,-10.695365,-2.054071,-0.04636,-0.012506,0.005131268000863329,0.001239183768915974,3.20100352170134
17.042606516290725,0.5734596479745566,0.6096736691054889,-10.670823,-2.048343,-0.012966,-0.029425,0.006021385919380436,-0.0008726646259971648,3.192730940299567
18.045112781954884,0.5734593282302376,0.6096736666620279,-10.64589,-2.058441,0.015492,-0.015133,0.0014835298641951802,-0.0006283185307179586,3.187389970989077
19.047619047619047,0.573459007787787,0.6096736671856267,-10.641478,-2.072165,0.011737,0.005893,0.001064650843716541,8.726646259971648e-05,3.185958783549149
20.050125313283207,0.5734586849018753,0.6096736684073571,-10.643428,-2.074774,-0.001351,-0.007459,0.0059515727493006645,-0.0017453292519943296,3.184283389640282
21.052631578947366,0.5734583607942332,0.6096736677092255,-10.627099,-2.060368,0.011883,-0.022745,0.0005235987755982988,-0.0021991148575128553,3.1798502882468016
22.05513784461153,0.5734580389555192,0.6096736694545547,-10.607635,-2.046289,0.036651,-0.012083,0.00022689280275926284,0.0002443460952792061,3.1763596821026905
23.05764411027569,0.5734577207819965,0.6096736764358718,-10.605637,-2.047953,0.039211,0.00544,0.009494591130849153,0.0037000980142279784,3.178261986267609
24.06015037593985,0.5734574022594081,0.6096736834171887,-10.61278,-2.059777,0.022044,0.005267,0.007714355293814937,0.005253441048502932,3.1827651277239717
25.062656641604008,0.5734570805952269,0.6096736865587814,-10.616152,-2.068026,0.006582,0.000522,0.002897246558310587,0.0056374134839416844,3.1857145770802098
26.065162907268167,0.5734567557894531,0.6096736858606496,-10.613294,-2.06725,-0.000781,-0.0053,0.003926990816987242,0.005009094953223725,3.1867966114032766
27.06766917293233,0.5734564334271403,0.6096736844643862,-10.604094,-2.054837,0.00821,-0.009601,0.0005585053606381855,0.005131268000863329,3.1852434603552187
28.07017543859649,0.5734561140318871,0.6096736856861168,-10.601252,-2.045635,0.025095,0.007989,0.004991641660703782,0.00773180858633488,3.1837073437206613
29.07268170426065,0.5734557956838316,0.6096736890022423,-10.623626,-2.051024,0.020472,0.035258,0.0007853981633974482,0.010506882097005864,3.1855750205532205
30.075187969924812,0.5734554766376444,0.6096736921438349,-10.660575,-2.06526,-0.00584,0.029058,0.0064053583548191895,0.01064650843716541,3.1884722845648232
31.07769423558897,0.5734551541007986,0.609673691969302,-10.670613,-2.06738,-0.008726,-0.009756,0.005393067388662479,0.008726646259971648,3.188350041704014
32.08020050125313,0.5734548306912882,0.609673689700374,-10.644892,-2.061369,0.021668,-0.030851,-0.003560471674068432,0.007155849933176751,3.186657072329579
33.08270676691729,0.5734545100743046,0.6096736954599605,-10.625714,-2.054662,0.044062,-0.000251,0.0003141592653589793,0.00778416846389471,3.187477324718139
34.08521303258145,0.5734541913771831,0.6096737040120739,-10.650726,-2.055766,0.015878,0.042922,0.005166174585903215,0.008918632477691025,3.1920150760535693
35.08771929824561,0.5734538716328642,0.6096737048847386,-10.696466,-2.055946,-0.032299,0.03852,0.0072082098107365804,0.008569566627292158,3.1963783991835553
36.09022556390977,0.5734535520630781,0.609673694761829,-10.715149,-2.047113,-0.044898,-0.001643,0.004939281783143952,0.00710349005561692,3.195523257663248
37.092731829573935,0.5734532337150225,0.6096736830681229,-10.699828,-2.044012,-0.020569,-0.020042,0.0042935099599060505,0.008133234314293577,3.1914044202548815
38.095238095238095,0.5734529143197694,0.6096736773085364,-10.684242,-2.060527,0.006975,-0.007383,-0.0013264502315156904,0.009896016858807848,3.1878789249790227
39.097744360902254,0.5734525926555883,0.6096736802755961,-10.686674,-2.073503,0.021686,0.010022,0.004799655442984407,0.009564404300928926,3.1855923342194
40.100250626566414,0.5734522680243475,0.6096736846389191,-10.702311,-2.066881,0.016423,0.018017,-0.0038222710618675817,0.007592182246175334,3.1847896572964083
41.10275689223057,0.5734519461856333,0.609673687605979,-10.722018,-2.05228,0.002631,0.019557,0.006335545184739416,0.0076445421237351634,3.184562764493649
42.10526315789473,0.5734516269649131,0.6096736855115839,-10.743366,-2.048277,-0.007338,0.022367,0.008569566627292158,0.010088003076527224,3.1841438505665853
43.10776942355889,0.5734513082677918,0.6096736801010632,-10.76382,-2.061449,-0.018235,0.015419,0.0002443460952792061,0.010681415022205296,3.183480450917902
44.11027568922306,0.5734509866036106,0.609673673643345,-10.765826,-2.071318,-0.007381,-0.012071,0.0023387411976724015,0.0071907565182166375,3.18021673757655
45.11278195488722,0.5734506631941002,0.6096736729452132,-10.743466,-2.065611,0.03622,-0.025535,-0.000296705972839036,0.003403392041388943,3.176028121904689
46.11528822055138,0.5734503417044521,0.6096736813227935,-10.728624,-2.054632,0.072255,0.002658,-0.0027052603405912107,0.0028099800957108708,3.175120253987679
47.11779448621554,0.5734500230073306,0.6096736935400984,-10.755054,-2.052482,0.048225,0.043295,0.003560471674068432,0.00312413936106985,3.1805658906934116
48.1203007518797,0.5734497039611434,0.6096737008704812,-10.80161,-2.056039,-0.012572,0.0382,0.011135200627723822,0.0025132741228718345,3.1856623742822827
49.122807017543856,0.5734493836932256,0.6096736949363617,-10.812875,-2.053994,-0.0402,-0.01957,0.005445427266222308,0.0005585053606381855,3.185644798816715
50.125313283208015,0.5734490623781103,0.6096736837662546,-10.766129,-2.051409,0.00053,-0.061551,-0.0028797932657906437,-3.490658503988659e-05,3.181805057009035
51.127819548872175,0.5734487417611267,0.6096736807991949,-10.708363,-2.059804,0.056519,-0.039792,-0.0014835298641951802,0.0016406094968746698,3.181089454562425
52.130325814536334,0.5734484211441432,0.6096736910966375,-10.698591,-2.070016,0.057699,0.020769,-0.00022689280275926284,0.003473205211468716,3.1857321525457776
53.1328320802005,0.5734480977346328,0.6096737005214155,-10.739743,-2.070233,0.003683,0.048071,0.0032637657012293962,0.004223696789826277,3.1912997528596394
54.13533834586466,0.5734477741505895,0.6096736984270203,-10.775792,-2.056867,-0.0387,0.014829,0.007609635538695277,0.002478367537831948,3.1922422481090087
55.13784461152882,0.5734474535336058,0.6096736886531765,-10.765201,-2.042075,-0.027719,-0.02942,0.0004363323129985824,0.0009948376736367678,3.188524469909458
56.14035087719298,0.5734471364072807,0.6096736794029315,-10.729123,-2.046521,0.0083,-0.03414,-0.002408554367752175,0.0010995574287564276,3.1849292138233976
57.14285714285714,0.5734468170120276,0.609673680624662,-10.704268,-2.063398,0.03155,-0.014546,0.004468042885105484,0.0006632251157578452,3.1847198790329134
58.1453634085213,0.5734464937770501,0.6096736879550448,-10.700676,-2.070955,0.029522,0.004269,-0.002949606435870417,-0.000890117918517108,3.1860112481464635
59.14786967418546,0.5734461689712764,0.6096736916202363,-10.708206,-2.066229,0.005341,0.004399,-0.0006806784082777885,-0.0029146998508305304,3.187180653651885
60.150375939849624,0.5734458464344306,0.6096736895258411,-10.703848,-2.056245,-0.010649,-0.015912,0.005497787143782138,-0.005462880558742251,3.1876693283891506
61.152882205513784,0.5734455277373093,0.6096736841153205,-10.679586,-2.047216,-0.001933,-0.028783,0.006457718232379019,-0.0065100781099388496,3.186779315190389
62.15538847117794,0.5734452092147206,0.6096736788793327,-10.653621,-2.04676,0.011847,-0.022014,0.0061959188445798695,-0.0057246799465414016,3.185906580751222
63.1578947368421,0.5734448899940005,0.6096736797519974,-10.636463,-2.053779,0.01265,-0.013287,-0.0003141592653589793,-0.004921828490624009,3.185767041677525
64.16040100250626,0.5734445683298194,0.609673680450129,-10.620701,-2.064225,-0.002032,-0.019932,0.0032288591161895096,-0.004886921905584123,3.187093299922823
65.16290726817043,0.5734442450948418,0.6096736774830693,-10.588116,-2.070699,-0.005275,-0.046967,0.0024609142453120045,-0.0065100781099388496,3.185958783549149
66.16541353383458,0.5734439223834632,0.6096736778321351,-10.53782,-2.057759,0.022993,-0.044041,-0.01007054978400728,-0.005462880558742251,3.182450863738858
67.16791979949875,0.573443600719282,0.609673680450129,-10.51357,-2.047009,0.031751,-0.003017,0.007661995416255106,-0.0013962634015954637,3.182311062865773
68.1704260651629,0.5734432813240289,0.6096736820209253,-10.525149,-2.053078,0.00346,0.015692,0.007557275661135447,0.001710422666954443,3.185609909684968
69.17293233082707,0.5734429600089137,0.6096736807991949,-10.528322,-2.062747,-0.010704,-0.015404,-0.00013962634015954637,0.0023038346126325153,3.186761722271529
70.17543859649122,0.5734426367739361,0.6096736788793327,-10.497598,-2.061415,0.017943,-0.036088,-0.004468042885105484,0.002722713633111154,3.1838469002476506
71.17794486215539,0.5734423156333539,0.6096736801010632,-10.467077,-2.054835,0.032997,-0.017658,0.0005585053606381855,0.0045029494701453706,3.1823286383313407
72.18045112781954,0.5734419976343641,0.6096736835917217,-10.464487,-2.049256,0.01482,0.012015,0.006318091892219472,0.007661995416255106,3.1831488907199006
73.1829573934837,0.5734416785881769,0.6096736828935899,-10.482234,-2.055796,-0.00584,0.015959,0.0037699111843077517,0.009494591130849153,3.1851209556950217
74.18546365914787,0.5734413584947919,0.609673680624662,-10.487952,-2.063639,0.006612,-0.005443,-0.0019896753472735357,0.009983283321407565,3.184126257647725
75.18796992481202,0.5734410349107487,0.6096736816718594,-10.4779,-2.058232,0.044519,-0.006353,-0.005131268000863329,0.010559241974565694,3.1819797644671595
76.19047619047619,0.5734407132465676,0.609673687431446,-10.487479,-2.046587,0.041162,0.027108,0.00486946861306418,0.013072516097437528,3.1843009651058494
77.19298245614034,0.5734403952475778,0.6096736910966375,-10.524179,-2.048141,-0.006144,0.037897,0.008220500776893291,0.015620696805349249,3.188262687974951
78.19548872180451,0.5734400765504565,0.6096736869078473,-10.547212,-2.057008,-0.024148,0.008588,0.002007128639793479,0.015742869852988853,3.188576934506773
79.19799498746866,0.57343975575894,0.6096736792283985,-10.542977,-2.065774,0.008905,-0.008932,-0.0008377580409572782,0.013561208287995941,3.185871709072767
80.20050125313283,0.5734394333966271,0.6096736795774644,-10.539304,-2.061873,0.045841,0.00826,-0.0033859387488689996,0.011990411961201045,3.1850514392309144
81.203007518797,0.5734391110343142,0.6096736888277093,-10.564449,-2.047747,0.043126,0.038705,0.0023212879051524586,0.012932889757277981,3.186814186868844
82.20551378446115,0.5734387930353245,0.6096736958090264,-10.609174,-2.039852,0.010293,0.043747,0.005864306286700947,0.014905111812031574,3.190985506327818
83.20802005012531,0.5734384759089993,0.6096736952854276,-10.643511,-2.046275,-0.01446,0.023879,0.0066322511575784525,0.01572541656046891,3.193551192688127
84.21052631578947,0.5734381565137464,0.609673687605979,-10.651873,-2.058323,-0.018029,-0.002406,0.005235987755982988,0.014852751934471744,3.193742934559751
85.21303258145363,0.5734378325806372,0.6096736811482608,-10.643209,-2.06342,-0.00235,-0.007502,-0.003490658503988659,0.014451326206513048,3.1915615522474385
86.21553884711778,0.5734375103928573,0.609673680624662,-10.643624,-2.058503,0.015477,0.013421,-0.0012740903539558606,0.015341444125030157,3.1888214202283924
87.21804511278195,0.5734371885541432,0.6096736834171887,-10.672853,-2.051635,0.011811,0.041744,0.006754424205218055,0.01699950691442477,3.1892224968905007
88.22055137844612,0.5734368689843572,0.6096736830681229,-10.717286,-2.050295,-0.00813,0.040745,0.002408554367752175,0.0182212373908208,3.1907237069400183
89.22305764411027,0.5734365499381698,0.6096736795774644,-10.748582,-2.052675,-0.006795,0.023754,0.0008377580409572782,0.019250981649497456,3.1898685654197116
90.22556390977444,0.573436229844785,0.6096736774830693,-10.766677,-2.054103,0.012476,0.018752,0.0006806784082777885,0.018989182261698306,3.187337506391762
91.22807017543859,0.5734359090532685,0.609673678181201,-10.789086,-2.051289,0.020252,0.028836,0.000767944870877505,0.017680185322702557,3.186761722271529
92.23057644110276,0.5734355887853508,0.6096736794029315,-10.823308,-2.05012,0.007639,0.041451,0.003159045946109736,0.017034413499464655,3.187634439257404
93.23308270676691,0.573435268517433,0.6096736802755961,-10.86343,-2.053696,-0.005566,0.03699,0.003996803987067015,0.014974924982111348,3.187739106652646
94.23558897243107,0.573434946678719,0.609673678006668,-10.891603,-2.05654,-0.002482,0.021596,-0.003351032163829113,0.012880529879718152,3.1852434603552187
95.23809523809523,0.5734346239673402,0.60967367573774,-10.901956,-2.054998,0.015356,0.003257,0.0024434609527920616,0.010663961729685353,3.182450863738858
96.2406015037594,0.5734343036994225,0.6096736774830693,-10.904165,-2.047828,0.031213,0.007635,0.0015533430342749533,0.010035643198967395,3.1808449862940984
97.24310776942356,0.5734339843041694,0.6096736821954583,-10.920262,-2.049335,0.019566,0.023643,0.004363323129985824,0.009843656981248018,3.1816130358847308
98.24561403508771,0.5734336645598506,0.6096736827190571,-10.9429,-2.057302,-0.002809,0.01735,0.0018151424220741027,0.008220500776893291,3.183480450917902
99.24812030075188,0.5734333432447352,0.6096736814973265,-10.947041,-2.062067,0.006062,-0.007207,-0.0009773843811168245,0.005462880558742251,3.1830966879219735
100.25062656641603,0.5734330205333564,0.6096736814973265,-10.936004,-2.05597,0.035709,-0.007233,-0.003159045946109736,0.003193952531149623,3.181578146752983
101.2531328320802,0.5734327006145046,0.6096736877805119,-10.941515,-2.046799,0.035694,0.020369,-0.00020943951023931956,0.002897246558310587,3.1827651277239717
102.25563909774435,0.5734323815683173,0.6096736917947692,-10.967982,-2.047272,0.001352,0.024502,0.011431906600562858,0.002548180707911721,3.1860288236120318
103.25814536340852,0.5734320607768009,0.6096736900494399,-10.976338,-2.051906,-0.013487,-0.011865,5.235987755982989e-05,-5.235987755982989e-05,3.187198229117453
104.26065162907267,0.5734317403343501,0.6096736863842485,-10.952227,-2.054287,0.006741,-0.028112,-0.002897246558310587,-0.0019722220547535923,3.185138792959977
105.26315789473684,0.5734314195428336,0.6096736860351826,-10.928663,-2.060729,0.015879,-0.018298,-0.0016755160819145565,-0.004485496177625427,3.184859173760515
106.265664160401,0.5734310970059879,0.609673687431446,-10.914661,-2.057504,0.00845,-0.011172,-0.0017278759594743863,-0.007138396640656807,3.1854179060139556
107.26817042606515,0.5734307751672737,0.6096736891767752,-10.900239,-2.053948,-0.000477,-0.020675,0.005916666164260778,-0.008325220532012952,3.1862906229998305
108.27067669172932,0.5734304545502902,0.6096736881295777,-10.871544,-2.050364,0.005424,-0.033824,0.005323254218582705,-0.00937241808320955,3.185924173670082
109.27318295739347,0.5734301339333066,0.6096736870823802,-10.840826,-2.050895,0.006648,-0.024172,-0.0033859387488689996,-0.009232791743050004,3.1855923342194
110.27568922305764,0.5734298126181914,0.6096736860351826,-10.823477,-2.057997,-0.008607,-0.013308,0.0009773843811168245,-0.00937241808320955,3.1865524049343374
111.27819548872179,0.5734294918266748,0.6096736820209253,-10.805824,-2.05854,-0.013028,-0.02413,0.002827433388230814,-0.010995574287564275,3.1855398696220854
112.28070175438596,0.5734291705115595,0.6096736790538656,-10.775275,-2.049382,0.001199,-0.033911,-0.0023387411976724015,-0.01117010721276371,3.182607995731415
113.28320802005013,0.5734288504181747,0.6096736771340034,-10.746516,-2.045599,0.012532,-0.020048,0.00010471975511965978,-0.009302604913129777,3.17965828457579
114.28571428571428,0.573428529975724,0.6096736764358718,-10.730725,-2.057602,0.00207,-0.016565,0.003735004599267865,-0.008918632477691025,3.1788028812560944
115.28822055137844,0.5734282074388782,0.6096736748650754,-10.702505,-2.068143,-0.007478,-0.040543,-0.0054105206811824215,-0.010210176124166827,3.1775464012742916
116.2907268170426,0.5734278838548349,0.6096736724216144,-10.646639,-2.065749,0.016676,-0.065192,-0.005864306286700947,-0.011711159280881952,3.174369779862614
117.29323308270676,0.5734275609689233,0.609673675912273,-10.587539,-2.051299,0.057156,-0.042779,-0.001832595714594046,-0.010716321607245184,3.172327936623998
118.29573934837092,0.5734272403519397,0.6096736872569132,-10.573821,-2.045356,0.053585,0.01217,0.0009948376736367678,-0.006894050545377602,3.17567898624112
119.29824561403508,0.5734269209566866,0.6096736938891643,-10.598404,-2.048039,0.003956,0.024638,0.007819075048934596,-0.003473205211468716,3.181508385942781
120.30075187969925,0.5734266008633018,0.6096736905730387,-10.606564,-2.055917,-0.029213,-0.014211,0.008307767239493008,-0.0021642082724729686,3.1830966879219735
121.3032581453634,0.5734262779773902,0.6096736820209253,-10.568131,-2.057947,-0.014327,-0.05148,-0.006108652381980153,-0.001954768762233649,3.1797978236494866
122.30576441102757,0.5734259557896103,0.6096736769594705,-10.514144,-2.054415,0.022611,-0.043539,-0.00466002910282486,0.0008377580409572782,3.176342385889803
123.30827067669172,0.5734256349980937,0.6096736802755961,-10.48867,-2.04913,0.045034,-0.002299,-0.0031764992386296795,0.005759586531581287,3.1773194910182396
124.31077694235589,0.5734253138575114,0.6096736900494399,-10.510427,-2.049598,0.037001,0.04253,0.00471238898038469,0.011239920382843483,3.181700127814405
125.31328320802004,0.573424992542396,0.6096736942382301,-10.558186,-2.053478,-0.003459,0.045306,0.005672320068981571,0.014625859131712481,3.186465051205275
126.3157894736842,0.5734246710527479,0.6096736902239729,-10.582824,-2.050782,-0.033357,0.005535,0.002548180707911721,0.015271630954950384,3.187198229117453
127.31829573934836,0.5734243492140338,0.6096736823699912,-10.570828,-2.051871,-0.012973,-0.017453,-0.0025830872929516074,0.015254177662430441,3.184039183171343
128.32080200501252,0.5734240278989184,0.6096736801010632,-10.562186,-2.057943,0.023293,0.012465,-0.003438298626428829,0.01679006740418545,3.181805057009035
129.32330827067668,0.5734237055366056,0.6096736835917217,-10.598619,-2.062589,0.013886,0.05782,-0.0005061454830783556,0.019390607989657,3.182834905987467
130.32581453634086,0.5734233819525624,0.609673684987985,-10.661705,-2.057316,-0.017871,0.058573,0.0038222710618675817,0.020315632493213994,3.1840564968375227
131.328320802005,0.5734230594157166,0.6096736816718594,-10.707423,-2.04755,-0.013854,0.035216,0.0022514747350726853,0.02035053907825388,3.181403718547539
132.33082706766916,0.5734227389732659,0.6096736762613388,-10.736686,-2.045115,0.010542,0.028924,-0.003490658503988659,0.020106192982974676,3.177528808355431
133.33333333333331,0.5734224204506775,0.609673675912273,-10.763517,-2.045064,0.017033,0.027816,0.0,0.01837831702350029,3.1759056172444917
134.3358395989975,0.5734221008808914,0.6096736787047997,-10.787663,-2.048205,0.013644,0.023236,0.0013439035240356337,0.016632987771505958,3.175591632512058
135.33834586466165,0.5734217809620394,0.6096736794029315,-10.807468,-2.056766,0.01085,0.01796,-0.0008203047484373349,0.014329153158873445,3.176411884900617
136.3408521303258,0.5734214585997266,0.6096736816718594,-10.824155,-2.065221,0.018106,0.017484,-0.0016929693744344998,0.011344640137963142,3.1774939366769765
137.34335839598998,0.5734211343175517,0.6096736842898535,-10.836551,-2.06182,0.024743,0.008813,-0.0027925268031909274,0.006946410422937432,3.1776510512162406
138.34586466165413,0.5734208110825741,0.6096736869078473,-10.845337,-2.046216,0.019547,0.010866,0.003246312408709453,0.004241150082346221,3.1785935464656103
139.34837092731829,0.5734204897674589,0.6096736881295777,-10.858862,-2.040029,-0.004703,0.014749,0.004171336912266448,0.004031710572106902,3.179832712781234
140.35087719298244,0.5734201681032777,0.6096736853370509,-10.865308,-2.047928,-0.018545,-0.005669,0.002949606435870417,0.0023911010752322315,3.1796758600413573
141.35338345864662,0.5734198464390966,0.6096736813227935,-10.844698,-2.05512,0.005794,-0.028943,-0.001780235837034216,0.0002443460952792061,3.1768134851615013
142.35588972431077,0.573419523378652,0.6096736818463924,-10.813119,-2.063513,0.037503,-0.028523,-0.002827433388230814,-0.0010471975511965976,3.176237456695173
143.35839598997492,0.5734192006672734,0.6096736893513082,-10.79145,-2.060163,0.045053,-0.010148,-0.0011519173063162576,-0.0023212879051524586,3.1783317645311038
144.36090225563908,0.5734188774322958,0.6096736977288887,-10.789934,-2.054047,0.017688,0.002784,0.00486946861306418,-0.0022165681500327986,3.1823286383313407
145.36340852130326,0.5734185562917136,0.6096737003468825,-10.789341,-2.046267,-0.003849,-0.007125,0.0004537856055185257,-0.0023387411976724015,3.185435202226843
146.3659147869674,0.5734182363728616,0.6096736972052899,-10.778424,-2.043036,-0.004303,-0.013175,-0.0007330382858376184,-0.0016231562043547264,3.185313238618714
147.36842105263156,0.5734179162794768,0.6096736921438349,-10.765062,-2.045177,-0.009911,-0.012492,0.004014257279586958,0.00022689280275926284,3.185086328362662
148.37092731829574,0.5734175949643615,0.6096736879550448,-10.744724,-2.055683,-0.010709,-0.028047,0.001954768762233649,0.0010471975511965976,3.1847198790329134
149.3734335839599,0.5734172706821864,0.6096736860351826,-10.708343,-2.064856,0.015773,-0.037602,-0.007853981633974483,-0.0005410520681182421,3.1829395559294165
150.37593984962405,0.5734169464000115,0.6096736886531765,-10.680064,-2.066104,0.033454,-0.013539,-0.0010297442586766543,-0.0015533430342749533,3.182729976792837
151.3784461152882,0.5734166217687705,0.6096736938891643,-10.681197,-2.059447,0.01588,0.011138,-0.0008028514559173916,-0.0024609142453120045,3.185278087687579
152.38095238095238,0.5734162994064577,0.6096736949363617,-10.688299,-2.042439,-0.007855,-0.000845,0.003787364476827695,-0.0036477381366681488,3.1870584107910753
153.38345864661653,0.5734159796621388,0.6096736916202363,-10.676027,-2.036582,-0.008525,-0.023377,0.0057246799465414016,-0.0023911010752322315,3.18651751580259
154.38596491228068,0.5734156602668857,0.6096736883041106,-10.647593,-2.046557,0.006726,-0.027904,0.0011344640137963143,-0.0018500490071139892,3.185103642028842
155.38847117794487,0.5734153391263033,0.6096736860351826,-10.623583,-2.064076,0.007651,-0.019364,-0.003560471674068432,-0.002234021442552742,3.1860288236120318
156.39097744360902,0.5734150171130563,0.6096736856861168,-10.608237,-2.065904,0.00073,-0.010718,-0.0010297442586766543,-0.003543018381548489,3.186814186868844
157.39348370927317,0.5734146928308812,0.609673684987985,-10.592495,-2.056536,0.002763,-0.023643,0.0015882496193148398,-0.005794493116621174,3.1863079192127177
158.39598997493732,0.573414371690299,0.6096736848134521,-10.565274,-2.037665,0.021156,-0.025625,-0.0010471975511965976,-0.005393067388662479,3.1844229461672713
159.3984962406015,0.5734140529931775,0.6096736869078473,-10.548745,-2.038865,0.02039,-0.00845,6.981317007977319e-05,-0.0029845130209103037,3.1846325253038508
160.40100250626566,0.5734137348196547,0.6096736884786436,-10.54247,-2.052829,-0.004972,-0.007253,0.007278022980816354,-0.002530727415391778,3.1870235216593277
161.4035087719298,0.5734134117592103,0.6096736853370509,-10.528057,-2.065058,-0.028724,-0.024385,0.0015009831567151233,-0.0049741883681838385,3.188070666850647
162.406015037594,0.5734130871279695,0.6096736795774644,-10.492037,-2.064126,-0.013349,-0.04415,-0.006108652381980153,-0.008168140899333463,3.1840216077057755
163.40852130325814,0.5734127628457945,0.6096736773085364,-10.443095,-2.05156,0.034982,-0.045576,-0.004642575810304917,-0.00926769832808989,3.178925385916292
164.4110275689223,0.5734124424033438,0.6096736830681229,-10.411086,-2.041801,0.05738,-0.015569,-0.002530727415391778,-0.0077492618788548235,3.179169592385231
165.41353383458645,0.5734121226590247,0.6096736937146313,-10.407172,-2.041043,0.034172,0.004242,0.006946410422937432,-0.007347836150896127,3.18337578352266
166.41604010025063,0.5734118020420412,0.6096736984270203,-10.411665,-2.048447,-0.008191,-0.00057,0.0036477381366681488,-0.00895353906273091,3.1876693283891506
167.41854636591478,0.57341148037786,0.6096736935400984,-10.390457,-2.051902,-0.027574,-0.040599,0.001832595714594046,-0.012060225131280817,3.1877042175208983
168.42105263157893,0.5734111574919484,0.6096736858606496,-10.330515,-2.049758,-0.004998,-0.070348,-0.004572762640225144,-0.013159782560037244,3.184841860094335
169.4235588972431,0.5734108356532344,0.6096736827190571,-10.260564,-2.057332,0.029947,-0.06059,-0.00307177948351002,-0.01069886831472524,3.1831840416510357
170.42606516290726,0.5734105127673227,0.6096736870823802,-10.212046,-2.063501,0.044287,-0.035742,0.0016406094968746698,-0.008779006137531478,3.184998992086892
171.42857142857142,0.5734101905795428,0.6096736975543557,-10.191828,-2.057072,0.035106,-0.006754,-0.0054105206811824215,-0.0071907565182166375,3.188123131447962
172.43107769423557,0.5734098669954995,0.6096737031394093,-10.191529,-2.044095,0.005533,0.001795,0.0005235987755982988,-0.0062482787221397,3.191526383863011
173.43358395989975,0.5734095481238451,0.6096737020922118,-10.187117,-2.031756,-0.023365,-0.01027,0.009075712110370514,-0.003560471674068432,3.1929927222340737
174.4360902255639,0.5734092301248555,0.6096736933655654,-10.168829,-2.043539,-0.034512,-0.027756,0.005096361415823442,-0.0003141592653589793,3.1920675406508843
175.43859649122805,0.5734089096824049,0.6096736855115839,-10.130046,-2.061838,-0.00978,-0.045298,-0.003665191429188092,8.726646259971648e-05,3.1896414108175644
176.44110275689223,0.5734085850511639,0.6096736841153205,-10.085707,-2.071047,0.033607,-0.036991,-0.004590215932745087,-0.001239183768915974,3.1875992883262683
177.4436090225564,0.5734082590236597,0.6096736926674338,-10.066825,-2.058155,0.049283,0.002705,-0.002722713633111154,-0.0004014257279586958,3.1890656266973316
178.44611528822054,0.5734079370104127,0.609673701743146,-10.088304,-2.040287,0.011426,0.034885,0.005044001538263612,0.0025656340004316645,3.1938827528861284
179.4486215538847,0.5734076177896925,0.6096737013940801,-10.119019,-2.033183,-0.032939,0.02091,0.008848819307611252,0.0056374134839416844,3.196832481495046
180.45112781954887,0.573407299092571,0.6096736912711704,-10.124506,-2.043432,-0.037806,-0.007059,-0.0023387411976724015,0.00778416846389471,3.195121919201752
181.45363408521303,0.5734069789991862,0.6096736794029315,-10.101681,-2.061159,-0.008952,-0.032564,-0.0037175513067479217,0.006841690667817772,3.1908456880014406
182.45614035087718,0.5734066547170111,0.609673678006668,-10.066183,-2.063442,0.034899,-0.029634,-0.008499753457212385,0.0049741883681838385,3.186866389666771
183.45864661654133,0.5734063299112374,0.6096736860351826,-10.057014,-2.055903,0.042934,0.012503,0.001361356816555577,0.004345869837465881,3.1882800016411315
184.4611528822055,0.5734060063271941,0.6096736933655654,-10.088189,-2.053762,0.00578,0.043863,0.00476474885794452,0.005235987755982988,3.192678475702252
185.46365914786966,0.5734056837903483,0.6096736914457034,-10.126332,-2.050488,-0.033498,0.023594,0.003473205211468716,0.006003932626860493,3.19341137436175
186.46616541353382,0.5734053617771013,0.6096736828935899,-10.129624,-2.038871,-0.012872,-0.011611,-0.0030368728984701333,0.008936085770210968,3.1882978389060863
187.468671679198,0.5734050420327823,0.6096736769594705,-10.118128,-2.03679,0.019006,-0.002402,0.0019198621771937625,0.01499237827463129,3.1855052422897256
188.47117794486215,0.5734047219393976,0.609673680624662,-10.126219,-2.049616,0.015303,0.020064,0.005916666164260778,0.02087413785385218,3.1869710570620127
189.4736842105263,0.5734043978317555,0.6096736853370509,-10.149208,-2.063765,0.007307,0.02561,-0.004380776422505767,0.025220007691318064,3.1884895807777105
190.47619047619045,0.5734040719787841,0.6096736877805119,-10.176828,-2.064932,0.012994,0.032288,-0.003961897402027128,0.028134707542148595,3.1883324662384465
191.47869674185463,0.5734037475220762,0.6096736872569132,-10.217871,-2.054245,0.016094,0.054303,0.0023212879051524586,0.031869712141416456,3.1888736230263195
192.4812030075188,0.5734034246361646,0.6096736877805119,-10.287653,-2.045472,-0.007396,0.082889,0.0003665191429188092,0.03546509040052478,3.1905317032690066
193.48370927318294,0.5734031040191809,0.6096736865587814,-10.37382,-2.045938,-0.028593,0.085061,0.0027401669256310974,0.03682644721708035,3.1903745712764495
194.48621553884712,0.5734027825295328,0.6096736788793327,-10.447709,-2.051177,-0.028183,0.061034,0.007278022980816354,0.036250488563922226,3.1880533706377596
195.48872180451127,0.5734024592945552,0.6096736731197462,-10.494737,-2.054368,0.000924,0.038555,0.0015184364492350666,0.03384193419617005,3.184527596109221
196.49122807017542,0.5734021357105119,0.6096736732942791,-10.533488,-2.057111,0.035113,0.048062,-0.009791297103688189,0.030892327760299633,3.1820492634779742
197.49373433583958,0.5734018129991333,0.6096736799265302,-10.595369,-2.054943,0.034501,0.075003,0.005899212871740834,0.028623399732707003,3.182311062865773
198.49624060150376,0.57340148941509,0.609673685162518,-10.677207,-2.05076,0.000208,0.082614,0.00307177948351002,0.025656340004316644,3.183620269244279
199.4987468671679,0.5734011665291783,0.6096736827190571,-10.746607,-2.052659,-0.027986,0.051743,-0.0003141592653589793,0.02007128639793479,3.182904404998281
200.50125313283206,0.573400847657524,0.6096736773085364,-10.774478,-2.030273,0.011369,0.017208,-0.0334579617607313,0.0059515727493006645,3.1935336172225597
201.50375939849624,0.573400535069055,0.609673671025351,-10.756442,-1.919961,-0.0666,-0.079239,0.08850564636863245,-0.06976081020221335,3.3493913972526053
202.5062656641604,0.5734002552927758,0.6096736284393174,-10.652039,-1.709275,-0.440508,-0.091774,0.15859806912872473,-0.059166661642607775,3.6176137886853117
203.50877192982455,0.5734000116448122,0.6096735565317521,-10.561808,-1.438085,-0.793342,-0.113652,0.09183922523994162,-0.07208209810736581,3.854332585693792
204.5112781954887,0.5733998228001872,0.6096734062589035,-10.426844,-1.108365,-1.049286,-0.154524,0.10969394348784361,-0.0696560904470937,4.096916212587749
205.51378446115288,0.5733996873626372,0.6096731929796689,-10.273053,-0.755578,-1.1976,-0.141505,0.1171814059788993,-0.056548667764616284,4.329411504792621
206.51629072681703,0.5733996032377673,0.6096729596291479,-10.160965,-0.431759,-1.307739,-0.083014,0.13908528809142812,-0.04174827570770436,4.544732338278849
207.51879699248119,0.5733995674585176,0.6096727110942625,-10.088992,-0.130515,-1.378741,-0.068406,0.10203194807158851,-0.03981096023799066,4.746492888501584
208.52130325814534,0.5733995801994212,0.6096724541817965,-10.017116,0.191523,-1.369844,-0.070748,0.10595893888857574,-0.036320301734002,4.953628756114489
209.52380952380952,0.5733996432058072,0.6096721950004026,-9.945396,0.55394,-1.383244,-0.065713,0.03551745027808461,-0.030874874467779687,5.124252161242747
210.52631578947367,0.5733997515907537,0.6096719295358234,-9.875727,0.794461,-1.435269,-0.074873,0.04806636759992384,-0.032183871406775436,5.191150247499254
211.52882205513782,0.5733999043070632,0.6096716516794065,-9.800696,0.930392,-1.512059,-0.06967,0.014259339988793671,-0.027523842303950576,5.202425004653968
212.531328320802,0.5734000830287787,0.6096713577659605,-9.743898,1.030835,-1.614214,-0.05035,0.01556833692778942,-0.024923301718479025,5.1991610295132284
213.53383458646616,0.5734002685572782,0.6096710420358987,-9.691837,1.125187,-1.721402,-0.061399,0.012199851471440364,-0.026022859147235455,5.196630494084054
214.5363408521303,0.5734004629869568,0.6096707053618861,-9.614786,1.201741,-1.790085,-0.088121,0.017243853009703977,-0.02378883770468271,5.199894469224794
215.53884711779446,0.573400663525288,0.6096703568196344,-9.536516,1.24911,-1.829707,-0.055759,0.011431906600562858,-0.0102799892942466,5.2046764444824545
216.54135338345864,0.573400868601475,0.6096700014705988,-9.517287,1.293994,-1.901717,0.011489,0.0012217304763960308,0.001064650843716541,5.2060202781933205
217.5438596491228,0.5734010796117816,0.6096696326825278,-9.533627,1.341517,-2.009865,0.002405,-0.003141592653589793,-1.7453292519943296e-05,5.207102574315775
218.54636591478695,0.5734012967307405,0.6096692464411643,-9.497931,1.376741,-2.060429,-0.072485,0.0015707963267948964,0.0009773843811168245,5.21090716519232
219.54887218045113,0.5734015176894238,0.6096688542656814,-9.432258,1.404318,-2.03879,-0.031814,0.004537856055185257,0.020577431881013145,5.2126872264964295
220.55137844611528,0.5734017430114302,0.6096684640100606,-9.464367,1.428978,-2.082463,0.083828,-0.013596114873035827,0.032271137869375154,5.210872555313253
221.55388471177943,0.573401972173161,0.6096680685184521,-9.554745,1.462141,-2.171164,0.073529,-0.008831366015091307,0.022444934180647077,5.209842968134208
222.55639097744358,0.5734022063963466,0.6096676594132755,-9.599244,1.474992,-2.203874,0.020142,-0.003665191429188092,0.018709929581379212,5.210872555313253
223.55889724310777,0.5734024395723348,0.60966724262865,-9.621711,1.473404,-2.191113,0.037779,-0.011484266478122689,0.026476644752753978,5.210820352515326
224.56140350877192,0.5734026725737899,0.6096668284620187,-9.681567,1.480587,-2.204845,0.076771,-0.004537856055185257,0.028867745827986208,5.208621115484765
225.56390977443607,0.5734029066224425,0.6096664139463213,-9.755377,1.491308,-2.248302,0.06319,-0.00986111027376796,0.022130774915288098,5.20717235257927
226.56641604010025,0.5734031424164245,0.6096659908785105,-9.802196,1.498545,-2.282395,0.033759,-0.011414453308042916,0.017121679962064373,5.206003226326529
227.5689223057644,0.5734033799557356,0.6096655601312512,-9.826335,1.506144,-2.299376,0.018342,-0.007504915783575617,0.016615534478986015,5.2049906910142765
228.57142857142856,0.5734036167969152,0.6096651283367942,-9.845602,1.501492,-2.28861,0.028261,-0.0124965574442794,0.0183434104384604,5.204309995152706
229.5739348370927,0.5734038525908972,0.6096647002075287,-9.900725,1.505192,-2.286536,0.080154,-0.008115781021773632,0.019669860669976093,5.2029315341094815
230.5764411027569,0.5734040882103462,0.609664272427329,-9.984211,1.51189,-2.326781,0.06957,-0.016877333866785166,0.008307767239493008,5.201203152004523
231.57894736842104,0.5734043269713878,0.6096638371422136,-10.015614,1.506311,-2.330677,-0.010082,-0.015620696805349249,-0.0008028514559173916,5.201308063745861
232.5814536340852,0.5734045622417709,0.6096634048241579,-9.984695,1.501674,-2.290379,-0.0381,-0.012304571226560023,0.003665191429188092,5.20088888801941
233.58395989974937,0.5734047950686932,0.6096629759967607,-9.970942,1.492681,-2.291149,0.012096,-0.009093165402890457,0.010489428804485921,5.197573251132812
234.58646616541353,0.573405028942813,0.6096625478674952,-9.999398,1.484864,-2.321671,0.035636,-0.020943951023931952,0.008133234314293577,5.195391065969043
235.58897243107768,0.5734052614206694,0.6096621153749066,-10.026853,1.476039,-2.334381,0.010222,-0.01202531854624093,0.0011519173063162576,5.192738549478446
236.59147869674183,0.5734054925022624,0.6096616785189948,-10.019448,1.471496,-2.310578,-0.021004,-0.013107422682477415,-0.0006108652381980154,5.1915694232257055
237.593984962406,0.5734057230602565,0.6096612481208012,-10.005224,1.47896,-2.285042,-0.001969,-0.008220500776893291,0.00481710873550435,5.192214968156141
238.59649122807016,0.5734059544909152,0.6096608220859308,-10.018623,1.470706,-2.303701,0.018883,-0.0073129295658562405,0.004171336912266448,5.189282832466083
239.59899749373432,0.5734061852234424,0.6096603916877372,-10.039338,1.463981,-2.330461,0.015535,-0.01647590813882647,0.0003665191429188092,5.18724072742808
240.6015037593985,0.5734064157814367,0.6096599579734182,-10.040408,1.467346,-2.331887,-0.018001,-0.009773843811168246,-0.0037000980142279784,5.186961631827393
241.60401002506265,0.5734066456412991,0.6096595235609673,-10.010484,1.455755,-2.315749,-0.038467,-0.010297442586766544,-0.0006632251157578452,5.184133884279897
242.6065162907268,0.5734068735812994,0.6096590942099713,-9.976819,1.447219,-2.294165,-0.021635,-0.008936085770210968,0.006056292504420323,5.181760463389987
243.60902255639095,0.57340709855424,0.609658670444029,-9.984262,1.4447,-2.306694,0.036029,-0.008918632477691025,0.010471975511965976,5.179631004622922
244.61152882205513,0.573407322479983,0.6096582381259732,-10.022587,1.431962,-2.350015,0.021607,-0.013892820845874863,0.0013962634015954637,5.176349454016615
245.6140350877193,0.5734075457075943,0.6096578003973968,-10.018222,1.41745,-2.33973,-0.022191,-0.006387905062299246,-0.0023911010752322315,5.174063927907835
246.61654135338344,0.5734077663172119,0.6096573616216229,-10.000615,1.413185,-2.320763,-0.003613,-0.0077492618788548235,0.003665191429188092,5.172597589536773
247.6190476190476,0.5734079879740268,0.6096569294781,-10.009382,1.424215,-2.332757,0.013909,-0.0028623399732707008,0.003420845333908886,5.171236197813632
248.62155388471177,0.5734082117252368,0.6096564966364456,-10.011659,1.413799,-2.343301,-0.018998,-0.009407324668249437,-0.00047123889803846896,5.17090435836295
249.62406015037593,0.5734084325093873,0.6096560620494619,-9.970521,1.382791,-2.325565,-0.056238,-0.008691739674931762,0.0007155849933176752,5.168129354665449
250.62656641604008,0.5734086489302146,0.6096556318258012,-9.935852,1.369552,-2.315728,-0.002912,-0.005462880558742251,0.013316862192716735,5.163713287685468
251.62907268170426,0.5734088573225272,0.609655209979721,-9.971128,1.264424,-2.18375,0.045591,0.06852162643329739,-0.0490612052735606,5.152212161326771
252.6315789473684,0.5734090468652839,0.6096548263563514,-9.819423,1.188378,-1.970149,-0.427607,0.05239478414486977,-0.30134853119604843,5.179055237955981
253.63408521303256,0.5734092318701848,0.6096544842718181,-9.246156,1.163411,-1.817136,-0.640694,0.017016960206944712,-0.33194415298350904,5.186717146105774
254.63659147869672,0.5734093985491283,0.6096541660982954,-8.60512,1.135444,-1.745828,-0.652738,-0.009808750396208134,-0.3398505119483359,5.188916383136334
255.6390977443609,0.5734095716857901,0.6096538713121847,-7.954988,1.130642,-1.726565,-0.659813,0.01033234917180643,-0.34599405346206336,5.190609090711381
256.64160401002505,0.5734097498839067,0.6096535615162425,-7.281759,1.155206,-1.699769,-0.700529,0.012636183784438945,-0.3506017226873284,5.194605964511618
257.64411027568923,0.5734099324453464,0.6096532504985698,-6.570389,1.182865,-1.652936,-0.725868,0.0063006385996995295,-0.35028758087526196,5.19949286896391
258.64661654135335,0.5734101207663728,0.6096529485566091,-5.854343,1.188328,-1.625265,-0.703225,0.01022762941668677,-0.34667473187034115,5.203384813569516
259.64912280701753,0.5734103092619319,0.609652648010912,-5.179466,1.178896,-1.646778,-0.661623,0.002530727415391778,-0.34384731593540285,5.2069108324441515
260.6516290726817,0.5734104946158984,0.6096523425782929,-4.512043,1.172299,-1.661176,-0.693327,0.0012217304763960308,-0.3474601649403236,5.206683398589323
261.65413533834584,0.5734106827623919,0.6096520429052603,-3.802001,1.232936,-1.48909,-0.707036,0.0374896723328382,-0.35096827673683223,5.293199387063975
262.65664160401,0.573410892550968,0.6096517886107883,-3.157753,1.409927,-1.248047,-0.583863,0.006073745796940267,-0.3410722424247319,5.477314361843074
263.65914786967414,0.5734110974526222,0.6096515632887818,-2.596971,1.445223,-1.060447,-0.579334,-0.0004886921905584122,-0.32986722862692824,5.6399967457675615
264.6616541353383,0.5734113267888858,0.6096513882322578,-2.021303,1.550166,-0.893547,-0.5425,0.1342856326484437,-0.2614328512029381,5.7265649370401395
265.6641604010025,0.5734115636300654,0.6096512232986435,-1.543976,1.57877,-0.79778,-0.421788,-0.009826203688728075,-0.2045002284561756,5.753861799274868
266.66666666666663,0.57341180972149,0.6096511054889191,-1.162897,1.551642,-0.671127,-0.35254,-0.0029321531433504737,-0.16934929732100978,5.763338919659905
267.6691729323308,0.5734120647140937,0.6096510030380919,-0.837281,1.647831,-0.565405,-0.310373,0.006370451769779303,-0.1834166510920841,5.737123829948855
268.671679197995,0.5734123097583206,0.6096509098375099,-0.592601,1.425026,-0.616849,-0.138001,-0.025743606466916362,-0.18680258984095308,5.7555374549831235
269.6741854636591,0.5734125277499442,0.6096508267598376,-0.421725,1.262696,-0.376557,-0.272747,-0.015533430342749533,-0.10548769999053727,5.818857843165845
270.6766917293233,0.5734127162455034,0.6096507674186429,-0.273404,1.35693,-0.464687,0.202626,0.021868975527488947,0.010262536001726658,5.759446975054298
271.6791979949875,0.5734129146894393,0.6096506494343855,-0.522204,1.37871,-0.571862,0.213876,-0.052342424267309944,-0.09347983473681629,5.7267742543773315
272.6817042606516,0.57341311400604,0.6096506122588725,-0.659846,1.047815,-0.383877,0.037457,0.03953170755767157,-0.027122416575991883,5.801649036367521
273.6842105263158,0.5734132752744628,0.6096504989870041,-0.444009,1.113089,-0.304625,-0.304935,0.05667084081225588,-0.04310963252425994,5.731451824039138
274.68671679197996,0.5734134340994247,0.6096504838026395,-0.339004,1.152908,-0.130274,0.085335,0.06466444878638991,-0.10224138758182783,5.768504919712884
275.6892230576441,0.5734136100286134,0.6096504557028385,-0.545755,1.100686,-0.345753,0.226045,-0.03858922976159462,-0.10091493735031214,5.768034082240573
276.69172932330827,0.5734137828162092,0.6096503829226088,-0.620522,1.023083,-0.488375,-0.065256,0.01069886831472524,-0.10705849631733218,5.758871208387358
277.6942355889724,0.5734139329145249,0.6096502829152427,-0.427383,1.026656,-0.298583,-0.255927,0.0041887902047863905,-0.10595893888857574,5.763181805120641
278.69674185463657,0.5734140943574808,0.609650242249071,-0.184511,1.089008,0.005743,-0.143649,0.04377285764001779,-0.08745844881743585,5.769848753423749
279.69924812030075,0.5734142566731012,0.6096502298572334,-0.371716,1.008606,-0.11216,0.383702,-0.03214896482173555,-0.09768607823412263,5.77484058707067
280.7017543859649,0.5734144052006205,0.6096502078660848,-0.552067,0.851536,-0.383091,-0.071819,-0.07105235384868915,-0.10016444577195457,5.7749455162653
281.70426065162906,0.5734145483176193,0.6096501544590096,-0.396466,1.021693,-0.156946,-0.105047,0.10445795573186063,-0.09330530181161686,5.776690950237049
282.70676691729324,0.5734147015575275,0.6096501148400357,-0.336836,0.990972,-0.037769,-0.004194,-0.0300720230118623,-0.1355247989640672,5.781263590704227
283.70927318295736,0.5734148293156287,0.6096500801079835,-0.398859,0.723522,-0.241909,-0.005694,-0.07806857744170635,-0.07009242276009227,5.796971449252421
284.71177944862154,0.5734149720835616,0.6096500637018886,-0.403638,0.969386,-0.170507,0.056701,0.0822748209390127,-0.06012659273120465,5.775381743858543
285.7142857142857,0.5734151015869922,0.609650004360694,-0.382423,0.891184,-0.242585,-0.050492,-0.026703537555513242,-0.0791332282854229,5.770651971398809
286.71679197994985,0.5734152508126431,0.6096499870819344,-0.360509,0.884597,-0.023921,-0.014895,-0.0023911010752322315,-0.014852751934471744,5.784021036389453
287.719298245614,0.5734153876464565,0.6096499591566664,-0.372597,0.854209,-0.097705,0.035356,0.03155555287605748,-0.04960225734167885,5.774980667196435
288.72180451127815,0.573415503187253,0.6096499403071104,-0.324588,0.702683,-0.223068,-0.222415,-0.06899286533133585,-0.013631021458075715,5.77346160242867
289.72431077694233,0.5734156382757372,0.6096499233774167,-0.179493,0.934357,-0.006736,0.073152,0.06475171524898962,-0.04661774432076854,5.759272808648242
290.7268170426065,0.5734157578307909,0.609649894754017,-0.317858,0.695381,-0.200625,0.108043,0.010978120995044333,-0.04522148091917308,5.784387485719202
291.72932330827064,0.5734158829708982,0.6096498677014136,-0.30842,0.898324,-0.083391,-0.079586,0.017016960206944712,0.05262167694762904,5.753198678878866
292.7318295739348,0.5734160332437468,0.6096498565313063,-0.259037,0.858374,-0.109322,-0.025342,0.1152091839241457,-0.02588323280707591,5.745362063270949
293.734335839599,0.5734161379635019,0.6096498331438944,-0.27933,0.541369,-0.228128,0.057547,-0.0659908990179056,0.011676252695842066,5.781053732314968
294.7368421052631,0.5734162550750947,0.609649801378902,-0.25154,0.880328,-0.006176,-0.156033,0.06206390820091836,0.006021385919380436,5.737560057542098
295.7393483709273,0.5734163487992755,0.6096497823548132,-0.150361,0.613338,-0.102008,-0.137284,0.04804891430740389,-0.009302604913129777,5.816833313593409
296.7418546365915,0.5734164781281731,0.6096498142943384,-0.140923,0.785771,0.122155,0.191792,-0.009232791743050004,0.02476622208579954,5.79021714722025
297.7443609022556,0.5734165800554014,0.6096497795622864,-0.392501,0.655205,-0.305903,0.277897,-0.0006457718232379018,0.003351032163829113,5.830342458709818
298.7468671679198,0.57341669332727,0.609649764377922,-0.335117,0.721168,-0.130712,-0.384956,0.030630528372500482,0.021240656996770992,5.825629738116875
299.74937343358397,0.5734168174201798,0.6096497380234501,-0.090152,0.838824,0.222904,0.084715,0.10773917472560997,-0.026895523773232618,5.850047191058249
300.7518796992481,0.5734169214418031,0.6096497647269876,-0.31336,0.46751,-0.029863,0.141738,-0.07195992505972622,0.004276056667386108,5.887868336322626
301.7543859649123,0.5734170177839778,0.6096497849728071,-0.321838,0.727928,-0.035691,-0.027644,0.01731366617978375,0.07244861725028462,5.886733296350176
302.7568922305764,0.5734171392588938,0.609649759316467,-0.231536,0.916211,-0.052886,-0.09011,0.09957103382627651,-0.01960004749989632,5.848336908017634
303.7593984962406,0.573417264573534,0.6096497652505865,-0.306682,0.516531,-0.04328,0.209927,-0.056775560567375545,-0.04532620067429274,5.933368982655655
304.76190476190476,0.5734173624865051,0.6096497261552112,-0.212001,0.692467,-0.116248,-0.41481,0.027541295596470523,0.06042329870404369,5.898182760963015
305.7644110275689,0.5734174684279907,0.6096497299949356,-0.032277,0.807628,0.337856,0.198265,0.15795229730548685,-0.05892231554732856,5.9457782387307505
306.76691729323306,0.5734175652937642,0.6096497786896217,-0.351624,0.527255,-0.018529,0.218875,-0.15409511965857936,0.039235001584832535,5.990476208140787
307.76942355889724,0.5734176689663218,0.6096497560003414,-0.385665,0.686497,-0.148476,-0.184294,-0.04951499087907913,0.01815142422074103,5.981574854422691
308.77192982456137,0.5734177696718196,0.6096497607127305,-0.186139,0.724332,0.183356,-0.089645,0.19355701404617115,-0.022165681500327987,6.025313014917179
309.77443609022555,0.5734178705518503,0.6096497486699586,-0.180465,0.573509,0.095128,0.014285,-0.11971213339429106,0.0028099800957108708,6.040951095201878
310.77694235588973,0.5734179813802579,0.6096497910814594,-0.203801,0.719189,0.080018,0.011765,-0.04312708581677988,0.017505652397503124,6.031857999612158
311.77944862155385,0.5734180822602887,0.6096498055676922,-0.254901,0.669187,-0.001632,0.047451,0.08316493885752979,0.001762782544514273,6.075159408914627
312.78195488721803,0.5734181941358937,0.6096498228464519,-0.267984,0.590888,0.087655,-0.010427,0.003665191429188092,-0.018081611050661254,6.086067716739591
313.7844611528822,0.5734182731993088,0.6096498029496984,-0.221712,0.574375,0.08739,-0.062239,0.02138028333693054,0.026319565120074488,6.085718842875411
314.78696741854634,0.573418373032142,0.6096498383798821,-0.223245,0.671614,0.18646,0.109602,0.03255039054969425,-0.0020420352248333657,6.0939916860765715
315.7894736842105,0.57341846658179,0.6096498474555943,-0.311992,0.596731,-0.070489,-0.019203,-0.06487388829662923,0.01054178868204575,6.109106185038964
316.79197994987464,0.5734185802027243,0.6096498567058393,-0.197508,0.690143,0.080286,-0.158519,0.06290166624187564,-0.0006806784082777885,6.095719544582753
317.7944862155388,0.5734186683418515,0.6096498678759465,-0.186699,0.51217,0.309706,0.127314,0.0562345084992573,-0.01228711793404008,6.146264209907338
318.796992481203,0.5734187664293554,0.609649917966896,-0.304514,0.684909,0.034436,0.050526,-0.04921828490624009,0.0693768377667746,6.136542603800682
319.79949874686713,0.5734188592808716,0.6096499240755484,-0.394664,0.591982,-0.085487,0.042557,0.00874409955249159,-0.049864056729477996,6.166963361050386
320.8020050125313,0.573418963651561,0.6096499437977689,-0.327283,0.660432,0.211475,-0.156999,0.13716542591423436,0.03680899392456041,6.164729496687466
321.8045112781955,0.5734190683713161,0.6096499080185194,-0.155293,0.747108,0.061548,-0.099155,-0.04797910113732412,-0.031014500807939233,6.183422234775713
322.8070175438596,0.573419170996676,0.6096499619491932,-0.205189,0.542178,0.266317,0.042966,0.009930923443847734,0.016249015336067207,6.176947010890937
323.8095238095238,0.5734192696077788,0.6096499923179223,-0.138249,0.672024,0.256196,-0.083202,0.0738099740668402,0.033946653951289714,6.213057890567991
324.812030075188,0.5734193701387438,0.6096500560224398,-0.327808,0.629892,-0.002108,0.384451,-0.016720254234105676,-0.050649454892875444,6.19986351558218
325.8145363408521,0.5734193125428784,0.6096499219811534,-0.517233,0.535816,-0.254007,-0.199785,-0.07726572598578896,0.04473278872861467,6.24196063024748
326.8170426065163,0.5734193563506427,0.609649920410357,-0.162722,0.780011,0.387915,-0.282437,0.20938715036175973,0.01673770752662562,6.218067282227188
327.8195488721804,0.5734194462350991,0.6096499794024857,-0.137413,0.594272,0.289095,0.159456,-0.06066764479932289,0.021642082724729686,0.025970499269675623
328.8220551378446,0.5734195204115923,0.6096500675416129,-0.309045,0.658314,0.265836,0.247294,-0.06051056516664341,0.050265482457436686,0.010105456369047167
329.82456140350877,0.5734195989514086,0.60965009302342,-0.509915,0.519984,-0.105451,-0.048185,0.06951646410693414,0.00958185759344887,0.06859143960337716
330.8270676691729,0.5734196654484531,0.6096501268828075,-0.214814,0.626943,0.305325,-0.281814,0.05253441048502932,0.0470017167562073,0.07572983624403397
331.8295739348371,0.5734197658048852,0.6096501658036498,-0.195946,0.554759,0.124641,0.101277,0.02864085302522695,-0.04197516851046362,0.13760175822723295
332.83208020050125,0.5734198282876724,0.6096502370130833,-0.235776,0.593927,0.21528,0.049406,0.08504989444968368,0.03820525732615587,0.1637118838370681
333.8345864661654,0.5734199225354519,0.609650270348872,-0.27507,0.651304,0.158504,0.02594,-0.009005898940290741,0.006824237375297829,0.18565067253463685
334.83709273182956,0.573419997061011,0.6096503366713836,-0.340756,0.485262,0.202858,0.011706,0.011239920382843483,-0.0016231562043547264,0.2376091069132155
335.83959899749374,0.573420062336325,0.6096503789083515,-0.214404,0.512245,0.288858,-0.219705,0.029967303256742638,0.052569317070069205,0.2798286215189583
336.84210526315786,0.5734201543151766,0.6096504464525936,-0.206391,0.653605,0.184407,0.26402,0.060859631017042275,-0.060039326268604934,0.2987654613563893
337.84461152882204,0.5734202784080865,0.6096503804791479,-0.462601,0.392325,0.038897,0.045611,-0.042743113381341125,0.039339721339952186,0.34665731348440626
338.8471177944862,0.5734203962178109,0.6096503879840637,-0.235295,0.791761,0.414263,-0.269668,0.03984586682303054,0.07204719152232593,0.37765434354653304
339.84962406015035,0.5734205098387453,0.6096504530848447,-0.335134,0.518465,0.290586,0.38647,0.04673991736840814,-0.04359832471481836,0.4093146161777102
340.8521303258145,0.5734205724960654,0.6096504796138492,-0.465996,0.33657,0.078563,-0.218998,-0.13863150248590958,0.06229080100367762,0.47169266619069494
341.85463659147865,0.5734206655221145,0.6096505077136504,-0.110861,0.719056,0.290414,-0.264349,0.10583676584093614,0.029740410453983374,0.5178217183209051
342.85714285714283,0.5734207566283015,0.6096505721162997,-0.163675,0.397831,0.382501,0.284046,0.11421434625050891,-0.05286602304290824,0.5277875658030853
343.859649122807,0.5734208023559278,0.6096506572883672,-0.402443,0.506669,0.155211,0.12213,-0.1583013806091782,0.04855505979048225,0.5736548185454963
344.86215538847114,0.5734208948583782,0.6096507187239568,-0.367557,0.79542,0.22166,-0.061084,0.006126105674500096,-0.001832595714594046,0.6159267104820914
345.8646616541353,0.5734209709547337,0.6096507878389953,-0.390453,0.304048,0.301924,-0.009403,0.1344776188661631,-0.024329889772800952,0.5929581426192609
346.8671679197995,0.5734210268052696,0.6096508152406646,-0.280224,0.417558,0.242754,-0.183131,-0.11086331408667982,0.02642428487519415,0.6548126636698176
347.8696741854636,0.5734211238455762,0.6096508436895314,-0.176489,0.659025,0.304665,0.12017,-0.005218534463463045,-0.024207716725161352,0.652037572705854
348.8721804511278,0.5734211943568779,0.6096508759781225,-0.429745,0.296579,0.148085,0.152243,0.08960520379738889,-0.02506292805863857,0.6757565623338719
349.874686716792,0.5734212702787004,0.6096508838321041,-0.382028,0.593637,0.297592,-0.209645,-0.15547392976765487,0.15406021307353948,0.729320717077578
350.8771929824561,0.573421369238869,0.6096509508527473,-0.310501,0.490847,0.492765,0.134694,0.1607273708161578,-0.007504915783575617,0.7194595544439324
351.8796992481203,0.5734214360849792,0.6096510067032834,-0.429063,0.411763,0.192975,0.061259,-0.02192133540504878,0.044401176170735746,0.7786088326071903
352.88220551378447,0.5734215062472151,0.6096510391664075,-0.470956,0.481662,0.227233,0.00877,-0.10768681484805014,0.04314453910929983,0.7927285113492394
353.8847117794486,0.5734215854851633,0.6096510655208793,-0.490988,0.499102,0.142193,-0.056342,0.10046115174479361,0.007452555906015787,0.8330631576292911
354.8872180451128,0.5734216601852553,0.6096510857666986,-0.313581,0.389323,0.297712,-0.284644,-0.014556045961632708,0.05754350543825305,0.8409170869033878
355.8897243107769,0.5734217303474912,0.6096511601177246,-0.138198,0.413178,0.531235,-0.00961,0.009232791743050004,0.011833332328521556,0.8560142023864313
356.8922305764411,0.5734218050475831,0.6096512349923495,-0.202224,0.537155,0.311437,0.178665,-0.030857421175259747,-0.021973695282608608,0.8862956125486554
357.89473684210526,0.573421886903525,0.6096512648374799,-0.436216,0.434554,0.068157,0.173823,-0.040962877544306914,-0.031066860685499065,0.9488482827533022
358.8972431077694,0.5734219462447196,0.6096512847342332,-0.461597,0.370022,0.238424,-0.160783,0.07525859734599549,0.06129596333004085,0.9394409231784678
359.89974937343356,0.5734220284497275,0.6096513250513389,-0.237728,0.523584,0.310651,-0.142372,-0.04907865856608054,0.0004537856055185257,0.9706823342424588
360.90225563909775,0.5734220942486402,0.6096513898030542,-0.200956,0.33399,0.428781,-0.031497,0.07314674895108235,0.050946160865714483,0.9588838735923921
361.90476190476187,0.5734221630146127,0.6096514754987206,-0.216851,0.466671,0.449472,0.206751,0.01918116847941768,-0.027977627909469102,0.9714851507917912
362.90726817042605,0.5734222427761595,0.6096515149431616,-0.492019,0.567843,-0.016746,0.247884,-0.06604325889546543,-0.01869247628885927,1.0513165282313044
363.90977443609023,0.5734223241085027,0.6096515201791494,-0.423148,0.481103,0.203933,-0.347639,0.06295402611943547,0.04492477494633404,1.0500424029707636
364.91228070175436,0.5734223988085947,0.6096515896432536,-0.1916,0.373607,0.567513,-0.058659,0.0765501409924713,0.007452555906015787,1.0428691171983593
365.91478696741854,0.5734224609423161,0.6096516694048004,-0.199439,0.418061,0.282418,0.143133,-0.08440412262644578,-0.04366813788489812,1.1025594823363205
366.91729323308266,0.5734225225524386,0.6096517174013549,-0.364541,0.423137,0.224932,0.128711,0.0016755160819145565,0.023719024534602937,1.1357031801119377
367.91979949874684,0.5734225890494832,0.6096517477700838,-0.387526,0.44712,0.146433,-0.137321,0.029094638630745476,-0.0048345620280242935,1.163995002193351
368.922305764411,0.5734226707308921,0.6096517959411711,-0.272234,0.5188,0.427033,-0.095433,-0.05951572749300664,0.052639130240148976,1.1717966064964729
369.92481203007515,0.5734227447328524,0.6096518718629937,-0.369077,0.271328,0.376048,0.091756,0.07129669994396837,-0.0445058959258554,1.2167214687092696
370.9273182957393,0.5734228044231128,0.6096519165434225,-0.306693,0.466335,0.20845,-0.10188,-0.05761331860833282,0.0499862297771176,1.2349601244860253
371.9298245614035,0.5734228676040317,0.6096519746628866,-0.332838,0.236535,0.358628,0.087063,0.003892084231947355,-0.025010568181078743,1.2395327824064954
372.93233082706763,0.5734229190912448,0.6096520212631776,-0.355554,0.414283,0.230339,0.020873,0.014852751934471744,0.023806290997202658,1.3149136924264706
373.9348370927318,0.5734230030415818,0.609652069259732,-0.293542,0.575504,0.264621,0.049835,-0.10578440596337631,0.012845623294678265,1.3231516464958837
374.937343358396,0.5734230637790396,0.6096521242376035,-0.338058,0.332878,0.291491,-0.005778,0.10355038452082357,-0.0033684854563490563,1.3701706769182709
375.9398496240601,0.5734231227711685,0.6096521781682773,-0.238961,0.40075,0.352102,-0.20081,-0.03373721444105039,0.01895427567665842,1.3710433939041458
376.9423558897243,0.5734231842067581,0.6096522682272667,-0.167205,0.366135,0.547443,0.077048,-0.06825982704549823,-0.005061454830783556,1.4306115161812971
377.9448621553885,0.5734232536708623,0.6096523343752455,-0.42688,0.418792,0.090102,0.415919,0.02855358656262723,-0.04701917004872724,1.423019246668659
378.9473684210526,0.5734232892755791,0.6096523483378795,-0.538484,0.312542,0.094057,-0.381088,-0.003473205211468716,0.038659042931674395,1.4692007284895992
379.9498746867168,0.5734233781128381,0.6096523830699315,-0.264928,0.505106,0.427609,0.048101,-0.11613420842770268,0.09145525280450287,1.508278615535167
380.9523809523809,0.5734234168591474,0.6096524860443574,-0.321502,0.195366,0.523102,-0.07444,0.17189747802892152,-0.0024609142453120045,1.5073361202857976
