Time [s],Longitude [rad],Latitude [rad],Altitude [m],V North [m/s],V East [m/s],V Down [m/s],Roll [rad],Pitch [rad],Yaw [rad]
0.0,0.6095032195526074,0.5734710303138063,-12.607079,-0.331027,2.046348,-0.040323,-0.004572762640225145,0.01705186679198456,1.8121928330915247
1.0025062656641603,0.6095036017797136,0.5734709762085997,-12.574652,-0.328298,2.038827,-0.025974,6.981317007977095e-05,0.017592918860102946,1.8126117470185883
2.0050125313283207,0.6095039847049514,0.5734709234996562,-12.555842,-0.327866,2.035723,-0.018176,0.0004886921905584104,0.015865042900628623,1.8129607605091096
3.007518796992481,0.6095043648376626,0.5734708716633774,-12.53675,-0.330831,2.036161,-0.023101,-0.0014311699866353515,0.01363102145807571,1.8136240205314529
4.010025062656641,0.6095047447958407,0.5734708191289669,-12.509441,-0.336403,2.03812,-0.031836,-0.006318091892219473,0.012636183784439092,1.81435705881729
5.012531328320802,0.6095051261502823,0.5734707643256284,-12.476822,-0.342661,2.037218,-0.031616,-6.981317007977236e-05,0.012479104151759568,1.8148457510078486
6.015037593984962,0.609505509599119,0.5734707098713557,-12.449796,-0.338762,2.034072,-0.023304,5.2359877559829395e-05,0.012182398178920417,1.813903255758479
7.017543859649122,0.6095058909535606,0.5734706550680172,-12.431689,-0.33404,2.03223,-0.015782,-0.0024609142453120053,0.009843656981248117,1.8124196037212363
8.020050125313283,0.6095062726570679,0.5734706007882775,-12.41515,-0.335107,2.03572,-0.021343,-0.0031241393610698504,0.0072954762733363765,1.81132011610565
9.022556390977442,0.6095066555823058,0.5734705473812024,-12.3873,-0.340758,2.043292,-0.035292,-0.005166174585903215,0.005515240436302138,1.8116865654353986
10.025062656641603,0.6095070392056755,0.5734704924033309,-12.350689,-0.342438,2.050411,-0.034776,-0.0027576202181510408,0.005131268000863498,1.8118088082962087
11.027568922305765,0.609507425097973,0.5734704370763937,-12.32618,-0.335882,2.050288,-0.015082,-0.0007853981633974488,0.00568977336150156,1.8106918848413944
12.030075187969924,0.6095078104666719,0.5734703840183845,-12.324474,-0.32438,2.039979,0.006326,0.0002967059728390358,0.004764748857944534,1.809574821760241
13.032581453634084,0.609508193042844,0.5734703316585069,-12.335255,-0.319609,2.024148,0.010078,0.0006806784082777884,0.0010821041362365502,1.8094876076575184
14.035087719298245,0.6095085721283574,0.5734702808694255,-12.340972,-0.32495,2.019199,-0.000859,0.0027750735106709845,-0.004031710572106828,1.8107091985075745
15.037593984962406,0.6095089515629368,0.5734702271132845,-12.333146,-0.336221,2.030843,-0.013857,0.004084070449666732,-0.007033676885537021,1.8120705902307153
16.040100250626566,0.6095093332664442,0.573470172659012,-12.313905,-0.338745,2.053602,-0.020775,-0.002513274122871834,-0.006405358354819146,1.811547026361702
17.042606516290725,0.6095097217767358,0.5734701171575418,-12.293899,-0.336066,2.06627,-0.017361,-0.007120943348136865,-0.003979350694546913,1.8109186554711065
18.045112781954884,0.609510110810626,0.5734700618306046,-12.284221,-0.330952,2.056093,-0.002094,-0.0026878070480712674,-0.002460914245312029,1.8104473991197754
19.047619047619047,0.6095104967029237,0.5734700084235294,-12.293677,-0.325425,2.034297,0.017537,0.0019373154697137059,-0.003682644721707984,1.8105173170096103
20.050125313283207,0.609510876137503,0.5734699564127177,-12.31948,-0.32146,2.018663,0.028344,0.0027052603405912103,-0.007452555906015679,1.8112154661637008
21.052631578947366,0.6095112513832921,0.5734699057981694,-12.34624,-0.32494,2.018606,0.020642,0.0035604716740684304,-0.011815879036001453,1.8124720683185513
22.05513784461153,0.6095116299452069,0.5734698525656271,-12.355183,-0.335467,2.034732,-0.00239,-0.0031939525311496203,-0.013491395117916083,1.8131178925016669
23.05764411027569,0.6095120135685765,0.5734697982858874,-12.342863,-0.344993,2.0556,-0.017722,-0.002426007660272119,-0.01176351915844176,1.8126290606847681
24.06015037593985,0.6095124020788679,0.5734697419117526,-12.327005,-0.345216,2.06679,-0.010622,-0.00804596785169386,-0.007609635538695203,1.8114074698347122
25.062656641604008,0.6095127905891594,0.5734696851885519,-12.328969,-0.340298,2.057584,0.013329,-0.002932153143350474,-0.0036302848441480684,1.809766825431253
26.065162907268167,0.6095131763069241,0.5734696303852134,-12.354067,-0.328944,2.036934,0.03191,0.0023911010752322315,-0.002129301687433083,1.8088068943426558
27.06766917293233,0.6095135559160365,0.5734695780253357,-12.389201,-0.320025,2.017984,0.031658,0.0036826447217080355,-0.002583087292951536,1.8090163513061877
28.07017543859649,0.6095139318599574,0.573469528632518,-12.41521,-0.322552,2.014161,0.015161,0.0032812189937493404,-0.003926990816987219,1.8101332747610015
29.07268170426065,0.60951430850201,0.5734694764471733,-12.418364,-0.33331,2.029411,-0.008906,0.0007853981633974479,-0.003944444109507117,1.8106045311123324
30.075187969924812,0.6095146912527148,0.573469421120236,-12.397685,-0.342617,2.0505,-0.029948,0.0006981317007977319,-0.0003490658503988442,1.8107267739731419
31.07769423558897,0.6095150802866053,0.5734693638734366,-12.365932,-0.343552,2.06593,-0.0331,-0.004782202150464463,0.0054628805587422224,1.8101683035190885
32.08020050125313,0.6095154696695614,0.5734693066266372,-12.339431,-0.338533,2.065512,-0.021461,-0.007539822368615505,0.011641346110802253,1.8098540569872672
33.08270676691729,0.609515857656254,0.5734692526959632,-12.328309,-0.327585,2.048879,-0.006179,0.002548180707911723,0.015812683023068708,1.8089814621744402
34.08521303258145,0.6095162418032224,0.5734691999870198,-12.33103,-0.31697,2.026751,0.003431,-0.001099557428756427,0.016720254234105836,1.8087369939061135
35.08771929824561,0.60951662053967,0.5734691491979387,-12.335814,-0.318469,2.012091,-0.001318,0.0010297442586766532,0.01520181778487073,1.8088243301818834
36.09022556390977,0.6095169970071898,0.5734690984088573,-12.324796,-0.329807,2.014341,-0.023954,0.009023352232810686,0.013561208287995896,1.809208232804152
37.092731829573935,0.6095173748709728,0.5734690465725786,-12.286214,-0.337832,2.033223,-0.050679,0.0013788101090755208,0.013543754995475998,1.80981916785552
38.095238095238095,0.6095177576216777,0.5734689905475095,-12.226531,-0.341277,2.056841,-0.064208,-0.007801621756414652,0.015289084247470441,1.8099238177974697
39.097744360902254,0.6095181456083704,0.5734689352205723,-12.162757,-0.335046,2.068336,-0.061917,-0.007696902001294991,0.01832595714594043,1.8094700147386584
40.100250626566414,0.6095185351658595,0.5734688818134972,-12.114466,-0.326301,2.058955,-0.036966,-0.006579891280018623,0.01940806128217698,1.809958846555557
41.10275689223057,0.60951892123269,0.5734688287554879,-12.094288,-0.322101,2.034477,-0.011533,-0.0005061454830783548,0.01813397092822111,1.8115819154934492
42.10526315789473,0.6095193018889999,0.5734687770937421,-12.092854,-0.328217,2.01295,-0.001493,0.0022689280275926286,0.013578661580516016,1.8122800646475394
43.10776942355889,0.6095196780074537,0.5734687231630682,-12.090326,-0.342557,2.010061,-0.010824,0.004537856055185257,0.007470009198535799,1.8111804374056129
44.11027568922306,0.609520055347638,0.5734686671379992,-12.069279,-0.350164,2.029632,-0.030872,0.0025132741228718336,0.003560471674068477,1.8095224793359734
45.11278195488722,0.60952043792381,0.5734686109383973,-12.030045,-0.338876,2.056417,-0.044374,-0.005288347633542819,0.004694935687864721,1.8073233819317531
46.11528822055138,0.6095208267831674,0.5734685573567893,-11.989126,-0.322589,2.064595,-0.033312,-0.0049567350756638965,0.007347836150896292,1.8065903436459154
47.11779448621554,0.6095212163406565,0.5734685069167739,-11.969621,-0.313353,2.048768,-0.005368,-0.004345869837465882,0.00842994028713262,1.807986641954096
48.1203007518797,0.6095215992658943,0.573468457698489,-11.980149,-0.317072,2.024153,0.020321,0.003892084231947356,0.005532693728822036,1.8098540569872674
49.122807017543856,0.6095219764315457,0.5734684081311382,-12.00217,-0.329327,2.012366,0.016748,0.0017976891295541594,0.0008028514559175193,1.8112677911346757
50.125313283208015,0.6095223539462629,0.5734683542004643,-12.006115,-0.343733,2.021443,-0.009162,-0.00033161255787892243,-0.002094395102393065,1.8117215941934863
51.127819548872175,0.6095227344280398,0.5734682974772637,-11.983514,-0.350669,2.044386,-0.031166,1.7453292519943086e-05,-0.0009250245035570259,1.810883766339359
52.130325814536334,0.609523118924074,0.5734682409285959,-11.950141,-0.342053,2.061431,-0.030189,-0.005009094953223725,0.0022514747350728115,1.809557368467721
53.1328320802005,0.6095235077834313,0.5734681864743232,-11.930901,-0.327615,2.059218,-0.009313,-0.004747295565424577,0.00422369678982637,1.8089464508696453
54.13533834586466,0.60952389611919,0.5734681337653798,-11.937145,-0.32052,2.038491,0.014138,-0.0024260076602721187,0.002827433388230771,1.8095224793359734
55.13784461152882,0.6095242776481644,0.5734680828017656,-11.96068,-0.325681,2.016468,0.025704,0.0020245819323134228,-0.0006632251157578928,1.8107442098123696
56.14035087719298,0.609524654115684,0.5734680283474929,-11.98572,-0.339044,2.010037,0.021247,0.002932153143350474,-0.003595378259108273,1.8119135978644982
57.14285714285714,0.6095250312813354,0.5734679733696215,-11.999416,-0.346124,2.018199,0.006119,-0.0013264502315156906,-0.003577924966588375,1.811791372456981
58.1453634085213,0.6095254110649807,0.5734679168209538,-11.996925,-0.348351,2.031326,-0.010565,0.0008028514559173916,-0.0025132741228717226,1.8107442098123696
59.14786967418546,0.609525793117554,0.5734678599232201,-11.976217,-0.345635,2.044032,-0.029275,-0.001308996938995747,-0.0009424777960769237,1.808597437379124
60.150375939849624,0.6095261795334502,0.5734678028509537,-11.943631,-0.342517,2.051628,-0.032107,-0.003979350694547071,-0.0007155849933175862,1.8073233819317533
61.152882205513784,0.6095265657748138,0.5734677473494835,-11.921365,-0.334095,2.049795,-0.012047,0.000349065850398866,-0.0009250245035570259,1.8065380186749407
62.15538847117794,0.6095269506199139,0.5734676951641388,-11.926364,-0.323798,2.037774,0.017729,-0.002600540585471551,-0.001291543646475768,1.8053860664620394
63.1578947368421,0.6095273311016908,0.5734676442005247,-11.958148,-0.320072,2.019662,0.038149,-0.0010995574287564276,-0.003211405823669411,1.8041643359856432
64.16040100250626,0.6095277087909409,0.5734675925387788,-11.996621,-0.329958,2.006955,0.032488,0.0038048177693476375,-0.0071034900556168346,1.8044958961836448
65.16290726817043,0.6095280836876643,0.5734675396553024,-12.017561,-0.344362,2.011701,0.006776,0.006091199089460209,-0.010402162341886179,1.8045133494761647
66.16541353383458,0.6095284619005132,0.573467482408503,-12.01082,-0.345784,2.031865,-0.017474,0.003281218993749339,-0.009948376736367726,1.8037279862193523
67.16791979949875,0.6095288456984156,0.5734674248126377,-11.988781,-0.334752,2.050658,-0.022411,-0.002234021442552742,-0.006318091892219435,1.8023665770429194
68.1704260651629,0.6095292319397791,0.5734673708819638,-11.976558,-0.324656,2.05156,-0.002858,0.0014486232791552935,-0.003385938748868833,1.8017208924861436
69.17293233082707,0.6095296187047414,0.5734673197438166,-11.989694,-0.319839,2.037882,0.023715,0.003089232776029963,-0.003926990816987219,1.8023665770429196
70.17543859649122,0.6095300009318476,0.5734672696528672,-12.021883,-0.321853,2.023348,0.033357,0.0018675022996339323,-0.006492624817418857,1.8032044048970466
71.17794486215539,0.6095303798428282,0.573467218689253,-12.051078,-0.327718,2.017716,0.020889,0.009162978572970227,-0.009669124056048473,1.8034137222342383
72.18045112781954,0.6095307598010062,0.5734671659803096,-12.065088,-0.338627,2.021875,0.006733,0.004537856055185257,-0.011414453308042916,1.8039723323146317
73.1829573934837,0.6095311388865198,0.5734671103043064,-12.068679,-0.348865,2.028399,0.002205,0.003961897402027128,-0.011676252695842049,1.8048799384322538
74.18546365914787,0.6095315197173626,0.5734670535811057,-12.073693,-0.343619,2.03294,0.009011,0.00185004900711399,-0.012130038301360502,1.8037803111903272
75.18796992481202,0.6095319029916664,0.5734669987777672,-12.088531,-0.325108,2.035907,0.020451,-0.002408554367752176,-0.014486232791552922,1.8017557816178915
76.19047619047619,0.6095322846951738,0.5734669479886859,-12.114765,-0.314583,2.034314,0.030453,0.004310963252425995,-0.016824973989225223,1.8015463246543593
77.19298245614034,0.6095326662241483,0.5734668984213352,-12.149403,-0.321627,2.032361,0.038585,0.002932153143350473,-0.018867009214058594,1.8030647261970094
78.19548872180451,0.6095330477531228,0.573466847457721,-12.189166,-0.337492,2.028883,0.040155,0.0034208453339088893,-0.019058995431777914,1.8041120110146684
79.19799498746866,0.6095334266641034,0.5734667933525143,-12.227573,-0.34518,2.02309,0.036111,0.003211405823669569,-0.019355701404617065,1.8035359650950478
80.20050125313283,0.6095338045278864,0.573466735756649,-12.263388,-0.343181,2.021308,0.036222,0.007120943348136864,-0.020402898955813598,1.802488819903729
81.203007518797,0.6095341832643341,0.5734666806042447,-12.298162,-0.334288,2.030364,0.035017,0.004328416544945937,-0.02047271212589341,1.8011099574347758
82.20551378446115,0.6095345640951769,0.5734666273717024,-12.333269,-0.321955,2.0403,0.034667,-0.007155849933176749,-0.018308503853420532,1.8002895654198756
83.20802005012531,0.6095349471949477,0.5734665765826211,-12.367952,-0.313801,2.040375,0.034625,0.0015184364492350673,-0.014329153158873398,1.7994693130313157
84.21052631578947,0.6095353302947185,0.5734665261426058,-12.401375,-0.31527,2.031003,0.032103,0.006841690667817772,-0.011152653920243782,1.7996264450238733
85.21303258145363,0.6095357100783638,0.5734664753535246,-12.432459,-0.323017,2.022824,0.028686,0.007784168463894711,-0.009913470151327708,1.7999405693826471
86.21553884711778,0.6095360893384103,0.5734664229936469,-12.459458,-0.331422,2.021295,0.024818,0.011484266478122685,-0.008185594191853385,1.800307158338736
87.21804511278195,0.6095364691220554,0.5734663699356377,-12.480456,-0.332917,2.026089,0.017782,0.007470009198535729,-0.004502949470145401,1.8008481755002692
88.22055137844612,0.6095368511746286,0.5734663168776284,-12.491728,-0.326144,2.031885,0.00589,0.003612831551628262,0.0011519173063163635,1.8011797356982704
89.22305764411027,0.6095372353215971,0.573466264168685,-12.491973,-0.319354,2.033411,-0.004922,0.007871434926494426,0.007243116395776461,1.8016160854645615
90.22556390977444,0.6095376178977692,0.5734662133796038,-12.480438,-0.315209,2.032152,-0.019527,0.002042035224833365,0.01237438439663996,1.801511435522612
91.22807017543859,0.6095380001248754,0.5734661624159896,-12.455229,-0.315997,2.029348,-0.032427,0.005986479334340551,0.016598081186466107,1.802035016844918
92.23057644110276,0.609538381130251,0.5734661112778425,-12.420671,-0.323144,2.030572,-0.037741,0.006492624817418905,0.02028072590817409,1.8027331485457159
93.23308270676691,0.6095387626592255,0.573466058917965,-12.383258,-0.329948,2.03461,-0.040571,0.00790634151153432,0.02452187599052036,1.8029774946409949
94.23558897243107,0.6095391443627328,0.5734660062090217,-12.341261,-0.330931,2.033353,-0.047069,0.004991641660703783,0.029583330821304044,1.8024539307719816
95.23809523809523,0.6095395258917075,0.573465951754749,-12.289113,-0.329795,2.0239,-0.059063,0.004293509959906046,0.03272492347489364,1.8033090722922887
96.2406015037594,0.6095399044536222,0.5734658988712726,-12.228243,-0.326779,2.016036,-0.06274,0.01123992038284348,0.03282964323001347,1.8043737929491752
97.24310776942356,0.6095402823174052,0.573465846685928,-12.164026,-0.32669,2.018723,-0.067729,0.00937241808320955,0.03202679177409595,1.8044784603444173
98.24561403508771,0.6095406601811882,0.5734657945005833,-12.093164,-0.330083,2.029735,-0.075984,0.001937315469713703,0.030997047515419318,1.804740242278924
99.24812030075188,0.6095410418846956,0.5734657407444425,-12.016443,-0.333515,2.040439,-0.077585,0.0036477381366681488,0.030159289474462003,1.8050194775059507
100.25062656641603,0.60954142638073,0.5734656862901697,-11.942656,-0.337772,2.043516,-0.07102,-0.00012217304763960293,0.02961823740634384,1.8046355923369746
101.2531328320802,0.6095418107022311,0.57346563201043,-11.878811,-0.33748,2.035194,-0.057845,-0.007836528341454539,0.02773328181418999,1.8032567298680215
102.25563909774435,0.6095421918821398,0.5734655780797561,-11.827899,-0.336231,2.024038,-0.047286,-0.000296705972839037,0.023090706003884964,1.802261770021337
103.25814536340852,0.6095425697459229,0.5734655227528188,-11.784201,-0.332985,2.019598,-0.042703,0.0023038346126325127,0.016196655458507347,1.8013194143983073
104.26065162907267,0.6095429483078376,0.5734654696948095,-11.74321,-0.321452,2.025998,-0.038915,-0.001623156204354727,0.00911061869541041,1.799731112419115
105.26315789473684,0.6095433293132133,0.5734654185566626,-11.704466,-0.309796,2.039748,-0.036571,-0.005794493116621173,0.0033335788713091397,1.7987886171697458
106.265664160401,0.6095437143328463,0.5734653689893118,-11.669528,-0.303434,2.051002,-0.030992,-0.006440264939859076,-0.0007155849933175862,1.7995216554555833
107.26817042606515,0.6095441005742098,0.5734653209927573,-11.64414,-0.307091,2.050453,-0.019169,-0.005550147021341968,-0.0037350045992678993,1.8014938600570445
108.27067669172932,0.6095444871646392,0.5734652728216699,-11.633584,-0.31334,2.042868,-0.001326,-0.00158824961931484,-0.0073827427359358655,1.8039548790221118
109.27318295739347,0.6095448692172124,0.573465223603385,-11.639568,-0.317383,2.035964,0.012702,-0.0007504915783575615,-0.011641346110802031,1.8066775577486378
110.27568922305764,0.6095452502225881,0.5734651717671062,-11.655993,-0.318383,2.031054,0.018114,-0.0004188790204786377,-0.015899949485668197,1.8090861295696825
111.27819548872179,0.6095456312279638,0.5734651204544262,-11.67536,-0.31589,2.031466,0.021329,-0.000436332312998584,-0.020943951023931984,1.8109186554711065
112.28070175438596,0.6095460131060042,0.5734650708870755,-11.697638,-0.313949,2.039434,0.024716,-0.006143558967020042,-0.02528982086139786,1.813047974611832
113.28320802005013,0.6095463972529724,0.5734650214942577,-11.722708,-0.315858,2.047869,0.028192,-0.009546951008408983,-0.02792526803190931,1.814322169685543
114.28571428571428,0.6095467817490068,0.5734649698325118,-11.755314,-0.324414,2.048172,0.038557,-0.0035081117965086004,-0.028291787174828054,1.816486377958016
115.28822055137844,0.609547166070508,0.5734649160763708,-11.800194,-0.338775,2.038888,0.051851,0.0003316125578789237,-0.027488935718910534,1.818720381947276
116.2907268170426,0.6095475482976142,0.5734648602258348,-11.857568,-0.348074,2.028336,0.062648,0.0006981317007977327,-0.027506389011430654,1.818423571254682
117.29323308270676,0.6095479294775228,0.5734648035026341,-11.918338,-0.347804,2.022664,0.060159,-0.004258603374866167,-0.027576202181510245,1.8164164775214735
118.29573934837092,0.6095483085630363,0.573464747652098,-11.972665,-0.334969,2.025983,0.05063,0.0005759586531581276,-0.02597049926967565,1.8140253589929487
119.29824561403508,0.6095486886957474,0.5734646947686216,-12.015977,-0.324526,2.035824,0.038241,-0.007086036763096981,-0.022776546738525916,1.8123499650840817
120.30075187969925,0.6095490723191169,0.5734646431068758,-12.047043,-0.319269,2.044648,0.025559,-0.0029845130209103037,-0.017715091907742453,1.8115644622009293
121.3032581453634,0.6095494583859475,0.5734645919687287,-12.06802,-0.322708,2.045851,0.019105,-0.0004363323129985812,-0.01225221134900023,1.8122976401131072
122.30576441102757,0.6095498442782451,0.57346454013245,-12.085814,-0.33167,2.03964,0.017642,0.0010995574287564266,-0.007225663103256563,1.8135541200949106
123.30827067669172,0.6095502280761477,0.5734644872489736,-12.10479,-0.337991,2.03333,0.02094,-0.0010821041362364843,-0.0038746309394273037,1.8137810128976697
124.31077694235589,0.6095506092560563,0.5734644333182998,-12.124915,-0.340916,2.031028,0.016978,0.0004537856055185258,-0.0008377580409573149,1.8135541200949103
125.31328320802004,0.6095509899123662,0.573464376944165,-12.136179,-0.341556,2.030931,0.003639,-0.0021991148575128553,0.002007128639793576,1.8131876533118692
126.3157894736842,0.609551370743209,0.5734643209190959,-12.130975,-0.336919,2.031723,-0.011993,-0.004084070449666732,0.004258603374866166,1.8122800646475392
127.31829573934836,0.6095517529703152,0.5734642682101525,-12.113802,-0.330427,2.034401,-0.019946,-0.0028972465583105875,0.005724679946541356,1.8109709804420806
128.32080200501252,0.6095521350228884,0.5734642149776104,-12.094646,-0.325699,2.03702,-0.016383,-1.745329251994355e-05,0.0073827427359360875,1.8097318141264576
129.32330827067668,0.6095525170754617,0.5734641631413315,-12.080321,-0.323479,2.039778,-0.011119,-0.001012290966156712,0.008534660042252229,1.8094003761015038
130.32581453634086,0.6095529005242983,0.5734641113050527,-12.06905,-0.322986,2.040842,-0.013087,-0.0035953782591083188,0.00970403064108849,1.8087720052109086
131.328320802005,0.6095532832750034,0.5734640598178398,-12.048961,-0.324323,2.040135,-0.027539,-0.001972222054753593,0.010349802464326485,1.8083705445763647
132.33082706766916,0.6095536660257084,0.5734640085051598,-12.015217,-0.32594,2.038392,-0.037609,-0.0012740903539558604,0.009948376736367726,1.8085102232764019
133.33333333333331,0.6095540505217425,0.5734639570179468,-11.977916,-0.324431,2.041084,-0.034077,-0.0027052603405912094,0.009075712110370615,1.8080913093493385
134.3358395989975,0.6095544344941779,0.5734639065779314,-11.948874,-0.31804,2.04689,-0.023651,-0.0026703537555513245,0.008901179185171193,1.8069742462681841
135.33834586466165,0.6095548172448828,0.5734638552652515,-11.933328,-0.315042,2.044479,-0.009822,-0.00275762021815104,0.009477137838329375,1.807637506290527
136.3408521303258,0.6095552005191867,0.5734638070941641,-11.927936,-0.3128,2.032923,-0.004371,-0.0014486232791552937,0.009686577348568592,1.808894108445378
137.34335839598998,0.6095555818736281,0.573463758050412,-11.922625,-0.309898,2.022104,-0.009245,-0.0006283185307179584,0.007330382858376172,1.8108489993806596
138.34586466165413,0.6095559597374112,0.5734637088321272,-11.907231,-0.311801,2.0254,-0.020899,0.006178465552059927,0.0029670597283903977,1.8125767357137936
139.34837092731829,0.6095563412663858,0.573463658043046,-11.878345,-0.316015,2.041565,-0.030636,0.0028797932657906437,-0.0011170107212763458,1.8136414563706802
140.35087719298244,0.6095567257624199,0.5734636070794318,-11.846967,-0.324811,2.055889,-0.025757,-0.0085870199198121,-0.0027052603405910425,1.815142422074103
141.35338345864662,0.6095571139236455,0.573463555417686,-11.827469,-0.331455,2.057043,-0.010574,-0.0001570796326794895,-0.002670353755551247,1.8170971908363363
142.35588972431077,0.6095574989432786,0.5734635021851437,-11.826522,-0.331823,2.046522,0.007905,0.0009424777960769379,-0.0023387411976723005,1.818615714552034
143.35839598997492,0.6095578827411811,0.5734634487780687,-11.840522,-0.326435,2.029858,0.018981,0.0008377580409572779,-0.004380776422505672,1.8191042671162523
144.36090225563908,0.6095582625248264,0.5734633958945923,-11.860199,-0.325122,2.017749,0.020008,0.0015882496193148398,-0.008395033702092602,1.8190519421452775
145.36340852130326,0.6095586407376752,0.5734633458036429,-11.87494,-0.328784,2.022724,0.01142,0.0010297442586766547,-0.011815879036001453,1.8182665788884649
146.3659147869674,0.6095590210449193,0.5734632930946995,-11.880649,-0.331395,2.039748,0.00259,-0.0013264502315156897,-0.012112585008840604,1.8177079862613643
147.36842105263156,0.6095594064136182,0.5734632384658938,-11.879887,-0.336577,2.052381,0.000183,-0.001413716694115407,-0.009442231253289357,1.817882554093149
148.37092731829574,0.6095597935276461,0.5734631847097529,-11.881398,-0.337657,2.049089,0.008283,-0.0023736477827122878,-0.006475171524898959,1.817952454529691
149.3734335839599,0.609560178896345,0.5734631311281448,-11.896068,-0.334724,2.035801,0.02503,-0.0020594885173533086,-0.006405358354819146,1.8180745577641606
150.37593984962405,0.6095605600762537,0.5734630787682673,-11.924461,-0.330572,2.023362,0.030837,-0.0013613568165555777,-0.009320058205649628,1.817463762339133
151.3784461152882,0.6095609391617672,0.5734630258847909,-11.950645,-0.335917,2.02016,0.018984,0.005078908123303499,-0.013020156219877732,1.817812775829654
152.38095238095238,0.6095613191199453,0.573462971779584,-11.958795,-0.342531,2.031569,0.002482,0.0022165681500327986,-0.015446163880149744,1.8179697681958713
153.38345864661653,0.6095617001253211,0.5734629173253114,-11.961958,-0.347,2.05015,0.008322,-0.005375614096142536,-0.015358897417550033,1.817725561726932
154.38596491228068,0.6095620833996248,0.5734628628710388,-11.977203,-0.344319,2.057259,0.024251,-0.00614355896702004,-0.01235693110411984,1.816137242294447
155.38847117794487,0.6095624715608505,0.5734628078931673,-12.012262,-0.341153,2.042733,0.045868,-0.0018151424220741023,-0.010419615634406076,1.8141476018537583
156.39097744360902,0.6095628558823517,0.5734627522171643,-12.065069,-0.343348,2.015686,0.058002,0.004345869837465882,-0.011239920382843493,1.812751303545578
157.39348370927317,0.6095632333970689,0.5734626970647598,-12.118786,-0.341988,2.00302,0.048846,0.003019419605950188,-0.013980087308474554,1.8113026802664227
158.39598997493732,0.6095636109117861,0.5734626426104872,-12.15571,-0.334565,2.01233,0.029654,-0.0015882496193148406,-0.016598081186466107,1.80981916785552
159.3984962406015,0.6095639912190302,0.5734625881562145,-12.173403,-0.335536,2.03409,0.011606,-0.0057421332390613445,-0.015812683023068486,1.8088243301818834
160.40100250626566,0.609564374318801,0.5734625337019418,-12.18071,-0.34063,2.051379,0.00875,-0.007225663103256524,-0.01223475805648011,1.807393160195248
161.4035087719298,0.6095647630036254,0.5734624790731363,-12.19192,-0.340209,2.057318,0.016308,-0.0018500490071139898,-0.008063421144213656,1.8048100205424187
162.406015037594,0.6095651504667193,0.5734624256660611,-12.209973,-0.337404,2.046885,0.020106,-0.006789330790257941,-0.004764748857944534,1.8029949479335148
163.40852130325814,0.6095655354863523,0.573462372084453,-12.23357,-0.334727,2.026554,0.027091,-0.0009599310885968812,-0.003211405823669411,1.8023316879111717
164.4110275689223,0.6095659156190635,0.5734623195500426,-12.263515,-0.334504,2.014027,0.031222,0.003839724354387524,-0.0026005405854714336,1.8019999880868303
165.41353383458645,0.6095662919120501,0.5734622668410991,-12.292912,-0.33416,2.014042,0.027898,-0.004136430327226561,-0.0009948376736366171,1.801197311163838
166.41604010025063,0.6095666685541027,0.5734622137830899,-12.312147,-0.329053,2.022014,0.012898,0.0018675022996339316,0.002652900463031349,1.798928295869783
167.41854636591478,0.6095670486868138,0.5734621614232124,-12.313805,-0.325676,2.028206,-0.00661,0.0002268928027592628,0.007627088831215323,1.7973399938905903
168.42105263157893,0.609567430739387,0.5734621097614665,-12.293595,-0.327944,2.031938,-0.028709,0.0013089969389957464,0.013351768777756678,1.7968514238730797
169.4235588972431,0.6095678147118225,0.5734620579251878,-12.256873,-0.33092,2.03759,-0.040274,0.0034033920413889416,0.01694714703686495,1.7971655482318536
170.42606516290726,0.6095681995569225,0.5734620057398432,-12.216776,-0.330872,2.043362,-0.037189,0.0027401669256310953,0.019093902016817932,1.797060898289904
171.42857142857142,0.6095685830057592,0.5734619532054327,-12.183839,-0.328125,2.039397,-0.02669,0.0038397243543875255,0.021223203704251015,1.796711622999995
172.43107769423557,0.6095689661055301,0.573461901020088,-12.162881,-0.325152,2.026573,-0.015534,0.0067544242052180545,0.021607176139689876,1.796397638267561
173.43358395989975,0.6095693457146423,0.573461849532875,-12.151649,-0.321192,2.015758,-0.009135,0.005183627878423161,0.01968731396249601,1.7949664508276335
174.4360902255639,0.6095697241020243,0.5734617990928597,-12.139289,-0.322008,2.01308,-0.018297,0.004293509959906051,0.017104226669544476,1.7941809479444808
175.43859649122805,0.6095701012676755,0.5734617486528443,-12.110424,-0.323256,2.02006,-0.036282,0.0005235987755982995,0.015533430342749677,1.795071100769583
176.44110275689223,0.6095704824475842,0.5734616961184338,-12.066835,-0.32187,2.03113,-0.045254,0.00619591884457987,0.01698205362190497,1.7956645999817238
177.4436090225564,0.6095708650237562,0.573461644456688,-12.019343,-0.316183,2.039068,-0.04531,0.0031590459461097336,0.01872738287389919,1.7958041390554205
178.44611528822054,0.6095712502179221,0.5734615943657384,-11.975345,-0.315887,2.038991,-0.039981,0.0026529004630313816,0.0188321026290188,1.7965546306337778
179.4486215538847,0.6095716343648905,0.5734615427039926,-11.937005,-0.323251,2.03277,-0.035931,0.01089085453244462,0.017435839227423422,1.7988409421407205
180.45112781954887,0.609572016068398,0.5734614899950492,-11.90541,-0.334143,2.026143,-0.026282,0.00895353906273091,0.014678219009272464,1.8002722692069888
181.45363408521303,0.6095723958520431,0.5734614358898423,-11.881501,-0.337008,2.021702,-0.018505,0.00296705972839036,0.011362093430483222,1.8004641507049528
182.45614035087718,0.6095727745884909,0.573461380737438,-11.864344,-0.332369,2.020562,-0.014469,0.002426007660272118,0.00862192650485194,1.7996090091846457
183.45864661654133,0.6095731557683994,0.5734613282030275,-11.847537,-0.323482,2.020211,-0.016856,0.0016755160819145567,0.007644542123735221,1.798177821744718
184.4611528822055,0.609573537122841,0.5734612775884791,-11.828173,-0.323591,2.019781,-0.017532,1.7453292519942538e-05,0.005532693728822036,1.798177821744718
185.46365914786966,0.6095739167319533,0.5734612257522004,-11.810513,-0.33373,2.026026,-0.014547,0.0027750735106709837,0.0026354471705114513,1.7994520168184287
186.46616541353382,0.6095742998317242,0.5734611723451253,-11.793386,-0.339816,2.034114,-0.014804,0.005742133239061343,0.0018500490071140518,1.800429383746253
187.468671679198,0.6095746824078963,0.5734611184144515,-11.775607,-0.333485,2.037452,-0.015896,0.0016929693744345002,0.0022689280275927093,1.7989108600305554
188.47117794486215,0.609575065158601,0.5734610653564421,-11.762538,-0.325309,2.031957,-0.007915,-0.006981317007977318,0.0026878070480713667,1.7969560912683218
189.4736842105263,0.6095754477347731,0.5734610133456305,-11.755385,-0.329556,2.022351,-0.004719,0.0013788101090755202,0.0023387411976725225,1.7958913706114352
190.47619047619045,0.6095758262966878,0.5734609609857529,-11.75173,-0.339691,2.022371,-0.003346,0.0030543261909900766,0.00022689280275933754,1.7953852251283569
191.47869674185463,0.6095762059058002,0.5734609075786777,-11.746276,-0.336305,2.037421,-0.009774,-0.003909537524467298,-0.0001919862177193199,1.7944078407472397
192.4812030075188,0.6095765898782357,0.5734608545206685,-11.730847,-0.313452,2.050993,-0.019194,-0.007923794804054257,0.00274016692563106,1.7925228677017935
193.48370927318294,0.6095769743742698,0.5734608056514494,-11.714951,-0.299782,2.041717,-0.008447,-0.004660029102824859,0.006405358354819146,1.792488100743094
194.48621553884712,0.6095773572995078,0.5734607583530268,-11.71698,-0.306457,2.016003,0.013075,0.0017976891295541603,0.006789330790258008,1.794006502285744
195.48872180451127,0.6095777335924946,0.5734607101819393,-11.734109,-0.316338,2.001887,0.016975,0.004590215932745086,0.003490658503988664,1.7944427298789876
196.49122807017542,0.6095781091873494,0.573460659916457,-11.736911,-0.31972,2.014848,-0.013243,0.0004014257279586957,-0.0005061454830783685,1.7941636342783012
197.49373433583958,0.6095784891455277,0.5734606079056451,-11.701036,-0.321749,2.048133,-0.052947,-0.003490658503988659,-0.0012391837689158525,1.7944254336661
198.49624060150376,0.6095788766086216,0.5734605562438994,-11.641189,-0.31809,2.080216,-0.057944,-0.012461650859239514,0.0035081117965085618,1.795699489113471
199.4987468671679,0.6095792707039667,0.5734605058038839,-11.598148,-0.307194,2.082839,-0.024913,-0.011431906600562857,0.011676252695842049,1.7963801849750414
200.50125313283206,0.609579664624779,0.5734604562365332,-11.597636,-0.298358,2.043807,0.019799,-0.008028514559173918,0.016877333866785138,1.7970608982899041
201.50375939849624,0.6095800452810888,0.5734604092871763,-11.631866,-0.30158,1.995539,0.039002,0.0029321531433504737,0.015027284859671308,1.7991902174306296
202.5062656641604,0.6095804152908902,0.5734603598943585,-11.660209,-0.31114,1.982512,0.010191,0.010279989294246599,0.009581857593448984,1.8015463246543595
203.50877192982455,0.6095807865224221,0.5734603080580797,-11.642047,-0.315192,2.012832,-0.043434,-0.0024260076602721187,0.006719517620178195,1.8026806839484006
204.5112781954887,0.6095811656079356,0.5734602555236692,-11.573612,-0.319124,2.058648,-0.083423,-0.0074176493209759,0.009337511498169748,1.8034137222342383
205.51378446115288,0.6095815584815503,0.5734602028147258,-11.485173,-0.322982,2.088726,-0.082192,-0.009075712110370514,0.015655603390389183,1.8043387816443803
206.51629072681703,0.6095819550203563,0.57346015115298,-11.420438,-0.322737,2.082236,-0.041235,-0.009285151620609836,0.02108357736409161,1.8049845883742028
207.51879699248119,0.6095823480685039,0.5734601000148328,-11.402662,-0.318423,2.042161,0.000417,-0.004258603374866165,0.022392574303087276,1.8056129592647987
208.52130325814534,0.6095827268049515,0.573460050622015,-11.413386,-0.314644,1.998964,0.011033,0.008307767239493008,0.01745329251994332,1.8064506649458785
209.52380952380952,0.6095830987346151,0.573460001578263,-11.414207,-0.315669,1.99104,-0.011743,0.00703367688553715,0.008970992355251006,1.8076549421297547
210.52631578947367,0.6095834715369434,0.5734599518363793,-11.38359,-0.322479,2.017409,-0.045031,0.0020245819323134223,0.0031764992386298374,1.8084054162548195
211.52882205513782,0.6095838525423191,0.5734599008727652,-11.326322,-0.324558,2.054787,-0.062334,-0.006492624817418906,0.001553343034275123,1.808492647810834
212.531328320802,0.6095842424488739,0.5734598488619536,-11.26782,-0.320665,2.07999,-0.04695,-0.008709192967451703,0.0021467549799529806,1.80828331302035
213.53383458646616,0.6095846370678178,0.5734597972002077,-11.236382,-0.314647,2.076737,-0.0142,-0.00937241808320955,0.0032463124087094286,1.8087196802399335
214.5363408521303,0.6095850281961032,0.5734597453639289,-11.239503,-0.312263,2.041824,0.016914,-0.0017802358370342165,0.0020594885173532695,1.810377760482621
215.53884711779446,0.609585409201479,0.573459695971111,-11.265032,-0.316194,2.001508,0.029253,0.003577924966588376,-0.0031241393610697,1.8119310511570181
216.54135338345864,0.6095857813056755,0.573459644658431,-11.291814,-0.323445,1.994275,0.020955,0.0077143552938149385,-0.01027998929424645,1.8118088082962083
217.5438596491228,0.6095861544570695,0.573459593520284,-11.299522,-0.326232,2.026738,-0.003254,0.0011519173063162585,-0.015114551322270797,1.810970980442081
218.54636591478695,0.6095865387785708,0.5734595420330709,-11.281907,-0.321422,2.069038,-0.026513,-0.004276056667386108,-0.0135263017029561,1.8112503378421552
219.54887218045113,0.6095869313031196,0.5734594908949239,-11.25503,-0.316468,2.086277,-0.021668,-0.009162978572970232,-0.006841690667817701,1.8126466361503357
220.55137844611528,0.609587326794728,0.5734594408039744,-11.250774,-0.311715,2.068153,0.015229,-0.009930923443847734,-0.0013264502315155635,1.8140776839639234
221.55388471177943,0.6095877158286184,0.5734593915856895,-11.287685,-0.313289,2.026037,0.052298,0.003735004599267865,-6.981317007981325e-05,1.8155439001619391
222.55639097744358,0.6095880931688026,0.5734593418438058,-11.34119,-0.320611,1.99359,0.048855,0.00804596785169386,-0.004258603374866166,1.8167654910119948
223.55889724310777,0.6095884640512688,0.5734592903565928,-11.372143,-0.330097,1.998984,0.01191,0.006824237375297828,-0.008656833089891736,1.8177604508586793
224.56140350877192,0.6095888387734592,0.5734592364259189,-11.362411,-0.330486,2.033863,-0.025322,0.0034033920413889434,-0.00822050077689318,1.8189471525769878
225.56390977443607,0.60958922606202,0.5734591831933769,-11.324546,-0.32335,2.070655,-0.040666,-0.007243116395776467,-0.0031415926535898198,1.8188775139398332
226.56641604010025,0.6095896215536286,0.5734591303099005,-11.288594,-0.324017,2.078966,-0.025717,-0.010471975511965978,0.0020769418098733894,1.8183886821229347
227.5689223057644,0.6095900154744408,0.5734590779500229,-11.275726,-0.328584,2.05667,-0.000341,-0.0002443460952792058,0.003769911184307917,1.818615714552034
228.57142857142856,0.609590400145008,0.5734590245429478,-11.289378,-0.333744,2.027003,0.021742,0.002635447170511437,0.0010646508437166524,1.819278852401329
229.5739348370927,0.6095907776597251,0.5734589709613397,-11.314603,-0.331568,2.011405,0.023665,0.005550147021341968,-0.0029670597283903977,1.818790160210771
230.5764411027569,0.6095911529055144,0.5734589180778634,-11.330059,-0.32622,2.015704,0.007806,0.003159045946109736,-0.0067369709126980926,1.818406257588502
231.57894736842104,0.609591531816495,0.5734588657179859,-11.329415,-0.31907,2.031213,-0.006647,-0.000837758040957278,-0.009512044423368948,1.8172194162438537
232.5814536340852,0.609591916487062,0.5734588144053059,-11.315548,-0.316009,2.048167,-0.017774,-0.004153883619746504,-0.01089085453244465,1.816137242294447
233.58395989974937,0.6095923042992218,0.5734587636162246,-11.295282,-0.31964,2.059526,-0.017575,-0.004572762640225145,-0.011588986233242338,1.8176207547053496
234.58646616541353,0.609592693682178,0.5734587117799458,-11.284091,-0.322066,2.058684,-0.000684,-5.2359877559829036e-05,-0.012130038301360502,1.8197500912993676
235.58897243107768,0.6095930814943378,0.5734586604672659,-11.297967,-0.330224,2.045578,0.026593,-0.0009948376736367654,-0.01382300767579503,1.8215477280690444
236.59147869674183,0.6095934649431745,0.5734586081073882,-11.33215,-0.333837,2.030295,0.038609,0.0008552113334772203,-0.01537635071006993,1.8221412098278924
237.593984962406,0.6095938466466818,0.5734585562711094,-11.370276,-0.331975,2.02103,0.0365,0.007731808586334879,-0.01654572130890619,1.821408171542055
238.59649122807016,0.6095942245104649,0.5734585023404356,-11.401455,-0.329666,2.02543,0.025392,0.0024783675378319487,-0.01705186679198456,1.8209369326440163
239.59899749373432,0.6095946056903735,0.5734584492824263,-11.418362,-0.326962,2.037713,0.01057,0.000645771823237899,-0.015620696805349166,1.8211812787392958
240.6015037593985,0.609594989662809,0.5734583974461476,-11.423263,-0.323893,2.046956,0.002054,-0.005462880558742252,-0.012967796342317817,1.8219666419961082
241.60401002506265,0.6095953760787054,0.5734583457844016,-11.428825,-0.326541,2.048061,0.011722,-0.005323254218582706,-0.010925761117484445,1.8219491887035881
242.6065162907268,0.6095957624946017,0.5734582953443863,-11.446054,-0.329982,2.044164,0.021841,-0.0004712388980384689,-0.00959931088596866,1.8211288141419808
243.60902255639095,0.6095961462925042,0.5734582429845088,-11.464447,-0.337168,2.034289,0.014504,0.001448623279155293,-0.007679448708775016,1.820186318892611
244.61152882205513,0.6095965274724129,0.573458188704769,-11.472881,-0.342331,2.030124,0.002458,0.001012290966156711,-0.006422811647339044,1.818790160210771
245.6140350877193,0.6095969096995191,0.5734581333778317,-11.472825,-0.335123,2.039783,-0.000711,-0.00015707963267948998,-0.004363323129985774,1.8178302116688814
246.61654135338344,0.6095972934974216,0.5734580808434212,-11.473185,-0.315576,2.050881,0.004284,-0.007225663103256525,0.00019198621771954194,1.8174812156316529
247.6190476190476,0.609597680087851,0.5734580312760704,-11.480109,-0.307914,2.047138,0.00748,-0.003926990816987243,0.005515240436302138,1.8177953225371342
248.62155388471177,0.6095980633621546,0.5734579839776478,-11.484881,-0.313106,2.028785,-0.000345,0.0005934119456780715,0.008779006137531464,1.8180396686324132
249.62406015037593,0.609598442796734,0.5734579352829615,-11.476594,-0.327568,2.016593,-0.016805,0.005235987755982989,0.008604473212332042,1.8179697681958709
250.62656641604008,0.60959882083505,0.5734578811777548,-11.450057,-0.342713,2.0239,-0.034089,0.005340707511102649,0.006998770300497226,1.8179350186904637
251.62907268170426,0.6095992007932282,0.5734578249781529,-11.407969,-0.344005,2.051214,-0.046635,-0.0009250245035569957,0.006370451769779351,1.8166433877775252
252.6315789473684,0.6095995880817893,0.573457770872946,-11.364017,-0.325186,2.075572,-0.039526,-0.005515240436302083,0.007871434926494558,1.8144793016781
253.63408521303256,0.6095999814790025,0.5734577193857331,-11.335087,-0.305322,2.070694,-0.017471,-0.009773843811168248,0.011030480872604276,1.814008045326769
254.63659147869672,0.6096003696402282,0.5734576724363762,-11.33406,-0.296588,2.034391,0.011595,-0.0011693705988362001,0.012007865253720995,1.8141824909855058
255.6390977443609,0.6096007487257418,0.5734576267087498,-11.353736,-0.305884,1.999782,0.020952,0.008674286382411817,0.007976154681614167,1.8147932864105336
256.64160401002505,0.6096011224007346,0.5734575764432674,-11.363994,-0.321694,2.001015,-0.00517,0.004468042885105484,0.0009599310885970436,1.8156834392356356
257.64411027568923,0.6096014976465238,0.5734575235597911,-11.338153,-0.332687,2.035559,-0.043261,5.235987755982955e-05,-0.003106686068549802,1.8168353914485371
258.64661654135335,0.6096018833642884,0.5734574692800513,-11.279902,-0.332862,2.076374,-0.062786,-0.004276056667386108,-0.0008726646259971105,1.8176556438370968
259.64912280701753,0.6096022776341665,0.5734574160475092,-11.226514,-0.327097,2.089753,-0.037039,-0.008395033702092724,0.004066617157146846,1.8181094468959085
260.6516290726817,0.6096026733003079,0.5734573640366973,-11.215274,-0.317198,2.065888,0.010812,-0.004694935687864747,0.007539822368615612,1.8186157145520339
261.65413533834584,0.609603060414336,0.5734573151674783,-11.244973,-0.303936,2.022202,0.038961,-0.00045378560551852557,0.00588175957922088,1.8187727069182509
262.65664160401,0.6096034358346581,0.573457266821858,-11.282318,-0.30655,1.991405,0.027988,0.011955505376161156,-0.00029670597283892874,1.8216349421717668
263.65914786967414,0.6096038079388546,0.5734572177781061,-11.291771,-0.326032,2.000537,-0.00624,0.010035643198967395,-0.006981317007977328,1.824846452715191
264.6616541353383,0.6096041833591768,0.5734571650691627,-11.268392,-0.349553,2.040634,-0.033566,0.0023911010752322324,-0.008534660042252229,1.8260681657382947
265.6641604010025,0.6096045704732049,0.5734571072987645,-11.22813,-0.36477,2.077228,-0.038416,-0.003595378259108319,-0.004747295565424414,1.8244972995983297
266.66666666666663,0.6096049647430829,0.5734570491793004,-11.196232,-0.355847,2.080592,-0.019499,-0.01129228026040331,0.000279252680319253,1.8208845902197492
267.6691729323308,0.6096053570930988,0.5734569935032973,-11.194684,-0.331194,2.053375,0.015701,-0.005480333851262195,0.0009250245035570259,1.8167830664775626
268.671679197995,0.6096057415891329,0.5734569418415514,-11.227882,-0.312877,2.022676,0.043893,0.0040666171571467884,-0.0022514747350725894,1.8157184679937235
269.6741854636591,0.6096061196274489,0.5734568943685957,-11.271736,-0.311289,2.008833,0.037353,0.005148721293383273,-0.0056374134839416445,1.8169925234410944
270.6766917293233,0.6096064955713698,0.5734568467211072,-11.297108,-0.320096,2.016506,0.012712,0.004153883619746505,-0.006300638599699537,1.8179350186904637
271.6791979949875,0.6096068750059492,0.5734567975028222,-11.294351,-0.333534,2.034393,-0.015301,0.00027925268031909247,-0.004136430327226437,1.8183712462837072
272.6817042606516,0.6096072582802529,0.5734567446193459,-11.268801,-0.340246,2.049155,-0.029546,-0.003438298626428829,1.74532925198978e-05,1.818126900188428
273.6842105263158,0.6096076462669456,0.5734566901650733,-11.239753,-0.337002,2.057094,-0.026238,-0.001832595714594046,0.00422369678982637,1.8179697681958713
274.68671679197996,0.6096080340791055,0.573456637107064,-11.220254,-0.327357,2.053795,-0.015254,-0.0012566370614359177,0.0070162235930173456,1.8170971908363363
275.6892230576441,0.609608419971403,0.5734565864925156,-11.211018,-0.319016,2.041382,-0.005616,-0.007365289443416071,0.00755727566113551,1.8160498885653846
276.69172932330827,0.6096088035947727,0.5734565367506319,-11.209103,-0.315971,2.031026,-0.001149,0.0019198621771937632,0.006632251157578484,1.815229636176825
277.6942355889724,0.6096091837274837,0.5734564864851496,-11.209228,-0.316,2.025363,-0.000722,0.002164208272472969,0.00568977336150156,1.8150201792132932
278.69674185463657,0.6096095640347278,0.5734564356960683,-11.204147,-0.320786,2.025237,-0.011179,-0.0010821041362364845,0.00568977336150156,1.8150377546788605
279.69924812030075,0.6096099452146364,0.5734563847324542,-11.182746,-0.324747,2.032986,-0.031497,0.004031710572106901,0.005724679946541356,1.816084917323472
280.7017543859649,0.6096103286634731,0.5734563332452411,-11.143488,-0.322748,2.047352,-0.041483,0.0002443460952792054,0.006370451769779351,1.8166958523748402
281.70426065162906,0.6096107145557706,0.5734562819325612,-11.103518,-0.319721,2.05893,-0.036911,-0.002111848394913138,0.008534660042252229,1.8174461868735652
282.70676691729324,0.6096111016697987,0.5734562313180128,-11.074245,-0.312488,2.054421,-0.022709,-0.0033161255787892267,0.010943214410004565,1.8170797375438166
283.70927318295736,0.6096114865148988,0.5734561812270634,-11.061034,-0.30479,2.036362,-0.005514,-0.0028448866807507574,0.010733774899765125,1.8167830664775626
284.71177944862154,0.6096118678693404,0.5734561323578443,-11.060717,-0.309104,2.018436,-0.000397,0.001117010721276371,0.007504915783575594,1.8178651008006288
285.7142857142857,0.6096122459076564,0.5734560834886253,-11.053177,-0.316899,2.018814,-0.017414,0.0037699111843077517,0.0023561944901924203,1.8185458141154915
286.71679197994985,0.6096126244695711,0.5734560330486099,-11.024816,-0.312287,2.039775,-0.035503,-0.0005235987755982988,-0.0006108652381979773,1.8185981390864665
287.719298245614,0.6096130073948091,0.5734559847029896,-10.986746,-0.302193,2.066523,-0.037755,-0.0053058009260627615,-5.23598775596934e-05,1.8193487528378718
288.72180451127815,0.6096133939852384,0.5734559374045668,-10.954875,-0.297597,2.074715,-0.023481,-0.00815068760681352,0.002391101075232216,1.8211115004758007
289.72431077694233,0.6096137838917932,0.5734558904552101,-10.946296,-0.303583,2.055047,0.003842,-0.0010122909661567118,0.003944444109507339,1.8247590989861289
290.7268170426065,0.6096141680387616,0.5734558417605238,-10.961039,-0.313969,2.021745,0.020068,0.005166174585903215,0.002286381320112607,1.8285988407938087
291.72932330827064,0.6096145459025446,0.573455792367706,-10.980782,-0.315629,2.00202,0.016477,0.006387905062299244,-0.003193952531149513,1.830134695628979
292.7318295739348,0.6096149194030046,0.5734557419276907,-10.988591,-0.318733,2.012719,-0.002456,0.0031590459461097353,-0.009930923443847606,1.8308852919270917
293.734335839599,0.6096152979649193,0.5734556895678131,-10.971213,-0.325102,2.048402,-0.0285,-0.0017802358370342154,-0.013473941825396185,1.8315136802709797
294.7368421052631,0.6096156876969413,0.5734556368588697,-10.939351,-0.329495,2.085238,-0.029073,-0.005672320068981572,-0.012391837689159635,1.831583318908134
295.7393483709273,0.6096160833630827,0.5734555838008604,-10.923263,-0.332065,2.091678,-0.003466,-0.0045204027626653135,-0.0077492618788548295,1.8322116897987297
296.7418546365915,0.6096164764112303,0.5734555310919169,-10.940633,-0.324298,2.058019,0.034052,-0.0019896753472735357,-0.004049163864626726,1.8324734717332365
297.7443609022556,0.6096168603836657,0.57345547995377,-10.993024,-0.311669,2.009817,0.064799,0.0021293016874330815,-0.0045378560551851965,1.8316183302129292
298.7468671679198,0.6096172340586586,0.5734554286410899,-11.061411,-0.31463,1.982104,0.065483,0.011362093430483087,-0.009285151620609833,1.832299043527792
299.74937343358397,0.6096176035448612,0.5734553788992062,-11.110683,-0.327884,1.997632,0.030433,0.011205013797803599,-0.014084807063594162,1.8327179574548556
300.7518796992481,0.6096179798378479,0.5734553267138616,-11.110679,-0.342822,2.043222,-0.025815,0.00019198621771937497,-0.014398966328953211,1.8331367317555793
301.7543859649123,0.6096183702680017,0.5734552708633255,-11.059582,-0.343162,2.09139,-0.063485,-0.010384709049366262,-0.008168140899333487,1.8326131504332732
302.7568922305764,0.6096187685521369,0.5734552165835858,-11.00347,-0.335823,2.105653,-0.039168,-0.007190756518216637,0.0012042771838760569,1.831583318908134
303.7593984962406,0.609619167359871,0.5734551631765107,-10.995893,-0.32816,2.07423,0.022127,-0.008272860654453124,0.008307767239493113,1.8310947488906235
304.76190476190476,0.6096195549974979,0.5734551113402319,-11.045268,-0.321801,2.017749,0.064302,0.002111848394913138,0.009791297103688201,1.8303966171898258
305.7644110275689,0.6096199277998261,0.5734550593294202,-11.113457,-0.324715,1.976444,0.060311,0.011082840750163992,0.003385938748869055,1.830012714567557
306.76691729323306,0.6096202948425677,0.5734550074931414,-11.150889,-0.333362,1.983632,0.011194,0.009913470151327791,-0.004258603374866166,1.8296286897722407
307.76942355889724,0.6096206679939618,0.5734549551332638,-11.127146,-0.339156,2.032638,-0.050338,0.002076941809873252,-0.006475171524898959,1.8291399975816822
308.77192982456137,0.6096210538862594,0.5734548998063266,-11.056922,-0.341852,2.081672,-0.074823,-0.006283185307179586,-0.0017627825445141188,1.828145177361338
309.77443609022555,0.6096214514722631,0.5734548437812576,-10.993304,-0.336243,2.099994,-0.04375,-0.009302604913129777,0.005515240436302138,1.8262252977308517
310.77694235588973,0.6096218502799972,0.5734547919449788,-10.980364,-0.326103,2.072908,0.014348,-0.004799655442984408,0.009721483933608388,1.8250907988104703
311.77944862155385,0.6096222365213606,0.5734547390615025,-11.019114,-0.327598,2.020413,0.049446,0.0022165681500327995,0.007853981633974438,1.8252303378841674
312.78195488721803,0.609622611069018,0.5734546877488225,-11.068606,-0.336711,1.988083,0.038907,0.007784168463894709,0.003124139361069922,1.8258587087747629
313.7844611528822,0.6096229814278854,0.5734546346908131,-11.088264,-0.336672,1.998141,-4e-06,0.009145525280450288,0.0008901179185172303,1.8244276609611751
314.78696741854634,0.6096233552774112,0.5734545807601392,-11.067363,-0.328439,2.030749,-0.035415,-0.002495820830351891,0.0029146998508304822,1.821966641996108
315.7894736842105,0.6096237380281161,0.5734545284002617,-11.01913,-0.323075,2.061,-0.054395,-0.008220500776893293,0.007435102613496003,1.8206575577906496
316.79197994987464,0.6096241291564015,0.5734544769130488,-10.967658,-0.325369,2.07199,-0.04462,-0.004572762640225142,0.012042771838761013,1.8202387834899265
317.7944862155388,0.6096245202846868,0.573454424902237,-10.936963,-0.335041,2.063422,-0.018693,-0.002600540585471549,0.015341444125030135,1.8203784621899632
318.796992481203,0.6096249089695113,0.5734543711460961,-10.932937,-0.33748,2.039984,0.00304,-0.0001396263401595462,0.017296212887263795,1.8201166802554567
319.79949874686713,0.6096252894512882,0.5734543180880869,-10.94097,-0.324012,2.012137,0.006259,-0.0013264502315156897,0.01713913325458427,1.8178302116688816
320.8020050125313,0.6096256646970775,0.5734542667754069,-10.943022,-0.309478,1.994403,-0.005934,0.004206243497306336,0.013823007675795251,1.8158056820964457
321.8045112781955,0.6096260385466031,0.5734542179061879,-10.925636,-0.308642,2.006066,-0.027726,0.005026548245743668,0.00842994028713262,1.8161198064552195
322.8070175438596,0.6096264164103862,0.5734541693860346,-10.882948,-0.319857,2.042396,-0.054581,0.002722713633111155,0.005864306286700982,1.8183537929911875
323.8095238095238,0.6096268033498814,0.5734541185969534,-10.818784,-0.330661,2.07797,-0.067578,-0.007784168463894711,0.008970992355251006,1.8195755234675832
324.812030075188,0.6096271974452265,0.5734540648408124,-10.758721,-0.339598,2.084372,-0.050239,-0.0075572756611354455,0.014416419621473331,1.8194183914750266
325.8145363408521,0.6096275904933741,0.5734540103865398,-10.728872,-0.33811,2.057186,-0.011528,-0.004572762640225143,0.01785471824790208,1.8188250493425182
326.8170426065163,0.6096279744658095,0.5734539569794647,-10.739004,-0.325339,2.015586,0.024965,0.002007128639793479,0.017383479349863507,1.8174288732073856
327.8195488721804,0.6096283483153352,0.5734539058413176,-10.768694,-0.316626,1.986441,0.023583,0.006370451769779303,0.01333431548523678,1.815910349491688
328.8220551378446,0.609628717452472,0.573453855924901,-10.774556,-0.317561,1.990499,-0.016092,0.008604473212332044,0.008342673824532909,1.8152472116423926
329.82456140350877,0.6096290913019979,0.5734538053103526,-10.732096,-0.317502,2.029548,-0.061927,0.0023561944901923444,0.00530580092606292,1.8144617262125324
330.8270676691729,0.6096294770197626,0.5734537548703372,-10.655233,-0.3169,2.075613,-0.082664,-0.008883725892651137,0.00677187749773811,1.8137985883632373
331.8295739348371,0.6096298733840357,0.5734537037321902,-10.57715,-0.318708,2.097104,-0.065539,-0.009704030641088473,0.01029744258676657,1.813501777670643
332.83208020050125,0.6096302720172369,0.5734536525940431,-10.534592,-0.315365,2.081213,-0.01909,-0.006597344572538567,0.013072516097437648,1.8134319994071482
333.8345864661654,0.6096306629709892,0.573453601281363,-10.545062,-0.311526,2.035797,0.029391,-0.0021816615649929132,0.011222467090323596,1.8143394833517228
334.83709273182956,0.6096310408347724,0.5734535510158806,-10.584597,-0.310631,1.990076,0.037655,0.010175269539126938,0.005323254218582818,1.8155090110301917
335.83959899749374,0.6096314110191067,0.5734535037174578,-10.608793,-0.300897,1.984896,0.008749,0.009337511498169662,-0.0027052603405910425,1.8161897068917623
336.84210526315786,0.6096317841705008,0.5734534560699693,-10.597848,-0.296021,2.019117,-0.028011,0.00017453292519943259,-0.007714355293814812,1.8181444756539955
337.84461152882204,0.609632166397607,0.5734534080734148,-10.551157,-0.301088,2.062126,-0.058588,-0.002827433388230814,-0.006911503837897515,1.8204481008271178
338.8471177944862,0.6096325583985569,0.5734533606004593,-10.494827,-0.312326,2.084287,-0.045046,-0.005445427266222308,-0.0038746309394273037,1.8217397317400563
339.84962406015035,0.6096329530175008,0.5734533099859108,-10.469264,-0.328697,2.075752,-0.005777,-0.004363323129985824,-0.0013439035240356834,1.8218270854691185
340.8521303258145,0.6096333430985886,0.5734532578005662,-10.481057,-0.326628,2.045102,0.02246,-0.0003490658503988657,-0.0017104226669544254,1.821268632468358
341.85463659147865,0.6096337239294315,0.5734532061388204,-10.512568,-0.308542,2.014529,0.032572,0.007347836150896128,-0.006544984694978773,1.8218443991352984
342.85714285714283,0.6096340984770889,0.5734531590149305,-10.543158,-0.289451,2.003075,0.025981,0.003996803987067016,-0.013735741213195318,1.824130850268581
343.859649122807,0.6096344721520817,0.5734531141599688,-10.5633,-0.290133,2.012959,0.014702,0.0031764992386296782,-0.021275563581810708,1.8272724603754633
344.86215538847114,0.6096348526338587,0.5734530682578095,-10.573739,-0.308496,2.039676,0.007793,-0.001867502299633934,-0.026720990848033033,1.8295065865377713
345.8646616541353,0.6096352385261563,0.5734530186904588,-10.580483,-0.330094,2.06586,0.00795,-0.004415683007545657,-0.02832669375986785,1.8306932882560796
346.8671679197995,0.6096356293053757,0.5734529651088507,-10.593537,-0.343184,2.071112,0.020548,-0.003892084231947351,-0.026337018412594393,1.831530976483867
347.8696741854636,0.6096360195609966,0.5734529080365841,-10.625577,-0.337671,2.049544,0.044113,-0.0036477381366681496,-0.02420771672516131,1.8317927758716663
348.8721804511278,0.6096364040570308,0.5734528520115152,-10.686779,-0.325206,2.017006,0.07386,0.0019198621771937651,-0.025726153174396416,1.8308504202486366
349.874686716792,0.6096367798264187,0.5734527996516376,-10.765693,-0.319429,1.998864,0.079751,0.00476474885794452,-0.030351275692181323,1.8309201810588391
350.8771929824561,0.609637152628747,0.5734527506078857,-10.838531,-0.321462,2.009128,0.064694,0.0024783675378319487,-0.03495894491744633,1.8307805023588017
351.8796992481203,0.6096375296198654,0.5734526996442716,-10.888639,-0.327802,2.037915,0.036509,3.471640745877938e-18,-0.03555235686312441,1.829454121940456
352.88220551378447,0.6096379163848277,0.5734526474589268,-10.913746,-0.329998,2.063183,0.019098,-0.009232791743050008,-0.03176499238629682,1.8276390318782596
353.8847117794486,0.6096383090839094,0.5734525937027859,-10.933138,-0.336632,2.066584,0.025406,-0.0008901179185171086,-0.0256737932968365,1.827272460375463
354.8872180451128,0.6096386993395301,0.5734525399466449,-10.969045,-0.338846,2.049427,0.046921,0.003106686068549907,-0.020559978588493122,1.8285814049545817
355.8897243107769,0.6096390819157022,0.5734524853178394,-11.029664,-0.332368,2.023236,0.067498,-0.0013089969389957475,-0.018256143975860617,1.8287210836546188
356.8922305764411,0.6096394582086888,0.573452432783429,-11.100173,-0.322074,2.005958,0.06785,0.0008377580409572775,-0.018500490071139852,1.82589359790651
357.89473684210526,0.6096398329308793,0.5734523814707488,-11.16098,-0.325767,2.007912,0.0497,0.00630063859969953,-0.018186330805780804,1.824043636165859
358.8972431077694,0.6096402085257342,0.5734523284127395,-11.192703,-0.33147,2.028143,0.014993,0.009197885158010117,-0.013177235852557034,1.823240697443479
359.89974937343356,0.6096405907528404,0.5734522753547304,-11.194602,-0.329251,2.049594,-0.007696,-0.0060911990894602095,-0.004956735075663854,1.8217920741643234
360.90225563909775,0.6096409782159344,0.5734522222967211,-11.182783,-0.327896,2.053397,-0.016381,-0.0019024088846738192,0.004153883619746557,1.8203434508851681
361.90476190476187,0.6096413632355674,0.5734521695877777,-11.167602,-0.326011,2.042277,-0.014178,-0.0010122909661567099,0.009843656981248117,1.8186680395230088
362.90726817042605,0.6096417454626736,0.5734521194968282,-11.158014,-0.324594,2.032563,-0.009798,-0.00015707963267949025,0.011397000015523018,1.8179873436614384
363.90977443609023,0.6096421273407139,0.5734520681841482,-11.148798,-0.319476,2.033538,-0.014269,0.004101523742186676,0.011641346110802253,1.8170971908363363
364.91228070175436,0.6096425081715567,0.5734520191403962,-11.128512,-0.306364,2.038976,-0.025346,-0.0025481807079117216,0.013020156219877732,1.8149854297078858
365.91478696741854,0.6096428926675909,0.5734519714929075,-11.105349,-0.299679,2.038956,-0.020306,-0.0030019663134302475,0.014678219009272464,1.8147932864105338
366.91729323308266,0.6096432757673618,0.5734519243690178,-11.089013,-0.302879,2.02849,-0.013758,-0.004869468613064179,0.016214108751027467,1.81680050231679
367.91979949874684,0.6096436536311448,0.5734518772451279,-11.0734,-0.309078,2.01662,-0.020378,0.006841690667817771,0.015219271077390628,1.817550976441855
368.922305764411,0.6096440299241316,0.5734518273287114,-11.047199,-0.317137,2.018516,-0.033069,0.009808750396208134,0.012479104151759568,1.818737695613456
369.92481203007515,0.6096444088351122,0.5734517746197679,-11.007653,-0.321445,2.037279,-0.046011,0.0021816615649929124,0.010611601852125618,1.8210940471832813
370.9273182957393,0.6096447928075476,0.5734517238306868,-10.956789,-0.313899,2.058016,-0.052481,-0.006928957130417488,0.011135200627723885,1.8210591755048262
371.9298245614035,0.6096451820159707,0.5734516744378689,-10.910081,-0.310363,2.060979,-0.038864,-0.004729842272904632,0.01303760951239763,1.8217571850325762
372.93233082706763,0.6096455700026635,0.5734516257431828,-10.882331,-0.316398,2.042567,-0.017591,0.00022689280275926387,0.014154620233673976,1.8234501544070107
373.9348370927318,0.6096459522297697,0.5734515765248979,-10.876296,-0.327618,2.017822,0.001888,0.004677482395344804,0.012182398178920417,1.8243228713928854
374.937343358396,0.609646327301026,0.5734515253867507,-10.882346,-0.340955,2.005044,0.004521,0.006841690667817772,0.007976154681614167,1.82439264965638
375.9398496240601,0.6096467014996175,0.5734514718051428,-10.87894,-0.340914,2.011625,-0.0137,0.006998770300497261,0.004660029102824925,1.822944026377225
376.9423558897243,0.6096470786652689,0.5734514183980676,-10.853376,-0.325725,2.030774,-0.034281,-0.0023736477827122886,0.0035081117965085618,1.8205703436879275
377.9448621553885,0.609647463510369,0.5734513674344534,-10.815914,-0.306858,2.05002,-0.034506,-0.005811946409141119,0.0034382986264289706,1.8191042671162523
