Time [s],Longitude [rad],Latitude [rad],Altitude [m],V North [m/s],V East [m/s],V Down [m/s],Roll [rad],Pitch [rad],Yaw [rad]
0.0,0.5733883907190538,0.6090217772852289,-14.989594,-0.08489,2.068951,-0.005675,0.0499862297771176,-0.0008203047484373349,1.7652608771455198
1.0025062656641603,0.5733883758837551,0.6090221647483228,-14.989621,-0.106412,2.060074,0.005623,0.05120796025351363,0.0012740903539558606,1.7767801200218525
2.0050125313283207,0.573388357208732,0.6090225497679558,-15.000035,-0.129714,2.052231,0.012997,0.055274577410660414,0.0020420352248333657,1.7879151984765285
3.007518796992481,0.573388334170386,0.6090229339149241,-15.013989,-0.155236,2.048738,0.012651,0.05564109655357923,5.235987755982989e-05,1.7989108600305554
4.010025062656641,0.5733883076413813,0.6090233184109584,-15.023293,-0.181502,2.049462,0.005895,0.054017940349224504,-0.0022689280275926286,1.8090686762771624
5.012531328320802,0.5733882776217182,0.609023701859795,-15.024637,-0.206361,2.051174,-0.002626,0.05403539364174444,-0.0025830872929516074,1.81913929587434
6.015037593984962,0.573388243064199,0.6090240865303622,-15.017626,-0.229534,2.052187,-0.01049,0.05455899241734274,-0.002530727415391778,1.8292621008161518
7.017543859649122,0.5733882053650873,0.6090244715499952,-15.003743,-0.24393,2.054835,-0.015154,0.052935836212988016,-0.001186823891356144,1.8383553360322122
8.020050125313283,0.5733881652225143,0.6090248583149573,-14.990861,-0.256067,2.055187,-0.009407,0.04972443038931845,0.0003839724354387525,1.8471343072631587
9.022556390977442,0.5733881235091453,0.6090252438581892,-14.990552,-0.275081,2.050059,0.007223,0.052639130240148976,0.0015533430342749533,1.8564019706846635
10.025062656641603,0.5733880786541835,0.6090256269579599,-15.00536,-0.301233,2.038341,0.018332,0.05290092962794813,0.000890117918517108,1.8661583437500193
11.027568922305765,0.5733880282141681,0.6090260074397369,-15.023888,-0.330352,2.026567,0.015855,0.05223770451219028,-0.0015707963267948964,1.875984599798625
12.030075187969924,0.5733879739344283,0.6090263872233821,-15.031622,-0.352458,2.023396,0.000709,0.05904448859496817,-0.003543018381548489,1.8853570702417122
13.032581453634084,0.5733879168621618,0.6090267663088956,-15.021529,-0.366742,2.030626,-0.017277,0.05382595413150512,-0.003996803987067015,1.8941709306044061
14.035087719298245,0.5733878561247039,0.6090271485360018,-14.998401,-0.380633,2.037946,-0.02569,0.05009094953223726,-0.0019024088846738192,1.902915012703605
15.037593984962406,0.5733877941655154,0.6090275312867068,-14.978389,-0.397311,2.038545,-0.01466,0.04735078260660616,0.0008552113334772215,1.9113973128682975
16.040100250626566,0.5733877301119319,0.6090279142119447,-14.974967,-0.416677,2.029881,0.00461,0.04719370297392667,0.00301941960595019,1.920787219150612
17.042606516290725,0.5733876623931569,0.6090282943446559,-14.988013,-0.437323,2.014898,0.018478,0.04783947479716458,0.0028623399732707008,1.9307879208579544
18.045112781954884,0.5733875911837234,0.6090286699395109,-15.007979,-0.459429,1.999531,0.019934,0.056025068989017976,0.0011519173063162576,1.941870813967996
19.047619047619047,0.5733875164836314,0.6090290423927732,-15.02268,-0.483395,1.990407,0.008444,0.060196405901284424,-0.0016929693744344998,1.953407353057216
20.050125313283207,0.5733874382928809,0.6090294150205685,-15.021834,-0.5062,1.990783,-0.008665,0.05452408583230286,-0.0028623399732707008,1.9640189898159266
21.052631578947366,0.5733873571350706,0.6090297890446271,-15.003633,-0.531607,1.99788,-0.024226,0.050195669287356914,-0.0021467549799530253,1.9742465843260282
22.05513784461153,0.5733872709158057,0.6090301642904163,-14.975013,-0.559544,2.002759,-0.030147,0.054105206811824215,5.235987755982989e-05,1.984561550018485
23.05764411027569,0.5733871817294808,0.6090305419796666,-14.951597,-0.586323,1.999161,-0.014272,0.049410271123959466,0.0033335788713091696,1.9956618615144612
24.06015037593985,0.5733870880053,0.6090309161782581,-14.951639,-0.605035,1.985527,0.013771,0.04885176576332128,0.004694935687864747,2.005644987756236
25.062656641604008,0.5733869913140596,0.6090312874097901,-14.977626,-0.616472,1.964565,0.033395,0.0482932604026831,0.0045029494701453706,2.0136561886492306
26.065162907268167,0.5733868930520226,0.6090316530562684,-15.013848,-0.629691,1.944752,0.032319,0.05485569839018178,0.0019722220547535923,2.0218418002943763
27.06766917293233,0.5733867921719917,0.6090320160847527,-15.03536,-0.653238,1.935215,0.008387,0.06403613025567195,-0.0011519173063162576,2.030062178898222
28.07017543859649,0.5733866869286379,0.6090323789387042,-15.02689,-0.682002,1.94143,-0.023264,0.05803219762881146,-0.0025132741228718345,2.0388937543528236
29.07268170426065,0.5733865778455596,0.609032743363452,-14.992652,-0.702671,1.957245,-0.04099,0.05262167694762904,-0.0003665191429188092,2.0474458327810106
30.075187969924812,0.5733864656208888,0.6090331114533913,-14.955865,-0.716225,1.965907,-0.027589,0.04303981935418017,0.003839724354387525,2.055945446611883
31.07769423558897,0.5733863525235533,0.6090334802414623,-14.945563,-0.727343,1.957945,0.007004,0.037716565135597464,0.006946410422937432,2.064549989637385
32.08020050125313,0.573386236459158,0.6090338478078027,-14.969786,-0.743222,1.933478,0.035037,0.037803831598197175,0.006876597252857658,2.0750393835352856
33.08270676691729,0.5733861189984993,0.6090342083928262,-15.007998,-0.763465,1.903391,0.032411,0.053424528403546424,0.00307177948351002,2.086296827023819
34.08521303258145,0.5733859980471822,0.6090345623455985,-15.029724,-0.786305,1.884132,0.007955,0.05836381018669038,-0.0008203047484373349,2.097466934236583
35.08771929824561,0.573385872383476,0.6090349149021074,-15.025124,-0.81329,1.884073,-0.015058,0.05461135229490257,-0.0014660765716752368,2.1087243777251166
36.09022556390977,0.5733857434036442,0.6090352679822151,-15.004705,-0.83493,1.898404,-0.021955,0.05550147021341968,-6.981317007977319e-05,2.1189694255277383
37.092731829573935,0.5733856105840882,0.6090356240293825,-14.983736,-0.852555,1.905889,-0.016232,0.050876347695634705,0.001780235837034216,2.129755490491893
38.095238095238095,0.5733854744484066,0.6090359809492145,-14.974631,-0.873215,1.890884,0.000241,0.047036623341247176,0.0029845130209103037,2.1408732552803897
39.097744360902254,0.5733853355201981,0.6090363347274539,-14.981384,-0.897342,1.861367,0.01358,0.045954519205010695,0.0046251225177849735,2.1514498632810124
40.100250626566414,0.5733851931013311,0.6090366815243763,-14.997636,-0.921657,1.837639,0.01594,0.05476843192758206,0.004433136300065597,2.1614332513221752
41.10275689223057,0.5733850459700751,0.6090370234343768,-15.00877,-0.942052,1.829355,0.00502,0.05536184387326014,0.0038048177693476384,2.1718179952781265
42.10526315789473,0.5733848956972266,0.6090373648207784,-15.010589,-0.960252,1.831563,-0.000924,0.05080653452555493,0.003438298626428829,2.182220035446965
43.10776942355889,0.5733847443771805,0.6090377088251739,-15.008586,-0.976744,1.83337,-0.00162,0.04651302456564888,0.002548180707911721,2.1918020850266315
44.11027568922306,0.57338458921741,0.6090380528295696,-15.007112,-0.993463,1.824368,0.000169,0.04714134309636684,0.001361356816555577,2.201052172982569
45.11278195488722,0.5733844312651127,0.6090383933433067,-15.009143,-1.011909,1.805158,0.00463,0.048869219055841226,0.0011693705988362008,2.210197733169604
46.11528822055138,0.5733842703457557,0.6090387296682535,-15.017036,-1.03492,1.785981,0.010272,0.052569317070069205,0.001710422666954443,2.219430385286314
47.11779448621554,0.5733841055866743,0.6090390633752065,-15.025042,-1.057379,1.775556,0.004318,0.05366887449882564,0.0006457718232379018,2.2289076452976913
48.1203007518797,0.5733839371624014,0.6090393942896326,-15.024608,-1.074787,1.770964,-0.003689,0.04921828490624009,-0.0010297442586766543,2.2384545439462222
49.122807017543856,0.5733837659456017,0.6090397245059271,-15.01764,-1.08839,1.766389,-0.005981,0.05066690818539539,-0.0014835298641951802,2.247547639535943
50.125313283208015,0.5733835940306704,0.6090400550712874,-15.014076,-1.099648,1.756586,0.000567,0.04942772441647941,-0.0006981317007977319,2.2560998401371775
51.127819548872175,0.573383420021344,0.6090403835422527,-15.019928,-1.11418,1.738699,0.009088,0.04804891430740389,-6.981317007977319e-05,2.265262713990393
52.130325814536334,0.5733832428704249,0.6090407066026972,-15.029319,-1.135305,1.719924,0.007454,0.051399946471233,-0.0006632251157578452,2.2755603660166694
53.1328320802005,0.5733830624033803,0.6090410287904771,-15.029753,-1.16061,1.70939,-0.005412,0.05242969072990966,-0.002129301687433082,2.2857703850612037
54.13533834586466,0.57338287862021,0.609041348883862,-15.01844,-1.182601,1.709107,-0.014796,0.04818854064756344,-0.0020594885173533086,2.2957537905556586
55.13784461152882,0.5733826906482496,0.609041668453648,-15.003284,-1.20106,1.706717,-0.01291,0.04867723283812185,-0.0015009831567151233,2.3057022894650743
56.14035087719298,0.5733824998837623,0.6090419887215658,-14.99614,-1.21365,1.692808,0.001144,0.04775220833456486,-0.0012217304763960308,2.3151442589189757
57.14285714285714,0.5733823085956764,0.6090423048006932,-15.005833,-1.221607,1.67144,0.018609,0.046809730538487915,-0.0008552113334772215,2.3239582589080094
58.1453634085213,0.5733821146895964,0.6090426166910307,-15.029367,-1.235748,1.646315,0.025018,0.04604178566761041,-0.0025830872929516074,2.3353552589235327
59.14786967418546,0.5733819193872531,0.6090429226472485,-15.047604,-1.254753,1.624752,0.008824,0.05420992656694387,-0.0060911990894602095,2.346193788485002
60.150375939849624,0.5733817198961197,0.6090432237165444,-15.044606,-1.278003,1.612815,-0.014113,0.055082591192941045,-0.007330382858376184,2.356543625855914
61.152882205513784,0.5733815172633936,0.6090435263566367,-15.021799,-1.303685,1.610659,-0.027282,0.051487212933832724,-0.006056292504420323,2.3665443275632567
62.15538847117794,0.5733813099182784,0.6090438284731302,-14.991361,-1.326959,1.612039,-0.028458,0.04532620067429274,-0.0036302848441482054,2.3764576755415368
63.1578947368421,0.5733810987334389,0.6090441314622884,-14.968655,-1.34315,1.603904,-0.012724,0.045029494701453704,-0.0008203047484373349,2.3871915551610567
64.16040100250626,0.573380886326869,0.6090444318334527,-14.969311,-1.352385,1.580638,0.015418,0.04324925886441949,0.0016755160819145565,2.397349388860956
65.16290726817043,0.5733806725240355,0.6090447266195633,-14.996949,-1.3634,1.546098,0.036531,0.04302236606166022,0.0009948376736367678,2.407507205107563
66.16541353383458,0.5733804571504059,0.6090450126790277,-15.031807,-1.378918,1.514425,0.029832,0.04937536453891959,-0.0033335788713091696,2.4170368075432074
67.16791979949875,0.5733802400314469,0.609045294200636,-15.047857,-1.394499,1.497134,0.002003,0.05646140130201656,-0.007225663103256524,2.4253445398761153
68.1704260651629,0.5733800190727636,0.6090455717079871,-15.036764,-1.413287,1.493976,-0.021344,0.05757841202329293,-0.00747000919853573,2.433303119092162
69.17293233082707,0.5733797937507572,0.60904584991347,-15.007137,-1.435664,1.497891,-0.031992,0.051644292566512214,-0.004991641660703782,2.44161085142507
70.17543859649122,0.573379565287158,0.6090461302133479,-14.976371,-1.451159,1.500779,-0.022839,0.047787114919604745,-0.0009948376736367678,2.4495345589626614
71.17794486215539,0.5733793338564992,0.609046411909489,-14.965295,-1.465968,1.487397,0.001802,0.034033920413889425,0.0015009831567151233,2.4587498974131914
72.18045112781954,0.5733791010295771,0.6090466897659059,-14.977913,-1.474358,1.458244,0.021735,0.0417657290002243,0.0008726646259971648,2.468052589592784
73.1829573934837,0.5733788689007866,0.6090469611646047,-15.005622,-1.479043,1.426565,0.031413,0.05073672135547516,-0.0005061454830783556,2.4765001227987766
74.18546365914787,0.5733786352011997,0.6090472254074534,-15.034869,-1.488677,1.401216,0.023943,0.05715953300281429,-0.003892084231947355,2.4845809623289252
75.18796992481202,0.5733784001053494,0.6090474835416498,-15.044215,-1.502928,1.388422,-0.004014,0.060248765778844256,-0.0075223690760955605,2.492853805530086
76.19047619047619,0.5733781616933737,0.6090477416758462,-15.025175,-1.523723,1.387313,-0.029955,0.05784021141109208,-0.0074176493209759005,2.501458208929248
77.19298245614034,0.5733779199652722,0.6090480006827071,-14.987604,-1.541216,1.390599,-0.037061,0.05759586531581287,-0.0037524578917878084,2.5098708704567856
78.19548872180451,0.573377675444644,0.6090482626566279,-14.958185,-1.555032,1.386108,-0.015311,0.05136503988619312,0.0013788101090755204,2.5188939259836234
79.19799498746866,0.5733774281314891,0.6090485223616207,-14.956417,-1.568117,1.364702,0.011419,0.045710173109731495,0.0033335788713091696,2.529645101816031
80.20050125313283,0.5733771787239389,0.6090487768306255,-14.975111,-1.578925,1.332658,0.023833,0.04996877648459765,0.002478367537831948,2.5404314460328665
81.203007518797,0.5733769303635864,0.6090490258891098,-14.997655,-1.586376,1.302562,0.020799,0.059550634078046526,0.0002443460952792061,2.550938415396335
82.20551378446115,0.5733766800833716,0.6090492676172111,-15.012587,-1.599944,1.279751,0.010208,0.06258750697651666,-0.0013788101090755204,2.562230486217228
83.20802005012531,0.5733764268360971,0.6090495035857261,-15.01518,-1.618951,1.261492,-0.003084,0.06270968002415626,-0.0023212879051524586,2.572999237515203
84.21052631578947,0.5733761700981641,0.6090497381579775,-15.007467,-1.638324,1.249078,-0.010183,0.06211626807847819,-0.0019198621771937625,2.582040130306996
85.21303258145363,0.5733759105677043,0.6090499701122352,-14.993135,-1.657665,1.238417,-0.017377,0.05630432166933707,-0.0013439035240356337,2.5909936868230194
86.21553884711778,0.5733756482447178,0.6090501999720975,-14.972782,-1.674247,1.228052,-0.018281,0.05160938598147232,0.0014486232791552935,2.599929929672863
87.21804511278195,0.5733753829546715,0.609050430181026,-14.958652,-1.686613,1.217405,-0.005978,0.04719370297392667,0.004642575810304917,2.6085865358699523
88.22055137844612,0.5733751171410265,0.6090506589936908,-14.96364,-1.693379,1.201916,0.017226,0.04241150082346221,0.0052010811709431014,2.618116120852304
89.22305764411027,0.5733748492329863,0.6090508822213022,-14.988857,-1.701751,1.168247,0.03114,0.04462806897349501,0.0021991148575128553,2.6295131208678266
90.22556390977444,0.573374579405084,0.6090510981185306,-15.019336,-1.710988,1.131876,0.028035,0.05330235535590682,-0.0008028514559173916,2.6387982201285594
91.22807017543859,0.5733743087045169,0.6090513082561726,-15.036902,-1.724175,1.106299,0.007219,0.051260320131073456,-0.004049163864626845,2.6457445432850344
92.23057644110276,0.5733740348623573,0.6090515124596951,-15.027526,-1.742257,1.098737,-0.021733,0.052778756580308527,-0.004572762640225144,2.6517659641109996
93.23308270676691,0.5733737589258026,0.6090517164886847,-14.995606,-1.761416,1.101349,-0.035171,0.049480084294039245,-0.0022165681500327986,2.658764751864789
94.23558897243107,0.5733734793240565,0.6090519215648718,-14.959906,-1.774425,1.107433,-0.028219,0.0439822971502571,0.002129301687433082,2.666025321553086
95.23809523809523,0.5733731985005798,0.6090521301317174,-14.945709,-1.776407,1.104597,0.002858,0.036250488563922226,0.0053058009260627615,2.6748044324103724
96.2406015037594,0.5733729183752349,0.6090523357315032,-14.966927,-1.775896,1.076435,0.038351,0.037192966359999156,0.005323254218582705,2.6860094113015913
97.24310776942356,0.5733726387734885,0.6090525338263734,-15.013855,-1.778501,1.026111,0.048325,0.04452334921837535,0.0010821041362364843,2.697860214375925
98.24561403508771,0.5733723588226766,0.6090527209256691,-15.050742,-1.790489,0.977637,0.022902,0.057491145560693215,-0.0037524578917878084,2.708192476281269
99.24812030075188,0.5733720757302719,0.6090529001709833,-15.051548,-1.811381,0.959451,-0.017233,0.05633922825437696,-0.005707226654021458,2.7158195127526064
100.25062656641603,0.5733717882745442,0.6090530774964354,-15.019038,-1.834222,0.969037,-0.03917,0.05138249317871306,-0.004101523742186674,2.7225391874524174
101.2531328320802,0.5733714973281578,0.6090532581380129,-14.98033,-1.852034,0.97739,-0.029602,0.04565781323217166,-0.0006457718232379018,2.7313529256420632
102.25563909774435,0.573371202891113,0.6090534410485186,-14.960149,-1.860469,0.966818,-0.006577,0.03850196329899491,0.003159045946109736,2.7410220671514045
103.25814536340852,0.5733709082795353,0.6090536230863595,-14.965228,-1.85544,0.941981,0.015393,0.035098571257605966,0.0045553093477052,2.751267254580366
104.26065162907267,0.5733706161114185,0.6090537981428835,-14.988136,-1.849408,0.908828,0.0281,0.041713369122664476,0.0035953782591083188,2.761547051888395
105.26315789473684,0.5733703253395651,0.6090539641236954,-15.018528,-1.854783,0.868806,0.03079,0.04923573819876004,0.0004363323129985824,2.7727171416478664
106.265664160401,0.5733700326478495,0.6090541220759927,-15.040814,-1.876234,0.829572,0.012812,0.055798176186258715,-0.0031066860685499066,2.7836081358066513
107.26817042606515,0.5733697361164096,0.6090542744432363,-15.041935,-1.899865,0.808723,-0.008428,0.05098106745075436,-0.004084070449666731,2.792596581454422
108.27067669172932,0.5733694346980478,0.6090544248906179,-15.021285,-1.917423,0.805731,-0.026663,0.04745550236172582,-0.004084070449666731,2.799682722937274
109.27318295739347,0.5733691303126263,0.6090545753379993,-14.987872,-1.923358,0.809806,-0.033306,0.0438601241026175,-0.002234021442552742,2.806943292625571
110.27568922305764,0.573368827323468,0.6090547271816443,-14.960011,-1.918989,0.806252,-0.01555,0.045867252742410984,0.002670353755551324,2.815216135826731
111.27819548872179,0.5733685255560405,0.6090548788507564,-14.960057,-1.915666,0.785549,0.018287,0.03939208121751202,0.006283185307179586,2.8252341512002537
112.28070175438596,0.5733682232650139,0.609055024236683,-14.989352,-1.922351,0.744511,0.037398,0.04401720373529699,0.004694935687864747,2.8372945334111668
113.28320802005013,0.5733679197522571,0.609055159674233,-15.024031,-1.940068,0.695932,0.028031,0.051871185369271475,-0.0004363323129985824,2.8488659790854265
114.28571428571428,0.5733676136215062,0.6090552874323342,-15.03556,-1.955028,0.665285,-0.004697,0.056705747397295767,-0.004485496177625427,2.8575052716163363
115.28822055137844,0.5733673050472945,0.6090554092563161,-15.015229,-1.959629,0.661065,-0.028662,0.053389621818506545,-0.0038571776469074684,2.863579139586324
116.2907268170426,0.5733669950768194,0.6090555331746929,-14.984383,-1.961861,0.668086,-0.023971,0.04342379178961892,0.00020943951023931956,2.8692165181636806
117.29323308270676,0.573366685629943,0.6090556586638661,-14.968554,-1.966721,0.660458,-0.004395,0.03721041965251911,0.003926990816987242,2.878065407284462
118.29573934837092,0.5733663754849349,0.6090557817095783,-14.973678,-1.975176,0.631366,0.013584,0.03975860036043083,0.00486946861306418,2.88940994270267
119.29824561403508,0.5733660646417952,0.6090559009155663,-14.985687,-1.98121,0.599988,0.009947,0.04745550236172582,0.001954768762233649,2.9008418318499403
120.30075187969925,0.5733657531005236,0.6090560117439738,-14.991298,-1.983192,0.577513,0.003555,0.048729592715681676,0.000593411945678072,2.9114534511553583
121.3032581453634,0.5733654394648571,0.6090561166382619,-14.992007,-1.987738,0.558339,0.000839,0.04792674125976429,0.0009424777960769379,2.9213843920524982
122.30576441102757,0.5733651275745197,0.6090562176928255,-14.991504,-1.99614,0.535759,-0.000286,0.04857251308300219,0.0020420352248333657,2.931175758969357
123.30827067669172,0.5733648120189909,0.609056314733132,-14.988008,-2.006193,0.511716,-0.004319,0.0482932604026831,0.00307177948351002,2.941054235269182
124.31077694235589,0.5733644955907975,0.6090564077591811,-14.98321,-2.013951,0.49042,-0.001534,0.04817108735504349,0.004031710572106902,2.951543890966471
125.31328320802004,0.573364177242742,0.6090564986908351,-14.983092,-2.018983,0.473515,0.004847,0.0466002910282486,0.004433136300065597,2.9612127532231316
126.3157894736842,0.5733638590692194,0.609056585259166,-14.989675,-2.021785,0.452845,0.009647,0.04506440128649359,0.004101523742186674,2.9698872141384687
127.31829573934836,0.5733635396739662,0.6090566676387067,-14.99826,-2.025052,0.427857,0.007341,0.04434881629317591,0.0035779249665883754,2.978997605941076
128.32080200501252,0.5733632209768449,0.6090567447822597,-15.002181,-2.02821,0.402987,0.003301,0.043493604959698694,0.0033335788713091696,2.98864945123753
129.32330827067668,0.5733629012325259,0.609056818609687,-15.004619,-2.036558,0.383771,0.003401,0.04452334921837535,0.0031066860685499066,2.999103956003683
130.32581453634086,0.5733625799174107,0.6090568905172522,-15.007869,-2.044252,0.365379,0.004692,0.04635594493296939,0.0027401669256310974,3.009453793374595
131.328320802005,0.5733622584277623,0.6090569573633625,-15.010957,-2.047378,0.342751,0.00399,0.04605923896013035,0.0025830872929516074,3.019245160291453
132.33082706766916,0.5733619362399824,0.6090570203697485,-15.013878,-2.049077,0.317507,0.004612,0.04309217923174,0.0026529004630313807,3.0281635658763415
133.33333333333331,0.5733616124814063,0.6090570779656138,-15.019568,-2.052213,0.292922,0.007442,0.04635594493296939,0.0009948376736367678,3.0362446672058776
134.3358395989975,0.5733612894209618,0.6090571303254915,-15.026423,-2.054159,0.269815,0.006348,0.048869219055841226,-0.0015184364492350666,3.044447732143544
135.33834586466165,0.573360966884116,0.6090571774493811,-15.032002,-2.054221,0.247919,0.005916,0.049183378321200205,-0.0027052603405912107,3.0526156461500746
136.3408521303258,0.5733606431255397,0.6090572219552771,-15.03491,-2.057787,0.222255,0.000941,0.049165925028680266,-0.0032812189937493396,3.061604336143941
137.34335839598998,0.5733603198905621,0.6090572608761194,-15.026751,-2.063099,0.207837,-0.012983,0.047472955654245766,-0.003246312408709453,3.0681666345050993
138.34586466165413,0.5733599950847884,0.609057299447896,-15.007115,-2.066461,0.210638,-0.017447,0.04314453910929983,-0.0012915436464758037,3.0741179978148896
139.34837092731829,0.5733596699299487,0.6090573380196724,-14.994117,-2.067506,0.202776,-0.002687,0.03331833542057175,0.0005235987755982988,3.0833509117309874
140.35087719298244,0.5733593442515103,0.6090573732753233,-15.002709,-2.067985,0.163149,0.019004,0.03738495257771854,0.0006632251157578452,3.0956730933296996
141.35338345864662,0.5733590190966706,0.6090574003279267,-15.024377,-2.069907,0.113656,0.020943,0.041800635585264194,-0.0017976891295541594,3.106965425949981
142.35588972431077,0.5733586930691664,0.609057418304818,-15.03655,-2.068261,0.086621,0.003995,0.04792674125976429,-0.005061454830783556,3.11399884103613
143.35839598997492,0.5733583680888598,0.6090574319183861,-15.030987,-2.063931,0.079171,-0.008572,0.04242895411598215,-0.005288347633542819,3.119671370544622
144.36090225563908,0.5733580443302835,0.6090574429139605,-15.021053,-2.0641,0.065795,-0.007686,0.04242895411598215,-0.0032114058236695662,3.126565508356462
145.36340852130326,0.5733577198735755,0.6090574546076664,-15.01059,-2.069521,0.04645,-0.011963,0.04719370297392667,-0.0033161255787892262,3.134663644099498
146.3659147869674,0.5733573940206043,0.6090574640324444,-14.994364,-2.074745,0.040028,-0.015949,0.0488168591782814,-0.0025830872929516074,3.1420989212459194
147.36842105263156,0.5733570658987047,0.6090574720609591,-14.985476,-2.075888,0.030946,0.001126,0.045483280306972226,-0.0004363323129985824,3.1500050533179436
148.37092731829574,0.5733567379513383,0.6090574767733479,-14.99571,-2.072454,-0.003206,0.019325,0.04597197249753064,0.00022689280275926284,3.1610704756821724
149.3734335839599,0.5733564114002353,0.6090574734572224,-15.013757,-2.067094,-0.043554,0.015885,0.04731587602156627,-0.0018675022996339325,3.171071177389515
150.37593984962405,0.5733560864199285,0.6090574629852469,-15.022071,-2.061778,-0.073128,0.002414,0.053319808648426774,-0.004485496177625427,3.1799024910447287
151.3784461152882,0.5733557623122865,0.6090574458810202,-15.016386,-2.059958,-0.087695,-0.010889,0.04874704600820163,-0.005218534463463045,3.1871630607330252
152.38095238095238,0.5733554380301115,0.6090574268569313,-15.000909,-2.063953,-0.098234,-0.016242,0.04689699700108763,-0.003403392041388943,3.1946854298091205
153.38345864661653,0.5733551137479365,0.6090574078328425,-14.981337,-2.069705,-0.103587,-0.018414,0.049497537586559184,-0.001064650843716541,3.2032725369953954
154.38596491228068,0.573354788244031,0.6090573898559511,-14.96936,-2.07033,-0.113071,-0.000827,0.0449073216538141,0.0015882496193148398,3.2132210359048106
155.38847117794487,0.5733544625655924,0.6090573685629344,-14.981478,-2.065363,-0.14399,0.023323,0.039269908169872414,0.0013264502315156904,3.2256476056460848
156.39097744360902,0.5733541365380882,0.6090573395904687,-15.009064,-2.057893,-0.193657,0.027479,0.04323180557189954,-0.0005235987755982988,3.2378824335157352
157.39348370927317,0.5733538134776436,0.6090573020658898,-15.025481,-2.053081,-0.231979,0.003159,0.05438445949214331,-0.0038571776469074684,3.24786555975751
158.39598997493732,0.5733534912898637,0.6090572563382634,-15.013199,-2.049189,-0.244279,-0.022217,0.0541401133968641,-0.005462880558742251,3.2558593073579845
159.3984962406015,0.5733531703238144,0.6090572072945114,-14.986547,-2.049608,-0.246628,-0.023005,0.04862487296056202,-0.0018500490071139892,3.2638179040273236
160.40100250626566,0.5733528484851003,0.60905715947249,-14.974515,-2.051178,-0.261241,0.001052,0.04319689898685966,0.0021118483949131386,3.273504621002232
161.4035087719298,0.5733525259482545,0.6090571095560733,-14.982314,-2.051774,-0.293069,0.011103,0.03928736146239235,0.001780235837034216,3.2845524679008933
162.406015037594,0.5733522021896782,0.6090570535310044,-14.989812,-2.044615,-0.32282,0.001983,0.0490612052735606,-0.0011519173063162576,3.293977141141908
163.40852130325814,0.5733518803509642,0.6090569917463488,-14.989118,-2.035969,-0.342434,-0.000183,0.04836307357276287,-0.0004363323129985824,3.302040911351972
164.4110275689223,0.5733515604321123,0.6090569247257056,-14.991231,-2.031734,-0.362861,0.005446,0.049253191491279984,0.0011519173063162576,3.310104175416553
165.41353383458645,0.5733512410368592,0.6090568528181404,-14.997352,-2.026282,-0.387991,0.007678,0.04412192349041665,0.0004014257279586958,3.3189357508711548
166.41604010025063,0.5733509223397377,0.6090567782925812,-14.999096,-2.0218,-0.412056,-0.00396,0.051731559029111925,-0.00027925268031909274,3.3275574679364968
167.41854636591478,0.5733506043407481,0.6090567002763636,-14.987685,-2.024425,-0.420521,-0.017344,0.050352748920036404,0.0009424777960769379,3.33425956717074
168.42105263157893,0.5733502845964291,0.6090566224346791,-14.968793,-2.025946,-0.416858,-0.014232,0.0473682358991261,0.00312413936106985,3.3412407794589623
169.4235588972431,0.5733499658993078,0.6090565416259347,-14.967911,-2.022453,-0.436792,0.01293,0.04134684997974567,0.005044001538263612,3.352236441012989
170.42606516290726,0.5733496466785875,0.609056456977466,-14.991302,-2.013011,-0.486595,0.027806,0.04307472593922005,0.0026354471705114374,3.3648726073441355
171.42857142857142,0.5733493309485258,0.6090563634278181,-15.011299,-2.003086,-0.527387,0.008543,0.05373868766890541,-0.0012915436464758037,3.3754144658393512
172.43107769423557,0.5733490167892604,0.6090562635949849,-15.004199,-1.995943,-0.531253,-0.016341,0.04820599394008338,-0.0026005405854715507,3.3815578502734462
173.43358395989975,0.5733487033281268,0.6090561625404212,-14.985201,-1.993063,-0.526876,-0.013038,0.04113741046950635,0.0009599310885968813,3.3882423914954143
174.4360902255639,0.5733483898669931,0.6090560630566538,-14.979536,-1.99075,-0.547861,0.001893,0.036878807094640184,0.003612831551628262,3.3986620071298206
175.43859649122805,0.5733480772785241,0.6090559590350304,-14.98228,-1.985308,-0.577452,0.004144,0.03803072440095644,0.002949606435870417,3.409238737303491
176.44110275689223,0.573347764690055,0.6090558501264851,-14.98565,-1.982383,-0.600761,0.001116,0.04379031093253773,0.0017453292519943296,3.4186812478094604
177.4436090225564,0.5733474531487835,0.6090557354583532,-14.987802,-1.977406,-0.619626,0.003195,0.046565384443208714,0.0018849555921538759,3.4283155001870544
178.44611528822054,0.5733471426547097,0.6090556160778324,-14.993064,-1.967695,-0.641442,0.009437,0.043720497762457955,0.0029146998508305304,3.437984379897008
179.4486215538847,0.5733468330333004,0.6090554937302518,-15.005169,-1.956025,-0.668791,0.014919,0.03953170755767157,0.0021991148575128553,3.447827949611793
180.45112781954887,0.5733465256808191,0.6090553664957493,-15.016531,-1.949102,-0.691818,0.005748,0.0391826417072727,8.726646259971648e-05,3.457549555718449
181.45363408521303,0.5733462200736671,0.6090552371668518,-15.013551,-1.942378,-0.701346,-0.009325,0.04544837372193234,-0.001239183768915974,3.4659097526486717
182.45614035087718,0.5733459144665151,0.6090551067907567,-15.002217,-1.937394,-0.70983,-0.010122,0.046582837735728654,-0.00017453292519943296,3.474775937982341
183.45864661654133,0.5733456100810935,0.609054972924003,-14.99545,-1.931911,-0.730916,-0.000704,0.04181808887778413,0.0012915436464758037,3.485474928470113
184.4611528822055,0.5733453063938035,0.6090548338212617,-14.998221,-1.924536,-0.763079,0.005592,0.040107666210829694,0.0014835298641951802,3.49797153827427
185.46365914786966,0.5733450048009089,0.6090546891334666,-15.005295,-1.912472,-0.796458,0.007297,0.04221951460574283,0.001117010721276371,3.509700098487795
186.46616541353382,0.5733447044297446,0.6090545378134204,-15.011553,-1.899341,-0.824326,0.004882,0.0412770368096659,0.0,3.5201543414545604
187.468671679198,0.5733444066765743,0.6090543795120573,-15.012162,-1.88774,-0.846127,-0.002286,0.04668755749084831,-0.001361356816555577,3.5290905843044045
188.47117794486215,0.5733441103196671,0.6090542196398978,-15.008416,-1.881101,-0.858177,-0.00141,0.0470017167562073,-0.0009075712110370514,3.5362291903845713
189.4736842105263,0.5733438144863591,0.6090540590696067,-15.008419,-1.876446,-0.868072,0.001437,0.042743113381341125,0.0,3.5433499417464907
190.47619047619045,0.5733435214455775,0.6090538962303874,-15.010601,-1.867059,-0.882959,0.000962,0.03715805977495928,0.00027925268031909274,3.55188458433545
191.47869674185463,0.5733432285793292,0.609053729376911,-15.010828,-1.855738,-0.903038,0.000919,0.038257617203715705,-0.0002443460952792061,3.561099905332688
192.4812030075188,0.5733429360621465,0.6090535585091772,-15.011496,-1.850698,-0.923285,0.002383,0.04654793115068877,-0.0013962634015954637,3.5694252131311632
193.48370927318294,0.5733426444176284,0.6090533843253179,-15.013573,-1.847124,-0.942769,0.002428,0.045099307871533476,-0.0020594885173533086,3.57729673532412
194.48621553884712,0.5733423555656373,0.6090532071743988,-15.015601,-1.837338,-0.958872,0.002514,0.04379031093253773,-0.002722713633111154,3.584836400613103
195.48872180451127,0.5733420672372448,0.6090530258346895,-15.015674,-1.823135,-0.973857,-0.002561,0.04366813788489812,-0.0028448866807507574,3.59211456322026
196.49122807017542,0.5733417815268462,0.6090528436223156,-15.009335,-1.812413,-0.986555,-0.011049,0.035395277230445006,-0.0025656340004316645,3.600003364172811
197.49373433583958,0.5733414973872442,0.6090526594900795,-14.993345,-1.808436,-0.989807,-0.01865,0.03413864016900908,-0.0016580627893946131,3.609393410081466
198.49624060150376,0.5733412141203065,0.609052474136113,-14.979979,-1.807121,-0.991989,-0.004078,0.03953170755767157,0.0012915436464758037,3.6200047675874965
199.4987468671679,0.5733409299807042,0.6090522865132183,-14.991058,-1.797711,-1.025839,0.023917,0.03544763710800484,0.002617993877991494,3.634456146153887
200.50125313283206,0.5733406486336289,0.6090520922580727,-15.018231,-1.779091,-1.080158,0.019977,0.03885102914939378,-0.0019373154697137059,3.648977302983772
201.50375939849624,0.5733403709517448,0.6090518911961428,-15.01881,-1.701873,-1.072731,-0.020082,0.01984439359517553,-0.007260569688296411,3.656360115532878
202.5062656641604,0.5733401117703509,0.6090516951956678,-14.986061,-1.588827,-1.005801,-0.039344,-0.022200588085367873,-0.01085594794740473,3.662311478842669
203.50877192982455,0.5733398698677166,0.6090515110634317,-14.951804,-1.501878,-0.946746,-0.027373,-0.00890117918517108,-0.011815879036001611,3.6680013220173406
204.5112781954887,0.5733396464655723,0.6090513435118234,-14.937941,-1.429713,-0.908535,-0.005472,-0.0015882496193148398,-0.011501719770642632,3.673551626118315
205.51378446115288,0.5733394338844694,0.6090511832905982,-14.938585,-1.36098,-0.892701,-0.000343,-0.01572541656046891,-0.008011061266653973,3.67735621699486
206.51629072681703,0.5733392305536116,0.6090510248147021,-14.938973,-1.291929,-0.869938,-0.002907,-0.014276793281313614,-0.0005061454830783556,3.6773213278631127
207.51879699248119,0.5733390385673939,0.6090508696549316,-14.934094,-1.220788,-0.836614,-0.005883,-0.01153662635568252,0.004084070449666731,3.676885100269869
208.52130325814534,0.5733388570531516,0.6090507206038135,-14.932056,-1.162262,-0.795413,0.003439,-0.01731366617978375,0.008552113334772215,3.676396408079311
209.52380952380952,0.5733386828692922,0.6090505790576111,-14.940976,-1.116447,-0.759259,0.012956,-0.011222467090323538,0.010559241974565694,3.676326629815816
210.52631578947367,0.5733385149686182,0.6090504439691271,-14.957758,-1.077063,-0.734173,0.017627,-0.009564404300928926,0.01111774733520388,3.6769024139360487
211.52882205513782,0.57333835457286,0.6090503142911636,-14.984557,-0.992088,-0.681848,0.029889,0.036931166972200016,-0.03118903373313867,3.6753492628879916
212.531328320802,0.5733382090124004,0.6090501970050378,-14.975635,-0.901535,-0.616012,-0.064337,0.04070107815650776,-0.1617047377439821,3.6923660660153037
213.53383458646616,0.5733380795089699,0.6090500877474266,-14.858867,-0.781465,-0.585626,-0.168054,0.15885985106323133,-0.25068164046394553,3.7786378305677233
214.5363408521303,0.5733379711240233,0.6090499823295399,-14.666712,-0.659717,-0.640079,-0.217101,0.031066860685499065,-0.28148666685506046,3.8868308781653145
215.53884711779446,0.5733378756545132,0.6090498779588506,-14.44114,-0.58352,-0.668494,-0.236752,-0.007801621756414653,-0.2956064154102796,3.9399060789190745
216.54135338345864,0.5733377918787091,0.6090497618944554,-14.201303,-0.544884,-0.65556,-0.248503,-0.0009599310885968813,-0.310267181127032,3.96200206942237
217.5438596491228,0.5733377147351562,0.6090496384996772,-13.9554,-0.5166,-0.636131,-0.251188,-0.008796459430051421,-0.32703981269199,3.97132205781485
218.54636591478695,0.5733376400350642,0.6090495191191564,-13.709497,-0.47673,-0.625355,-0.251134,-0.012391837689159739,-0.34468509142965265,3.977029214655701
219.54887218045113,0.5733375677784331,0.6090494006113002,-13.446286,-0.474849,-0.670038,-0.298474,0.01117010721276371,-0.33686598147413305,3.9849704976588605
220.55137844611528,0.573337493427407,0.6090492707588038,-13.139235,-0.511814,-0.733041,-0.310555,0.1037598240310629,-0.24258329528139935,3.9798567004038095
221.55388471177943,0.5733374045901481,0.6090491267691405,-12.858501,-0.60289,-0.798176,-0.24493,0.00466002910282486,-0.1333082482673269,3.968686872443726
222.55639097744358,0.5733373051063808,0.609048973878298,-12.653564,-0.682813,-0.844943,-0.167306,0.011903145498601329,-0.06469935537142979,3.968686872443726
223.55889724310777,0.5733371911363807,0.6090488052794923,-12.521171,-0.736597,-0.891749,-0.098869,0.02829178717482808,-0.027454029133870805,3.9703446908870252
224.56140350877192,0.5733370649490757,0.6090486296993696,-12.4562,-0.773415,-0.953047,-0.033841,0.0233001455141243,-0.00778416846389471,3.9713918360783445
225.56390977443607,0.5733369331767172,0.6090484401566129,-12.449658,-0.817177,-1.023043,-0.005943,0.0982794901798007,-0.07253588371288433,3.97285791265002
226.56641604010025,0.5733367984372989,0.6090482387456171,-12.356633,-0.842605,-1.075806,-0.20564,0.20586158527273116,-0.2225120263367571,4.029109996614845
227.5689223057644,0.5733366668394734,0.6090480214521252,-12.049653,-0.744478,-1.167209,-0.388226,0.2672797041971191,-0.2689726910248461,4.19139051847906
228.57142857142856,0.5733365512986769,0.6090477905450652,-11.645205,-0.563854,-1.289513,-0.416734,0.0735307213865211,-0.27049112747408116,4.3712644129889835
229.5739348370927,0.5733364661266093,0.609047557718143,-11.232907,-0.32584,-1.353332,-0.414396,0.07099999397112931,-0.2846283118685278,4.569027286560025
230.5764411027569,0.5733364338380181,0.6090473037727369,-10.8316,-0.030018,-1.396658,-0.399238,0.09314822217893737,-0.2889567109601812,4.783703116167886
231.57894736842104,0.57333644588079,0.6090470456385405,-10.439916,0.291491,-1.407655,-0.400552,0.07532841051607526,-0.2910336353167619,4.989111125274608
232.5814536340852,0.57333651569396,0.6090467787776979,-10.015219,0.604209,-1.441082,-0.462951,0.050858894403114766,-0.29878289719561674,5.110690289729636
233.58395989974937,0.5733366286167627,0.6090465047610053,-9.512777,0.799025,-1.470965,-0.541964,0.04738568919164605,-0.30524063288128833,5.143502566933591
234.58646616541353,0.5733367823802697,0.6090462227157981,-8.962412,0.896423,-1.526293,-0.563544,-0.010088003076527224,-0.3036000059311211,5.143467939601232
235.58897243107768,0.5733369504554767,0.609045931245813,-8.396031,0.949332,-1.594979,-0.58545,0.00958185759344887,-0.30468214497394264,5.140430874716544
236.59147869674183,0.5733371187052166,0.6090456247659964,-7.808831,1.014232,-1.674038,-0.606581,0.004310963252425994,-0.3066892736137361,5.143921742660043
237.593984962406,0.57333728835122,0.6090452992620909,-7.19205,1.070955,-1.751689,-0.644806,0.00445058959258554,-0.2926219198426618,5.15072824749014
238.59649122807016,0.5733374660257378,0.6090449627626112,-6.56503,1.143565,-1.783159,-0.602309,0.016057029118347832,-0.24061109067993827,5.160240536259605
239.59899749373432,0.5733376536486324,0.609044617885551,-6.032522,1.197454,-1.864611,-0.487309,-0.006702064327658226,-0.1781806633361011,5.1613750351799865
240.6015037593985,0.5733378466820477,0.6090442630601139,-5.564856,1.259795,-1.909977,-0.45007,-0.01679006740418545,-0.13058553463421574,5.166261939632277
241.60401002506265,0.5733380543762286,0.6090439063148149,-5.197292,1.310105,-1.926604,-0.278768,0.0056374134839416844,-0.07663740745507101,5.175355035221998
242.6065162907268,0.5733382618958767,0.6090435370031452,-4.970083,1.305297,-1.963825,-0.193195,-0.01864011641129944,-0.046774823953448036,5.1776410849295535
243.60902255639095,0.5733384718589857,0.6090431678660083,-4.808258,1.346473,-1.978906,-0.130189,-0.006544984694978736,-0.021048670779051613,5.176698868932864
244.61152882205513,0.5733386856618191,0.609042790700357,-4.693729,1.367618,-2.040228,-0.118079,-0.019530234329816546,-0.009494591130849153,5.172230616608248
245.6140350877193,0.5733389060969037,0.6090424093459155,-4.591626,1.418228,-2.038101,-0.048121,-0.014294246573833559,0.005829399701661061,5.179229927960813
246.61654135338344,0.5733391349095686,0.6090420225809532,-4.621597,1.429281,-2.073856,0.073957,-0.017296212887263806,0.012548917321839229,5.186263343046963
247.6190476190476,0.5733393551701201,0.6090416267402788,-4.662207,1.378662,-2.120235,-0.024725,-0.02864085302522695,0.00937241808320955,5.182981792440656
248.62155388471177,0.5733395759542705,0.6090412342157301,-4.582339,1.424549,-2.048869,-0.071842,-0.003490658503988659,0.022794000031045945,5.180590813538471
249.62406015037593,0.573339801101744,0.6090408521631568,-4.601455,1.461585,-2.045212,0.108461,-0.021327923459370707,0.032498030672134415,5.180503983408184
250.62656641604008,0.5733400290417443,0.6090404657472605,-4.734326,1.434554,-2.137888,0.111263,-0.02654645792283375,0.016650441064025905,5.186734721571341
251.62907268170426,0.5733402552364154,0.6090400664159276,-4.768679,1.409608,-2.164389,-0.0419,-0.008080874436733746,0.009459684545809267,5.183522949228529
252.6315789473684,0.5733404775913621,0.6090396628958046,-4.70722,1.47196,-2.078855,-0.0241,-0.012217304763960306,0.025516713664157097,5.18561725706446
253.63408521303256,0.5733407093710867,0.609039269847657,-4.782229,1.476658,-2.117497,0.149465,-0.020053833105414847,0.030857421175259747,5.187136321832225
254.63659147869672,0.5733409406272126,0.6090388710399229,-4.879511,1.457479,-2.175936,0.016346,-0.020891591146372127,0.007801621756414653,5.189072974076823
255.6390977443609,0.5733411720578715,0.6090384713595243,-4.880251,1.435721,-2.152517,0.011557,-0.004485496177625427,0.01815142422074103,5.181778038855555
256.64160401002505,0.57334139511095,0.6090380629524792,-4.88517,1.444218,-2.137239,0.00291,-0.02623229865747477,0.012775810124598492,5.182720272305536
257.64411027568923,0.5733416246217465,0.6090376711260621,-4.923063,1.461629,-2.11557,0.075116,-0.009005898940290741,0.01668534764906579,5.18933503526401
258.64661654135335,0.5733418529108126,0.6090372745872561,-5.009545,1.477111,-2.147494,0.077368,-0.01947787445225672,0.008185594191853406,5.190399755920897
259.64912280701753,0.5733420838178727,0.6090368701944684,-5.048783,1.461484,-2.218114,-0.020188,-0.01754055898254301,-0.0033161255787892262,5.184797545727968
260.6516290726817,0.5733423142013341,0.6090364558533039,-4.960792,1.473892,-2.181566,-0.11879,-0.007260569688296411,-0.0011519173063162576,5.187310505691575
261.65413533834584,0.5733425482499866,0.6090360528567796,-4.913818,1.472803,-2.113325,0.044844,-0.00942477796076938,0.020193459445574394,5.192982494147998
262.65664160401,0.5733427726993285,0.6090356542235785,-5.003369,1.434577,-2.126351,0.097389,-0.02075196480621258,0.012793263417118436,5.191132672033687
263.65914786967414,0.5733429997666641,0.6090352599537004,-5.083409,1.467208,-2.183868,0.049707,-0.008464846872172497,0.0021991148575128553,5.181079767528416
264.6616541353383,0.5733432277066645,0.6090348456125362,-5.078588,1.476978,-2.242142,-0.070231,-0.022444934180647077,-0.014346606451393388,5.182894979763661
265.6641604010025,0.5733434629770476,0.6090344356346947,-4.990105,1.48634,-2.138678,-0.058329,0.014556045961632708,0.0021118483949131386,5.198881933912541
266.66666666666663,0.5733436930114431,0.6090340277512486,-4.991946,1.449433,-2.154748,0.018076,-0.020176006153054447,0.010053096491487338,5.189282832466083
267.6691729323308,0.5733439178098507,0.6090336282453829,-4.976855,1.476974,-2.145619,-0.023369,-0.011693705988362009,0.004101523742186674,5.186280918512531
268.671679197995,0.5733441511603717,0.6090332341500377,-5.019785,1.467137,-2.172511,0.090293,-0.01022762941668677,0.008569566627292158,5.188043404351072
269.6741854636591,0.5733443810202342,0.6090328229504659,-5.067635,1.476061,-2.204224,-0.020841,-0.0256388867117967,-0.009948376736367677,5.1932275034683935
270.6766917293233,0.5733446162906174,0.6090324192558099,-5.023044,1.503328,-2.155259,-0.037195,0.007243116395776467,0.0015184364492350666,5.1943092934453645
271.6791979949875,0.5733448484194079,0.6090320104996991,-5.011846,1.472698,-2.173146,-0.000276,-0.024783675378319478,0.005061454830783556,5.190399755920897
272.6817042606516,0.5733450808972643,0.6090316075031749,-4.989204,1.46156,-2.172462,-0.05307,-0.008848819307611252,0.0008028514559173916,5.189841564719524
273.6842105263158,0.5733453105825937,0.6090312093935725,-4.963224,1.464902,-2.12938,0.024705,-0.00017453292519943296,0.011588986233242348,5.19015528765257
274.68671679197996,0.5733455392207258,0.6090308063970482,-5.031429,1.496701,-2.173346,0.077113,-0.01408480706359424,0.005026548245743669,5.191586475092497
275.6892230576441,0.573345776760037,0.6090303999098654,-5.072639,1.518515,-2.22174,-0.005719,-0.01001818990644745,-0.010210176124166827,5.193418721741241
276.69172932330827,0.5733460111577555,0.609029985394168,-5.028586,1.476034,-2.190851,-0.074376,-0.00034906585039886593,-0.005096361415823442,5.194885060112305
277.6942355889724,0.5733462420648157,0.6090295776852548,-4.957399,1.447552,-2.129529,-0.050169,-0.0059515727493006645,0.010157816246606997,5.19186609429196
278.69674185463657,0.5733464696557501,0.6090291806228499,-4.948564,1.484592,-2.127723,0.033649,-0.014608405839192538,0.013561208287995941,5.18792142328965
279.69924812030075,0.5733467035298698,0.6090287853057744,-5.033612,1.504389,-2.200409,0.102155,-0.01096066770252439,0.005288347633542819,5.193087423342628
280.7017543859649,0.5733469368803907,0.6090283713136758,-5.072793,1.475272,-2.242247,-0.044044,-0.011606439525762293,-0.010088003076527224,5.194343903324431
281.70426065162906,0.5733471695327801,0.609027955750781,-4.993303,1.486213,-2.166158,-0.067854,-0.0038048177693476384,0.0011693705988362008,5.190068474975575
282.70676691729324,0.573347398519978,0.609027547169203,-4.985246,1.463683,-2.158396,0.025948,-0.016859880574265223,0.007923794804054257,5.188916383136334
283.70927318295736,0.573347629427038,0.6090271501067982,-5.002102,1.487416,-2.145797,0.002386,0.0008726646259971648,0.0041887902047863905,5.194920211043439
284.71177944862154,0.573347865046487,0.60902675164813,-5.010839,1.512356,-2.17362,0.008858,-0.01117010721276371,0.00307177948351002,5.193732968273063
285.7142857142857,0.5733480982224751,0.6090263428920192,-5.008199,1.481995,-2.187186,-0.021322,-0.011222467090323538,0.00015707963267948965,5.194780130917675
286.71679197994985,0.5733483331437924,0.6090259353576387,-4.995278,1.484704,-2.181982,0.007393,-0.00486946861306418,0.006702064327658226,5.191394715767581
287.719298245614,0.5733485640508524,0.6090255232854024,-5.021197,1.486313,-2.207136,0.018885,-0.012740903539558606,-0.0008377580409572782,5.189282832466083
288.72180451127815,0.5733487954815112,0.6090251155764891,-5.015475,1.483138,-2.160341,-0.01319,8.726646259971648e-05,-8.726646259971648e-05,5.193628580130501
289.72431077694233,0.5733490276103018,0.6090247113582343,-5.022035,1.468682,-2.162826,0.002401,-0.008168140899333463,0.0019896753472735357,5.191289786572951
290.7268170426065,0.573349255724835,0.609024308536243,-5.008071,1.485922,-2.167441,-0.017062,-0.006771877497737999,-0.0005410520681182421,5.191446918565508
291.72932330827064,0.5733494909952181,0.6090239037943895,-5.003889,1.502212,-2.196765,-0.007479,-0.006073745796940267,0.0016580627893946131,5.193367059995382
292.7318295739348,0.5733497253929367,0.6090234946892128,-4.97375,1.497434,-2.169708,-0.033546,-0.005427973973702365,0.002373647782712288,5.196455786625929
293.734335839599,0.5733499599651881,0.6090230904709582,-4.987429,1.458654,-2.172286,0.045832,-0.0022514747350726853,0.011135200627723822,5.191377140302014
294.7368421052631,0.5733501882542543,0.6090226813657814,-4.996428,1.482566,-2.184791,-0.043548,-0.010210176124166827,-0.0019373154697137059,5.189404813527505
295.7393483709273,0.5733504249209009,0.6090222837797779,-4.979052,1.526743,-2.148814,0.041769,0.0014486232791552935,0.007330382858376184,5.19314014973933
296.7418546365915,0.5733506591440866,0.609021875023667,-5.064186,1.48924,-2.204899,0.083127,-0.016109388995907664,0.0003316125578789226,5.196839828874538
297.7443609022556,0.5733508947635356,0.609021464347694,-5.068879,1.468189,-2.223289,-0.083346,0.0010297442586766543,-0.01228711793404008,5.191010690972265
298.7468671679198,0.5733511230526017,0.6090210540207868,-4.952689,1.487988,-2.139731,-0.103003,-0.0014835298641951802,0.003892084231947355,5.18631554584489
299.74937343358397,0.5733513572757873,0.6090206571329149,-4.914637,1.514598,-2.09495,0.028768,0.0011693705988362008,0.016563174601426187,5.193576377332573
300.7518796992481,0.5733515941169668,0.6090202686226234,-4.994764,1.488741,-2.147152,0.107485,-0.012007865253720986,0.008831366015091307,5.19725900460099
301.7543859649123,0.5733518257221586,0.6090198631826382,-5.100661,1.476192,-2.252273,0.069228,-0.011623892818282236,-0.006335545184739416,5.191324413905312
302.7568922305764,0.5733520561056199,0.6090194362751032,-5.074657,1.483001,-2.269689,-0.1257,-0.0050789081233034985,-0.01980948701013564,5.188532358341018
303.7593984962406,0.5733522901542726,0.6090190175706156,-4.916107,1.496639,-2.128222,-0.129486,0.0021467549799530253,0.0047298422729046335,5.191429866698717
304.76190476190476,0.5733525259482545,0.6090186212063424,-4.882834,1.513438,-2.085349,0.059665,-0.006806784082777886,0.021676989309769572,5.1930181861312015
305.7644110275689,0.5733527620913023,0.6090182351395119,-5.004896,1.492849,-2.161255,0.152459,-0.01733111947230369,0.010454522219446033,5.1966826968819815
306.76691729323306,0.5733529942200928,0.6090178331901852,-5.103297,1.463826,-2.242944,0.002779,-0.004084070449666731,-0.011152653920243767,5.192738549478446
307.76942355889724,0.5733532228582248,0.609017413613033,-5.020204,1.483454,-2.206686,-0.131298,0.001710422666954443,-0.009302604913129777,5.18535573692934
308.77192982456137,0.5733534563832787,0.6090170034606588,-4.919998,1.514197,-2.10913,-0.025786,0.003735004599267865,0.011187560505283653,5.19293083240214
309.77443609022555,0.5733536933989912,0.609016608667182,-4.984103,1.485939,-2.165277,0.108779,-0.017680185322702557,0.013857914260834978,5.195181731178558
310.77694235588973,0.5733539237824524,0.6090162016564005,-5.012853,1.473287,-2.221426,-0.064656,-0.004363323129985824,-0.007557275661135447,5.189352610729578
311.77944862155385,0.5733541583547038,0.6090157962164152,-4.950242,1.496515,-2.161216,-0.013476,0.009407324668249437,0.008639379797371931,5.19108046923576
312.78195488721803,0.5733543892617639,0.6090153837951129,-4.98993,1.473875,-2.188948,0.068373,-0.014381513036433275,0.007819075048934596,5.192633620283816
313.7844611528822,0.5733546213905544,0.6090149771333973,-5.039166,1.48935,-2.211361,0.015927,0.003351032163829113,-0.0010471975511965976,5.190678868974876
314.78696741854634,0.5733548566609376,0.6090145682027536,-5.007717,1.519741,-2.169665,-0.066997,-0.0030892327760299633,-0.003473205211468716,5.191604050558065
315.7894736842105,0.5733550933275843,0.6090141652062292,-4.963503,1.490298,-2.138514,-0.000421,-0.001954768762233649,0.00895353906273091,5.193715933859564
316.79197994987464,0.5733553268526381,0.6090137637805012,-4.985206,1.462198,-2.17658,0.030911,-0.007592182246175334,0.006265732014659643,5.192214968156141
317.7944862155388,0.5733555554907701,0.609013358689582,-5.017503,1.468188,-2.217865,0.023525,-0.005340707511102648,0.0022165681500327986,5.18561725706446
318.796992481203,0.5733557870959619,0.6090129436502857,-5.018518,1.519231,-2.197914,-0.019693,-0.0005759586531581288,0.0005585053606381855,5.189195478737021
319.79949874686713,0.5733560272532668,0.6090125355923066,-4.99075,1.518508,-2.160672,-0.014897,-0.0007504915783575617,0.004956735075663896,5.192878106005436
320.8020050125313,0.5733562640944464,0.6090121291051238,-5.000516,1.493795,-2.177013,0.031802,-0.008063421144213804,0.005654866776461628,5.190923337243203
321.8045112781955,0.5733565011101588,0.6090117254104678,-5.035366,1.496754,-2.193899,0.020027,-0.004049163864626845,-0.001117010721276371,5.193384094408882
322.8070175438596,0.5733567320172188,0.6090113177015546,-5.01993,1.470242,-2.179657,-0.044451,0.0014486232791552935,-0.0010821041362364843,5.191377140302014
323.8095238095238,0.5733569624006802,0.6090109117379705,-4.97964,1.482664,-2.160142,-0.019979,0.004101523742186674,0.006806784082777886,5.186926463442965
324.812030075188,0.5733571954021353,0.6090105075197159,-4.991141,1.508168,-2.176948,0.044216,-0.00942477796076938,0.005480333851262195,5.1860534846577035
325.8145363408521,0.5733574322433148,0.609010098763605,-5.04162,1.508034,-2.213256,0.029303,-0.002949606435870417,-0.004136430327226561,5.192110038961511
326.8170426065163,0.5733576694335601,0.6090096887857637,-5.033422,1.493169,-2.173452,-0.01923,0.010925761117484502,-0.00153588974175501,5.194047232258177
327.8195488721804,0.573357902958614,0.60900927985512,-5.024159,1.492193,-2.171686,-0.014315,-0.004747295565424576,0.0019722220547535923,5.187310505691575
328.8220551378446,0.5733581350874045,0.6090088758113981,-4.96944,1.489555,-2.160549,-0.084106,-0.005497787143782138,-0.0015184364492350666,5.185931521049573
329.82456140350877,0.5733583687869914,0.6090084782253945,-4.935397,1.491074,-2.132523,0.049967,0.0102799892942466,0.013910274138394808,5.189177903271453
330.8270676691729,0.5733586023120453,0.6090080724363434,-5.053117,1.498785,-2.226566,0.139554,-0.021572269554649914,0.002356194490192345,5.187519823028765
331.8295739348371,0.5733588356625663,0.6090076526846584,-5.093581,1.491199,-2.273653,-0.086194,0.006754424205218055,-0.021537362969610025,5.184744801877972
332.83208020050125,0.5733590705838836,0.6090072341547037,-4.955801,1.493396,-2.156845,-0.126751,0.0007330382858376184,0.0010821041362364843,5.187973626087577
333.8345864661654,0.5733593039344046,0.6090068301109818,-4.903233,1.490716,-2.099014,0.027241,-0.002949606435870417,0.020821777976292352,5.190504685115526
334.83709273182956,0.5733595371103927,0.6090064403789598,-4.959358,1.495044,-2.148147,0.061975,-0.0023212879051524586,0.010524335389525807,5.1834009856204
335.83959899749374,0.573359771857177,0.6090060441892197,-5.025692,1.494874,-2.197946,0.076719,-0.008360127117052838,0.001832595714594046,5.1828422533669585
336.84210526315786,0.5733600062548957,0.6090056282772589,-5.085412,1.473815,-2.25552,0.013566,-0.003403392041388943,-0.008360127117052838,5.185111792259789
337.84461152882204,0.5733602378600874,0.609005203464119,-5.010594,1.492685,-2.216767,-0.138169,0.005253441048502932,-0.008639379797371931,5.1860534846577035
338.8471177944862,0.5733604731304704,0.6090047948825411,-4.894358,1.523389,-2.110916,-0.035724,0.010559241974565694,0.016615534478986015,5.186437509453019
339.84962406015035,0.5733607063064586,0.6090043972965374,-4.945337,1.447366,-2.154432,0.104963,-0.014154620233674014,0.017592918860102842,5.182598308697408
340.8521303258145,0.5733609337228601,0.6090039979652047,-5.026469,1.444389,-2.204144,0.034784,-0.0017278759594743863,0.000296705972839036,5.183627878423159
341.85463659147865,0.5733611613137946,0.6090035876382975,-5.027391,1.481126,-2.202331,-0.010587,0.00778416846389471,-0.0017278759594743863,5.1797007828864166
342.85714285714283,0.5733613892537949,0.6090031684102111,-5.019328,1.482957,-2.217944,-0.010865,-0.01064650843716541,-0.001954768762233649,5.179159626098543
343.859649122807,0.5733616271421719,0.6090027565125077,-4.993522,1.492841,-2.189013,-0.01676,0.004310963252425994,1.7453292519943296e-05,5.187572549425469
344.86215538847114,0.5733618606672258,0.6090023465346664,-5.005533,1.457909,-2.211551,0.017002,0.002530727415391778,0.004956735075663896,5.184221238008959
345.8646616541353,0.5733620863382981,0.6090019348114958,-4.970881,1.448981,-2.177901,-0.056325,-0.00767944870877505,0.0024434609527920616,5.179002494105986
346.8671679197995,0.5733623167217594,0.6090015339093667,-4.95775,1.471292,-2.164901,0.028643,0.001780235837034216,0.01153662635568252,5.179229927960813
347.8696741854636,0.5733625465816219,0.6090011289929802,-5.008095,1.472013,-2.19127,0.072342,-0.0027925268031909274,0.007225663103256524,5.184884358404963
348.8721804511278,0.573362777314149,0.609000716397145,-5.069025,1.454127,-2.259419,0.02801,-0.0033335788713091696,-0.0018849555921538759,5.1797007828864166
349.874686716792,0.5733630054286822,0.6090002905368075,-5.021353,1.457988,-2.26435,-0.105959,-0.006387905062299246,-0.010663961729685353,5.175215478695009
350.8771929824561,0.5733632372084069,0.6089998739267151,-4.927631,1.488607,-2.160659,-0.040702,0.010297442586766544,0.00890117918517108,5.182528530433912
351.8796992481203,0.5733634686390657,0.6089994714537896,-4.966886,1.449559,-2.13852,0.112852,-0.018867009214058702,0.018936822384138473,5.183663029354293
352.88220551378447,0.5733636913430783,0.6089990693299299,-5.070194,1.413725,-2.231982,0.047763,0.003141592653589793,-0.0023212879051524586,5.175180327763873
353.8847117794486,0.573363918410414,0.6089986590030227,-5.03488,1.478138,-2.219359,-0.082415,0.0046251225177849735,-0.009896016858807848,5.175703909086179
354.8872180451128,0.5733641503646716,0.6089982425674633,-4.995533,1.473589,-2.218776,0.023454,-0.0008552113334772215,0.005393067388662479,5.17849650570254
355.8897243107769,0.5733643810971987,0.6089978217685806,-5.003715,1.460535,-2.236682,-0.016668,-0.009948376736367677,-0.0018849555921538759,5.183837195760351
356.8922305764411,0.5733646135750551,0.6089974103944759,-4.988388,1.456295,-2.20642,-0.010003,0.014364059743913332,0.005393067388662479,5.180468832477049
357.89473684210526,0.5733648350573372,0.6089969969259761,-4.972536,1.431367,-2.172174,-0.000373,-0.01174606586592184,0.00809832772925369,5.171864690877275
358.8972431077694,0.5733650635209363,0.6089965944530505,-5.012923,1.457537,-2.184926,0.07146,0.0003141592653589793,0.006073745796940267,5.173173373657005
359.89974937343356,0.5733652921590682,0.6089961869186702,-5.077317,1.455939,-2.228357,0.042548,-0.0004188790204786391,-0.005497787143782138,5.181463792323734
360.90225563909775,0.5733655187028052,0.6089957689123143,-5.057362,1.44646,-2.242399,-0.074879,-0.0006108652381980154,-0.00905825881785057,5.179177201564111
361.90476190476187,0.5733657492607993,0.6089953467171684,-4.962507,1.472459,-2.228154,-0.084606,-0.002775073510670984,-0.0007155849933176752,5.171567478758953
362.90726817042605,0.5733659789461288,0.6089949309797404,-4.922284,1.445184,-2.19683,0.021544,-0.005253441048502932,0.009756390518648303,5.17591322642337
363.90977443609023,0.5733662063625304,0.6089945243180248,-4.986275,1.426632,-2.17932,0.081983,0.001239183768915974,0.010367255756846317,5.179753509283119
364.91228070175436,0.5733664313354709,0.6089941181799079,-5.047851,1.452461,-2.201488,0.037437,0.0024609142453120045,0.00027925268031909274,5.169944549447401
365.91478696741854,0.5733666585773396,0.6089937050604739,-5.053069,1.470183,-2.250483,-0.026601,-0.00937241808320955,-0.007871434926494426,5.169229226253472
366.91729323308266,0.5733668926259923,0.6089932877522498,-4.987097,1.45868,-2.223487,-0.078343,0.011065387457644049,-0.005340707511102648,5.179561226359427
367.91979949874684,0.5733671230094535,0.6089928735856183,-4.940135,1.445219,-2.171663,0.001568,0.0019896753472735357,0.012828170002158322,5.17849650570254
368.922305764411,0.5733673476333283,0.6089924629096453,-4.970757,1.436579,-2.209409,0.047815,-0.005550147021341968,0.009721483933608416,5.166035029376226
369.92481203007515,0.5733675731298676,0.608992052931804,-5.011818,1.440662,-2.233013,0.031642,-0.004921828490624009,0.00153588974175501,5.168844677859379
370.9273182957393,0.5733678021170655,0.6089916391142384,-5.010357,1.452995,-2.205546,-0.040483,0.010053096491487338,-0.002775073510670984,5.175529742680122
371.9298245614035,0.5733680300570658,0.6089912282637324,-4.979869,1.451237,-2.170514,0.019121,0.0023387411976724015,0.008936085770210968,5.171410364219688
372.93233082706763,0.5733682583461319,0.6089908153188314,-5.041761,1.445148,-2.252543,0.069856,-0.01085594794740473,-0.00047123889803846896,5.166872333631578
373.9348370927318,0.5733684854134676,0.6089903966143438,-5.035841,1.415113,-2.257939,-0.077977,-6.981317007977319e-05,-0.012671090369478832,5.168565564805401
374.937343358396,0.5733687098628095,0.6089899801787843,-4.959761,1.428696,-2.174813,-0.033708,0.005148721293383272,0.009983283321407565,5.167902444409397
375.9398496240601,0.5733689339630854,0.6089895677574821,-4.960535,1.447468,-2.189664,0.015456,-0.0075223690760955605,0.009564404300928926,5.165179626056531
376.9423558897243,0.5733691605068223,0.608989164411892,-4.968967,1.43934,-2.199386,0.021031,0.0026354471705114374,0.004747295565424576,5.167797515214767
377.9448621553885,0.5733693868760263,0.6089887532123202,-5.032377,1.42349,-2.230395,0.090164,-0.008080874436733746,0.0049741883681838385,5.168304044670281
378.9473684210526,0.5733696101036376,0.608988331191707,-5.059494,1.418895,-2.241298,-0.055881,-0.005689773361501515,-0.01064650843716541,5.162579312363863
379.9498746867168,0.5733698340293807,0.608987915977878,-4.998883,1.42995,-2.205983,-0.013429,0.0006457718232379018,0.0045029494701453706,5.1573952132465415
380.9523809523809,0.5733700574315249,0.6089874953535283,-4.999045,1.417803,-2.253448,-0.016654,-0.010506882097005864,-0.004171336912266448,5.162422197824598
