Time [s],Longitude [rad],Latitude [rad],Altitude [m],V North [m/s],V East [m/s],V Down [m/s],Roll [rad],Pitch [rad],Yaw [rad]
0.0,0.6090217772852289,0.5733883907190538,-14.989594,-0.08489,2.068951,-0.005675,0.0499862297771176,0.0008203047484374171,1.7652608771455198
1.0025062656641603,0.6090221647483228,0.5733883758837551,-14.989621,-0.106412,2.060074,0.005623,0.05120796025351363,-0.0012740903539558701,1.7767801200218525
2.0050125313283207,0.6090225497679558,0.573388357208732,-15.000035,-0.129714,2.052231,0.012997,0.055274577410660414,-0.0020420352248333717,1.7879151984765285
3.007518796992481,0.6090229339149241,0.573388334170386,-15.013989,-0.155236,2.048738,0.012651,0.05564109655357924,-5.23598775596934e-05,1.7989108600305554
4.010025062656641,0.6090233184109584,0.5733883076413813,-15.023293,-0.181502,2.049462,0.005895,0.0540179403492245,0.0022689280275927093,1.8090686762771624
5.012531328320802,0.609023701859795,0.5733882776217182,-15.024637,-0.206361,2.051174,-0.002626,0.05403539364174444,0.002583087292951758,1.8191392958743398
6.015037593984962,0.6090240865303622,0.573388243064199,-15.017626,-0.229534,2.052187,-0.01049,0.054558992417342744,0.0025307274153918424,1.8292621008161518
7.017543859649122,0.6090244715499952,0.5733882053650873,-15.003743,-0.24393,2.054835,-0.015154,0.05293583621298803,0.001186823891356159,1.8383553360322122
8.020050125313283,0.6090248583149573,0.5733881652225143,-14.990861,-0.256067,2.055187,-0.009407,0.049724430389318446,-0.0003839724354386398,1.8471343072631587
9.022556390977442,0.6090252438581892,0.5733881235091453,-14.990552,-0.275081,2.050059,0.007223,0.05263913024014898,-0.001553343034274901,1.8564019706846637
10.025062656641603,0.6090256269579599,0.5733880786541835,-15.00536,-0.301233,2.038341,0.018332,0.05290092962794814,-0.0008901179185170083,1.8661583437500193
11.027568922305765,0.6090260074397369,0.5733880282141681,-15.023888,-0.330352,2.026567,0.015855,0.05223770451219027,0.001570796326795021,1.8759845997986253
12.030075187969924,0.6090263872233821,0.5733879739344283,-15.031622,-0.352458,2.023396,0.000709,0.05904448859496818,0.0035430183815485794,1.885357070241712
13.032581453634084,0.6090267663088956,0.5733879168621618,-15.021529,-0.366742,2.030626,-0.017277,0.05382595413150512,0.0039968039870670324,1.8941709306044061
14.035087719298245,0.6090271485360018,0.5733878561247039,-14.998401,-0.380633,2.037946,-0.02569,0.050090949532237264,0.0019024088846739673,1.902915012703605
15.037593984962406,0.6090275312867068,0.5733877941655154,-14.978389,-0.397311,2.038545,-0.01466,0.047350782606606155,-0.0008552113334772127,1.9113973128682973
16.040100250626566,0.6090279142119447,0.5733877301119319,-14.974967,-0.416677,2.029881,0.00461,0.04719370297392667,-0.003019419605950091,1.920787219150612
17.042606516290725,0.6090282943446559,0.5733876623931569,-14.988013,-0.437323,2.014898,0.018478,0.04783947479716458,-0.0028623399732705668,1.9307879208579544
18.045112781954884,0.6090286699395109,0.5733875911837234,-15.007979,-0.459429,1.999531,0.019934,0.056025068989017976,-0.0011519173063161414,1.941870813967996
19.047619047619047,0.6090290423927732,0.5733875164836314,-15.02268,-0.483395,1.990407,0.008444,0.06019640590128444,0.0016929693744345276,1.9534073530572162
20.050125313283207,0.6090294150205685,0.5733874382928809,-15.021834,-0.5062,1.990783,-0.008665,0.05452408583230286,0.002862339973270789,1.9640189898159264
21.052631578947366,0.6090297890446271,0.5733873571350706,-15.003633,-0.531607,1.99788,-0.024226,0.05019566928735691,0.0021467549799532026,1.974246584326028
22.05513784461153,0.6090301642904163,0.5733872709158057,-14.975013,-0.559544,2.002759,-0.030147,0.054105206811824215,-5.23598775596934e-05,1.984561550018485
23.05764411027569,0.6090305419796666,0.5733871817294808,-14.951597,-0.586323,1.999161,-0.014272,0.04941027112395945,-0.0033335788713091397,1.9956618615144612
24.06015037593985,0.6090309161782581,0.5733870880053,-14.951639,-0.605035,1.985527,0.013771,0.04885176576332127,-0.004694935687864721,2.005644987756236
25.062656641604008,0.6090312874097901,0.5733869913140596,-14.977626,-0.616472,1.964565,0.033395,0.0482932604026831,-0.004502949470145401,2.0136561886492306
26.065162907268167,0.6090316530562684,0.5733868930520226,-15.013848,-0.629691,1.944752,0.032319,0.05485569839018178,-0.0019722220547535585,2.0218418002943763
27.06766917293233,0.6090320160847527,0.5733867921719917,-15.03536,-0.653238,1.935215,0.008387,0.06403613025567195,0.0011519173063163635,2.030062178898222
28.07017543859649,0.6090323789387042,0.5733866869286379,-15.02689,-0.682002,1.94143,-0.023264,0.05803219762881147,0.0025132741228719446,2.0388937543528236
29.07268170426065,0.609032743363452,0.5733865778455596,-14.992652,-0.702671,1.957245,-0.04099,0.05262167694762904,0.00036651914291896404,2.0474458327810106
30.075187969924812,0.6090331114533913,0.5733864656208888,-14.955865,-0.716225,1.965907,-0.027589,0.04303981935418018,-0.003839724354387508,2.055945446611883
31.07769423558897,0.6090334802414623,0.5733863525235533,-14.945563,-0.727343,1.957945,0.007004,0.037716565135597464,-0.00694641042293731,2.064549989637385
32.08020050125313,0.6090338478078027,0.573386236459158,-14.969786,-0.743222,1.933478,0.035037,0.03780383159819718,-0.006876597252857497,2.0750393835352856
33.08270676691729,0.6090342083928262,0.5733861189984993,-15.007998,-0.763465,1.903391,0.032411,0.053424528403546424,-0.0030717794835100065,2.086296827023819
34.08521303258145,0.6090345623455985,0.5733859980471822,-15.029724,-0.786305,1.884132,0.007955,0.058363810186690374,0.0008203047484374171,2.097466934236583
35.08771929824561,0.6090349149021074,0.573385872383476,-15.025124,-0.81329,1.884073,-0.015058,0.05461135229490256,0.00146607657167519,2.1087243777251166
36.09022556390977,0.6090352679822151,0.5733857434036442,-15.004705,-0.83493,1.898404,-0.021955,0.055501470213419675,6.981317007981325e-05,2.1189694255277383
37.092731829573935,0.6090356240293825,0.5733856105840882,-14.983736,-0.852555,1.905889,-0.016232,0.0508763476956347,-0.0017802358370342386,2.129755490491893
38.095238095238095,0.6090359809492145,0.5733854744484066,-14.974631,-0.873215,1.890884,0.000241,0.04703662334124718,-0.0029845130209102955,2.1408732552803897
39.097744360902254,0.6090363347274539,0.5733853355201981,-14.981384,-0.897342,1.861367,0.01358,0.045954519205010695,-0.004625122517784908,2.1514498632810124
40.100250626566414,0.6090366815243763,0.5733851931013311,-14.997636,-0.921657,1.837639,0.01594,0.054768431927582066,-0.004433136300065588,2.1614332513221752
41.10275689223057,0.6090370234343768,0.5733850459700751,-15.00877,-0.942052,1.829355,0.00502,0.055361843873260146,-0.0038048177693474905,2.1718179952781265
42.10526315789473,0.6090373648207784,0.5733848956972266,-15.010589,-0.960252,1.831563,-0.000924,0.05080653452555495,-0.0034382986264287485,2.182220035446965
43.10776942355889,0.6090377088251739,0.5733847443771805,-15.008586,-0.976744,1.83337,-0.00162,0.04651302456564888,-0.0025481807079117402,2.1918020850266315
44.11027568922306,0.6090380528295696,0.57338458921741,-15.007112,-0.993463,1.824368,0.000169,0.04714134309636685,-0.0013613568165555812,2.201052172982569
45.11278195488722,0.6090383933433067,0.5733844312651127,-15.009143,-1.011909,1.805158,0.00463,0.04886921905584122,-0.0011693705988360392,2.210197733169604
46.11528822055138,0.6090387296682535,0.5733842703457557,-15.017036,-1.03492,1.785981,0.010272,0.052569317070069205,-0.0017104226669544254,2.219430385286314
47.11779448621554,0.6090390633752065,0.5733841055866743,-15.025042,-1.057379,1.775556,0.004318,0.05366887449882565,-0.0006457718232377729,2.2289076452976913
48.1203007518797,0.6090393942896326,0.5733839371624014,-15.024608,-1.074787,1.770964,-0.003689,0.04921828490624009,0.0010297442586766348,2.2384545439462222
49.122807017543856,0.6090397245059271,0.5733837659456017,-15.01764,-1.08839,1.766389,-0.005981,0.0506669081853954,0.0014835298641953099,2.247547639535943
50.125313283208015,0.6090400550712874,0.5733835940306704,-15.014076,-1.099648,1.756586,0.000567,0.049427724416479406,0.0006981317007976884,2.2560998401371775
51.127819548872175,0.6090403835422527,0.573383420021344,-15.019928,-1.11418,1.738699,0.009088,0.04804891430740389,6.981317007981325e-05,2.2652627139903934
52.130325814536334,0.6090407066026972,0.5733832428704249,-15.029319,-1.135305,1.719924,0.007454,0.05139994647123301,0.0006632251157578928,2.2755603660166694
53.1328320802005,0.6090410287904771,0.5733830624033803,-15.029753,-1.16061,1.70939,-0.005412,0.05242969072990966,0.002129301687433083,2.2857703850612037
54.13533834586466,0.609041348883862,0.57338287862021,-15.01844,-1.182601,1.709107,-0.014796,0.04818854064756344,0.0020594885173532695,2.2957537905556586
55.13784461152882,0.609041668453648,0.5733826906482496,-15.003284,-1.20106,1.706717,-0.01291,0.048677232838121844,0.0015009831567152077,2.3057022894650743
56.14035087719298,0.6090419887215658,0.5733824998837623,-14.99614,-1.21365,1.692808,0.001144,0.047752208334564866,0.0012217304763961767,2.3151442589189757
57.14285714285714,0.6090423048006932,0.5733823085956764,-15.005833,-1.221607,1.67144,0.018609,0.046809730538487915,0.0008552113334772127,2.3239582589080094
58.1453634085213,0.6090426166910307,0.5733821146895964,-15.029367,-1.235748,1.646315,0.025018,0.04604178566761041,0.002583087292951758,2.3353552589235327
59.14786967418546,0.6090429226472485,0.5733819193872531,-15.047604,-1.254753,1.624752,0.008824,0.054209926566943865,0.00609119908946032,2.346193788485002
60.150375939849624,0.6090432237165444,0.5733817198961197,-15.044606,-1.278003,1.612815,-0.014113,0.05508259119294105,0.007330382858376172,2.356543625855914
61.152882205513784,0.6090435263566367,0.5733815172633936,-15.021799,-1.303685,1.610659,-0.027282,0.051487212933832724,0.006056292504420302,2.3665443275632567
62.15538847117794,0.6090438284731302,0.5733813099182784,-14.991361,-1.326959,1.612039,-0.028458,0.04532620067429272,0.0036302848441482904,2.3764576755415368
63.1578947368421,0.6090441314622884,0.5733810987334389,-14.968655,-1.34315,1.603904,-0.012724,0.0450294947014537,0.0008203047484374171,2.3871915551610567
64.16040100250626,0.6090444318334527,0.573380886326869,-14.969311,-1.352385,1.580638,0.015418,0.04324925886441949,-0.0016755160819144077,2.397349388860956
65.16290726817043,0.6090447266195633,0.5733806725240355,-14.996949,-1.3634,1.546098,0.036531,0.04302236606166022,-0.0009948376736366171,2.407507205107563
66.16541353383458,0.6090450126790277,0.5733804571504059,-15.031807,-1.378918,1.514425,0.029832,0.04937536453891959,0.0033335788713091397,2.4170368075432074
67.16791979949875,0.609045294200636,0.5733802400314469,-15.047857,-1.394499,1.497134,0.002003,0.05646140130201656,0.007225663103256563,2.4253445398761153
68.1704260651629,0.6090455717079871,0.5733800190727636,-15.036764,-1.413287,1.493976,-0.021344,0.05757841202329293,0.007470009198535799,2.433303119092162
69.17293233082707,0.60904584991347,0.5733797937507572,-15.007137,-1.435664,1.497891,-0.031992,0.05164429256651221,0.004991641660703872,2.44161085142507
70.17543859649122,0.6090461302133479,0.573379565287158,-14.976371,-1.451159,1.500779,-0.022839,0.047787114919604745,0.0009948376736368392,2.4495345589626614
71.17794486215539,0.609046411909489,0.5733793338564992,-14.965295,-1.465968,1.487397,0.001802,0.034033920413889425,-0.0015009831567149856,2.4587498974131914
72.18045112781954,0.6090466897659059,0.5733791010295771,-14.977913,-1.474358,1.458244,0.021735,0.0417657290002243,-0.0008726646259971105,2.468052589592784
73.1829573934837,0.6090469611646047,0.5733788689007866,-15.005622,-1.479043,1.426565,0.031413,0.05073672135547516,0.0005061454830783685,2.4765001227987766
74.18546365914787,0.6090472254074534,0.5733786352011997,-15.034869,-1.488677,1.401216,0.023943,0.05715953300281428,0.0038920842319474236,2.4845809623289252
75.18796992481202,0.6090474835416498,0.5733784001053494,-15.044215,-1.502928,1.388422,-0.004014,0.06024876577884424,0.007522369076095714,2.492853805530086
76.19047619047619,0.6090477416758462,0.5733781616933737,-15.025175,-1.523723,1.387313,-0.029955,0.05784021141109208,0.007417649320975883,2.501458208929248
77.19298245614034,0.6090480006827071,0.5733779199652722,-14.987604,-1.541216,1.390599,-0.037061,0.057595865315812865,0.003752457891787797,2.5098708704567856
78.19548872180451,0.6090482626566279,0.573377675444644,-14.958185,-1.555032,1.386108,-0.015311,0.05136503988619312,-0.001378810109075479,2.5188939259836234
79.19799498746866,0.6090485223616207,0.5733774281314891,-14.956417,-1.568117,1.364702,0.011419,0.045710173109731495,-0.0033335788713091397,2.529645101816031
80.20050125313283,0.6090487768306255,0.5733771787239389,-14.975111,-1.578925,1.332658,0.023833,0.04996877648459765,-0.002478367537831927,2.5404314460328665
81.203007518797,0.6090490258891098,0.5733769303635864,-14.997655,-1.586376,1.302562,0.020799,0.05955063407804653,-0.00024434609527923534,2.550938415396335
82.20551378446115,0.6090492676172111,0.5733766800833716,-15.012587,-1.599944,1.279751,0.010208,0.06258750697651666,0.001378810109075479,2.562230486217228
83.20802005012531,0.6090495035857261,0.5733764268360971,-15.01518,-1.618951,1.261492,-0.003084,0.06270968002415626,0.0023212879051526247,2.572999237515203
84.21052631578947,0.6090497381579775,0.5733761700981641,-15.007467,-1.638324,1.249078,-0.010183,0.062116268078478185,0.001919862177193865,2.582040130306996
85.21303258145363,0.6090499701122352,0.5733759105677043,-14.993135,-1.657665,1.238417,-0.017377,0.056304321669337076,0.0013439035240356834,2.5909936868230194
86.21553884711778,0.6090501999720975,0.5733756482447178,-14.972782,-1.674247,1.228052,-0.018281,0.05160938598147232,-0.0014486232791552922,2.599929929672863
87.21804511278195,0.609050430181026,0.5733753829546715,-14.958652,-1.686613,1.217405,-0.005978,0.047193702973926686,-0.004642575810304805,2.6085865358699523
88.22055137844612,0.6090506589936908,0.5733751171410265,-14.96364,-1.693379,1.201916,0.017226,0.042411500823462206,-0.005201081170943089,2.618116120852304
89.22305764411027,0.6090508822213022,0.5733748492329863,-14.988857,-1.701751,1.168247,0.03114,0.04462806897349501,-0.002199114857512896,2.6295131208678266
90.22556390977444,0.6090510981185306,0.573374579405084,-15.019336,-1.710988,1.131876,0.028035,0.053302355355906814,0.0008028514559175193,2.6387982201285594
91.22807017543859,0.6090513082561726,0.5733743087045169,-15.036902,-1.724175,1.106299,0.007219,0.05126032013107345,0.004049163864626948,2.6457445432850344
92.23057644110276,0.6090515124596951,0.5733740348623573,-15.027526,-1.742257,1.098737,-0.021733,0.052778756580308527,0.004572762640225214,2.6517659641109996
93.23308270676691,0.6090517164886847,0.5733737589258026,-14.995606,-1.761416,1.101349,-0.035171,0.04948008429403925,0.002216568150032794,2.658764751864789
94.23558897243107,0.6090519215648718,0.5733734793240565,-14.959906,-1.774425,1.107433,-0.028219,0.04398229715025711,-0.002129301687433083,2.666025321553086
95.23809523809523,0.6090521301317174,0.5733731985005798,-14.945709,-1.776407,1.104597,0.002858,0.036250488563922226,-0.005305800926062698,2.6748044324103724
96.2406015037594,0.6090523357315032,0.5733729183752349,-14.966927,-1.775896,1.076435,0.038351,0.03719296635999915,-0.005323254218582596,2.6860094113015913
97.24310776942356,0.6090525338263734,0.5733726387734885,-15.013855,-1.778501,1.026111,0.048325,0.044523349218375335,-0.0010821041362363282,2.697860214375925
98.24561403508771,0.6090527209256691,0.5733723588226766,-15.050742,-1.790489,0.977637,0.022902,0.05749114556069321,0.003752457891787797,2.708192476281269
99.24812030075188,0.6090529001709833,0.5733720757302719,-15.051548,-1.811381,0.959451,-0.017233,0.05633922825437696,0.005707226654021458,2.7158195127526064
100.25062656641603,0.6090530774964354,0.5733717882745442,-15.019038,-1.834222,0.969037,-0.03917,0.051382493178713046,0.004101523742186641,2.7225391874524174
101.2531328320802,0.6090532581380129,0.5733714973281578,-14.98033,-1.852034,0.97739,-0.029602,0.04565781323217166,0.000645771823237995,2.7313529256420632
102.25563909774435,0.6090534410485186,0.573371202891113,-14.960149,-1.860469,0.966818,-0.006577,0.038501963298994926,-0.0031590459461097176,2.7410220671514045
103.25814536340852,0.6090536230863595,0.5733709082795353,-14.965228,-1.85544,0.941981,0.015393,0.035098571257605966,-0.004555309347705094,2.751267254580366
104.26065162907267,0.6090537981428835,0.5733706161114185,-14.988136,-1.849408,0.908828,0.0281,0.04171336912266448,-0.003595378259108273,2.761547051888395
105.26315789473684,0.6090539641236954,0.5733703253395651,-15.018528,-1.854783,0.868806,0.03079,0.04923573819876004,-0.00043633231299855524,2.7727171416478664
106.265664160401,0.6090541220759927,0.5733700326478495,-15.040814,-1.876234,0.829572,0.012812,0.05579817618625873,0.003106686068550024,2.7836081358066513
107.26817042606515,0.6090542744432363,0.5733697361164096,-15.041935,-1.899865,0.808723,-0.008428,0.05098106745075436,0.0040840704496667435,2.792596581454422
108.27067669172932,0.6090544248906179,0.5733694346980478,-15.021285,-1.917423,0.805731,-0.026663,0.04745550236172584,0.0040840704496667435,2.799682722937274
109.27318295739347,0.6090545753379993,0.5733691303126263,-14.987872,-1.923358,0.809806,-0.033306,0.04386012410261749,0.0022340214425526916,2.806943292625571
110.27568922305764,0.6090547271816443,0.573368827323468,-14.960011,-1.918989,0.806252,-0.01555,0.045867252742410984,-0.002670353755551247,2.815216135826731
111.27819548872179,0.6090548788507564,0.5733685255560405,-14.960057,-1.915666,0.785549,0.018287,0.03939208121751202,-0.0062831853071794175,2.8252341512002537
112.28070175438596,0.609055024236683,0.5733682232650139,-14.989352,-1.922351,0.744511,0.037398,0.04401720373529698,-0.004694935687864721,2.8372945334111668
113.28320802005013,0.609055159674233,0.5733679197522571,-15.024031,-1.940068,0.695932,0.028031,0.051871185369271475,0.00043633231299855524,2.8488659790854265
114.28571428571428,0.6090552874323342,0.5733676136215062,-15.03556,-1.955028,0.665285,-0.004697,0.05670574739729577,0.004485496177625503,2.8575052716163363
115.28822055137844,0.6090554092563161,0.5733673050472945,-15.015229,-1.959629,0.661065,-0.028662,0.05338962181850655,0.003857177646907628,2.863579139586324
116.2907268170426,0.6090555331746929,0.5733669950768194,-14.984383,-1.961861,0.668086,-0.023971,0.04342379178961892,-0.0002094395102392177,2.8692165181636806
117.29323308270676,0.6090556586638661,0.573366685629943,-14.968554,-1.966721,0.660458,-0.004395,0.03721041965251912,-0.003926990816987219,2.878065407284462
118.29573934837092,0.6090557817095783,0.5733663754849349,-14.973678,-1.975176,0.631366,0.013584,0.03975860036043083,-0.004869468613064143,2.88940994270267
119.29824561403508,0.6090559009155663,0.5733660646417952,-14.985687,-1.98121,0.599988,0.009947,0.047455502361725826,-0.0019547687622336607,2.9008418318499403
120.30075187969925,0.6090560117439738,0.5733657531005236,-14.991298,-1.983192,0.577513,0.003555,0.048729592715681676,-0.0005934119456780795,2.9114534511553583
121.3032581453634,0.6090561166382619,0.5733654394648571,-14.992007,-1.987738,0.558339,0.000839,0.04792674125976429,-0.0009424777960769237,2.9213843920524982
122.30576441102757,0.6090562176928255,0.5733651275745197,-14.991504,-1.99614,0.535759,-0.000286,0.04857251308300219,-0.0020420352248333717,2.931175758969357
123.30827067669172,0.609056314733132,0.5733648120189909,-14.988008,-2.006193,0.511716,-0.004319,0.0482932604026831,-0.0030717794835100065,2.941054235269182
124.31077694235589,0.6090564077591811,0.5733644955907975,-14.98321,-2.013951,0.49042,-0.001534,0.048171087355043496,-0.004031710572106828,2.951543890966471
125.31328320802004,0.6090564986908351,0.573364177242742,-14.983092,-2.018983,0.473515,0.004847,0.04660029102824859,-0.004433136300065588,2.9612127532231316
126.3157894736842,0.609056585259166,0.5733638590692194,-14.989675,-2.021785,0.452845,0.009647,0.04506440128649359,-0.004101523742186641,2.9698872141384687
127.31829573934836,0.6090566676387067,0.5733635396739662,-14.99826,-2.025052,0.427857,0.007341,0.044348816293175906,-0.003577924966588375,2.978997605941076
128.32080200501252,0.6090567447822597,0.5733632209768449,-15.002181,-2.02821,0.402987,0.003301,0.0434936049596987,-0.0033335788713091397,2.98864945123753
129.32330827067668,0.609056818609687,0.5733629012325259,-15.004619,-2.036558,0.383771,0.003401,0.04452334921837534,-0.003106686068549802,2.999103956003683
130.32581453634086,0.6090568905172522,0.5733625799174107,-15.007869,-2.044252,0.365379,0.004692,0.046355944932969406,-0.00274016692563106,3.009453793374595
131.328320802005,0.6090569573633625,0.5733622584277623,-15.010957,-2.047378,0.342751,0.00399,0.04605923896013035,-0.002583087292951536,3.019245160291453
132.33082706766916,0.6090570203697485,0.5733619362399824,-15.013878,-2.049077,0.317507,0.004612,0.04309217923174001,-0.002652900463031349,3.0281635658763415
133.33333333333331,0.6090570779656138,0.5733616124814063,-15.019568,-2.052213,0.292922,0.007442,0.04635594493296939,-0.0009948376736366171,3.0362446672058776
134.3358395989975,0.6090571303254915,0.5733612894209618,-15.026423,-2.054159,0.269815,0.006348,0.04886921905584122,0.0015184364492351055,3.044447732143544
135.33834586466165,0.6090571774493811,0.573360966884116,-15.032002,-2.054221,0.247919,0.005916,0.0491833783212002,0.0027052603405912645,3.0526156461500746
136.3408521303258,0.6090572219552771,0.5733606431255397,-15.03491,-2.057787,0.222255,0.000941,0.04916592502868026,0.0032812189937494463,3.061604336143941
137.34335839598998,0.6090572608761194,0.5733603198905621,-15.026751,-2.063099,0.207837,-0.012983,0.047472955654245766,0.0032463124087094286,3.0681666345050993
138.34586466165413,0.609057299447896,0.5733599950847884,-15.007115,-2.066461,0.210638,-0.017447,0.04314453910929983,0.001291543646475768,3.0741179978148896
139.34837092731829,0.6090573380196724,0.5733596699299487,-14.994117,-2.067506,0.202776,-0.002687,0.033318335420571756,-0.0005235987755982663,3.0833509117309874
140.35087719298244,0.6090573732753233,0.5733593442515103,-15.002709,-2.067985,0.163149,0.019004,0.03738495257771854,-0.0006632251157578928,3.0956730933296996
141.35338345864662,0.6090574003279267,0.5733590190966706,-15.024377,-2.069907,0.113656,0.020943,0.041800635585264194,0.0017976891295541364,3.106965425949981
142.35588972431077,0.609057418304818,0.5733586930691664,-15.03655,-2.068261,0.086621,0.003995,0.04792674125976429,0.005061454830783685,3.11399884103613
143.35839598997492,0.6090574319183861,0.5733583680888598,-15.030987,-2.063931,0.079171,-0.008572,0.04242895411598216,0.0052883476335428,3.119671370544622
144.36090225563908,0.6090574429139605,0.5733580443302835,-15.021053,-2.0641,0.065795,-0.007686,0.042428954115982145,0.003211405823669633,3.126565508356462
145.36340852130326,0.6090574546076664,0.5733577198735755,-15.01059,-2.069521,0.04645,-0.011963,0.04719370297392668,0.003316125578789242,3.134663644099498
146.3659147869674,0.6090574640324444,0.5733573940206043,-14.994364,-2.074745,0.040028,-0.015949,0.0488168591782814,0.002583087292951758,-3.1410863859336673
147.36842105263156,0.6090574720609591,0.5733570658987047,-14.985476,-2.075888,0.030946,0.001126,0.045483280306972226,0.00043633231299855524,-3.133180253861643
148.37092731829574,0.6090574767733479,0.5733567379513383,-14.99571,-2.072454,-0.003206,0.019325,0.04597197249753064,-0.0002268928027591155,-3.1221148314974143
149.3734335839599,0.6090574734572224,0.5733564114002353,-15.013757,-2.067094,-0.043554,0.015885,0.04731587602156627,0.0018675022996339496,-3.1121141297900716
150.37593984962405,0.6090574629852469,0.5733560864199285,-15.022071,-2.061778,-0.073128,0.002414,0.05331980864842677,0.004485496177625503,-3.103282816134858
151.3784461152882,0.6090574458810202,0.5733557623122865,-15.016386,-2.059958,-0.087695,-0.010889,0.04874704600820163,0.005218534463463209,-3.0960222464465614
152.38095238095238,0.6090574268569313,0.5733554380301115,-15.000909,-2.063953,-0.098234,-0.016242,0.04689699700108764,0.003403392041388953,-3.088499877370466
153.38345864661653,0.6090574078328425,0.5733551137479365,-14.981337,-2.069705,-0.103587,-0.018414,0.049497537586559184,0.0010646508437166524,-3.0799127701841913
154.38596491228068,0.6090573898559511,0.573354788244031,-14.96936,-2.07033,-0.113071,-0.000827,0.0449073216538141,-0.0015882496193146967,-3.069964271274776
155.38847117794487,0.6090573685629344,0.5733544625655924,-14.981478,-2.065363,-0.14399,0.023323,0.03926990816987242,-0.0013264502315155635,-3.057537701533502
156.39097744360902,0.6090573395904687,0.5733541365380882,-15.009064,-2.057893,-0.193657,0.027479,0.04323180557189954,0.0005235987755982663,-3.0453028736638514
157.39348370927317,0.6090573020658898,0.5733538134776436,-15.025481,-2.053081,-0.231979,0.003159,0.054384459492143315,0.003857177646907628,-3.0353197474220766
158.39598997493732,0.6090572563382634,0.5733534912898637,-15.013199,-2.049189,-0.244279,-0.022217,0.0541401133968641,0.0054628805587422224,-3.027325999821602
159.3984962406015,0.6090572072945114,0.5733531703238144,-14.986547,-2.049608,-0.246628,-0.023005,0.048624872960562025,0.0018500490071140518,-3.019367403152263
160.40100250626566,0.60905715947249,0.5733528484851003,-14.974515,-2.051178,-0.261241,0.001052,0.04319689898685967,-0.002111848394913185,-3.009680686177355
161.4035087719298,0.6090571095560733,0.5733525259482545,-14.982314,-2.051774,-0.293069,0.011103,0.039287361462392346,-0.0017802358370342386,-2.998632839278693
162.406015037594,0.6090570535310044,0.5733522021896782,-14.989812,-2.044615,-0.32282,0.001983,0.049061205273560594,0.0011519173063163635,-2.989208166037679
163.40852130325814,0.6090569917463488,0.5733518803509642,-14.989118,-2.035969,-0.342434,-0.000183,0.04836307357276287,0.00043633231299855524,-2.9811443958276147
164.4110275689223,0.6090569247257056,0.5733515604321123,-14.991231,-2.031734,-0.362861,0.005446,0.04925319149127999,-0.0011519173063161414,-2.9730811317630335
165.41353383458645,0.6090568528181404,0.5733512410368592,-14.997352,-2.026282,-0.387991,0.007678,0.044121923490416666,-0.0004014257279585376,-2.964249556308432
166.41604010025063,0.6090567782925812,0.5733509223397377,-14.999096,-2.0218,-0.412056,-0.00396,0.05173155902911192,0.000279252680319253,-2.95562783924309
167.41854636591478,0.6090567002763636,0.5733506043407481,-14.987685,-2.024425,-0.420521,-0.017344,0.050352748920036404,-0.0009424777960769237,-2.948925740008846
168.42105263157893,0.6090566224346791,0.5733502845964291,-14.968793,-2.025946,-0.416858,-0.014232,0.04736823589912611,-0.0031241393610697,-2.941944527720624
169.4235588972431,0.6090565416259347,0.5733499658993078,-14.967911,-2.022453,-0.436792,0.01293,0.04134684997974567,-0.005044001538263565,-2.930948866166598
170.42606516290726,0.609056456977466,0.5733496466785875,-14.991302,-2.013011,-0.486595,0.027806,0.04307472593922004,-0.0026354471705114513,-2.9183126998354507
171.42857142857142,0.6090563634278181,0.5733493309485258,-15.011299,-2.003086,-0.527387,0.008543,0.05373868766890542,0.001291543646475768,-2.907770841340235
172.43107769423557,0.6090562635949849,0.5733490167892604,-15.004199,-1.995943,-0.531253,-0.016341,0.04820599394008339,0.0026005405854716557,-2.9016274569061404
173.43358395989975,0.6090561625404212,0.5733487033281268,-14.985201,-1.993063,-0.526876,-0.013038,0.04113741046950634,-0.0009599310885968215,-2.8949429156841724
174.4360902255639,0.6090560630566538,0.5733483898669931,-14.979536,-1.99075,-0.547861,0.001893,0.036878807094640184,-0.0036128315516281706,-2.884523300049766
175.43859649122805,0.6090559590350304,0.5733480772785241,-14.98228,-1.985308,-0.577452,0.004144,0.03803072440095642,-0.002949606435870278,-2.8739465698760958
176.44110275689223,0.6090558501264851,0.573347764690055,-14.98565,-1.982383,-0.600761,0.001116,0.04379031093253773,-0.001745329251994221,-2.8645040593701263
177.4436090225564,0.6090557354583532,0.5733474531487835,-14.987802,-1.977406,-0.619626,0.003195,0.046565384443208714,-0.0018849555921538474,-2.8548698069925322
178.44611528822054,0.6090556160778324,0.5733471426547097,-14.993064,-1.967695,-0.641442,0.009437,0.04372049776245796,-0.0029146998508304822,-2.8452009272825785
179.4486215538847,0.6090554937302518,0.5733468330333004,-15.005169,-1.956025,-0.668791,0.014919,0.03953170755767157,-0.002199114857512896,-2.8353573575677933
180.45112781954887,0.6090553664957493,0.5733465256808191,-15.016531,-1.949102,-0.691818,0.005748,0.0391826417072727,-8.726646259971105e-05,-2.8256357514611374
181.45363408521303,0.6090552371668518,0.5733462200736671,-15.013551,-1.942378,-0.701346,-0.009325,0.04544837372193234,0.0012391837689160745,-2.817275554530915
182.45614035087718,0.6090551067907567,0.5733459144665151,-15.002217,-1.937394,-0.70983,-0.010122,0.04658283773572865,0.0001745329251994221,-2.8084093691972454
183.45864661654133,0.609054972924003,0.5733456100810935,-14.99545,-1.931911,-0.730916,-0.000704,0.04181808887778413,-0.001291543646475768,-2.797710378709473
184.4611528822055,0.6090548338212617,0.5733453063938035,-14.998221,-1.924536,-0.763079,0.005592,0.040107666210829694,-0.0014835298641950878,-2.7852137689053165
185.46365914786966,0.6090546891334666,0.5733450048009089,-15.005295,-1.912472,-0.796458,0.007297,0.04221951460574283,-0.0011170107212763458,-2.773485208691792
186.46616541353382,0.6090545378134204,0.5733447044297446,-15.011553,-1.899341,-0.824326,0.004882,0.04127703680966589,0.0,-2.7630309657250263
187.468671679198,0.6090543795120573,0.5733444066765743,-15.012162,-1.88774,-0.846127,-0.002286,0.046687557490848304,0.0013613568165555812,-2.754094722875182
188.47117794486215,0.6090542196398978,0.5733441103196671,-15.008416,-1.881101,-0.858177,-0.00141,0.0470017167562073,0.0009075712110371281,-2.746956116795015
189.4736842105263,0.6090540590696067,0.5733438144863591,-15.008419,-1.876446,-0.868072,0.001437,0.04274311338134111,0.0,-2.739835365433096
190.47619047619045,0.6090538962303874,0.5733435214455775,-15.010601,-1.867059,-0.882959,0.000962,0.037158059774959284,-0.00027925268031903094,-2.731300722844136
191.47869674185463,0.609053729376911,0.5733432285793292,-15.010828,-1.855738,-0.903038,0.000919,0.03825761720371569,0.00024434609527923534,-2.7220854018468987
192.4812030075188,0.6090535585091772,0.5733429360621465,-15.011496,-1.850698,-0.923285,0.002383,0.04654793115068876,0.0013962634015955988,-2.7137600940484234
193.48370927318294,0.6090533843253179,0.5733426444176284,-15.013573,-1.847124,-0.942769,0.002428,0.045099307871533476,0.0020594885173532695,-2.7058885718554664
194.48621553884712,0.6090532071743988,0.5733423555656373,-15.015601,-1.837338,-0.958872,0.002514,0.043790310932537733,0.0027227136331111623,-2.698348906566484
195.48872180451127,0.6090530258346895,0.5733420672372448,-15.015674,-1.823135,-0.973857,-0.002561,0.04366813788489812,0.002844886680750891,-2.691070743959327
196.49122807017542,0.6090528436223156,0.5733417815268462,-15.009335,-1.812413,-0.986555,-0.011049,0.035395277230445006,0.002565634000431638,-2.683181943006775
197.49373433583958,0.6090526594900795,0.5733414973872442,-14.993345,-1.808436,-0.989807,-0.01865,0.03413864016900909,0.001658062789394732,-2.6737918970981207
198.49624060150376,0.609052474136113,0.5733412141203065,-14.979979,-1.807121,-0.991989,-0.004078,0.039531707557671575,-0.001291543646475768,-2.66318053959209
199.4987468671679,0.6090522865132183,0.5733409299807042,-14.991058,-1.797711,-1.025839,0.023917,0.03544763710800484,-0.0026179938779913314,-2.6487291610256998
200.50125313283206,0.6090520922580727,0.5733406486336289,-15.018231,-1.779091,-1.080158,0.019977,0.038851029149393784,0.001937315469713763,-2.634208004195814
201.50375939849624,0.6090518911961428,0.5733403709517448,-15.01881,-1.701873,-1.072731,-0.020082,0.01984439359517553,0.007260569688296581,-2.6268251916467085
202.5062656641604,0.6090516951956678,0.5733401117703509,-14.986061,-1.588827,-1.005801,-0.039344,-0.022200588085367876,0.010855947947404854,-2.6208738283369177
203.50877192982455,0.6090515110634317,0.5733398698677166,-14.951804,-1.501878,-0.946746,-0.027373,-0.008901179185171079,0.011815879036001675,-2.615183985162246
204.5112781954887,0.6090513435118234,0.5733396464655723,-14.937941,-1.429713,-0.908535,-0.005472,-0.0015882496193148402,0.011501719770642627,-2.609633681061271
205.51378446115288,0.6090511832905982,0.5733394338844694,-14.938585,-1.36098,-0.892701,-0.000343,-0.01572541656046891,0.008011061266653963,-2.6058290901847267
206.51629072681703,0.6090510248147021,0.5733392305536116,-14.938973,-1.291929,-0.869938,-0.002907,-0.014276793281313614,0.0005061454830783685,-2.6058639793164735
207.51879699248119,0.6090508696549316,0.5733390385673939,-14.934094,-1.220788,-0.836614,-0.005883,-0.01153662635568252,-0.0040840704496667435,-2.606300206909718
208.52130325814534,0.6090507206038135,0.5733388570531516,-14.932056,-1.162262,-0.795413,0.003439,-0.017313666179783752,-0.008552113334772127,-2.6067888991002754
209.52380952380952,0.6090505790576111,0.5733386828692922,-14.940976,-1.116447,-0.759259,0.012956,-0.01122246709032354,-0.010559241974565703,-2.6068586773637707
210.52631578947367,0.6090504439691271,0.5733385149686182,-14.957758,-1.077063,-0.734173,0.017627,-0.009564404300928928,-0.011117747335203765,-2.6062828932435376
211.52882205513782,0.6090503142911636,0.57333835457286,-14.984557,-0.992088,-0.681848,0.029889,0.03693116697220002,0.031189033733138638,-2.6078360442915947
212.531328320802,0.6090501970050378,0.5733382090124004,-14.975635,-0.901535,-0.616012,-0.064337,0.04070107815650775,0.1617047377439822,-2.590819241164283
213.53383458646616,0.6090500877474266,0.5733380795089699,-14.858867,-0.781465,-0.585626,-0.168054,0.1588598510632313,0.2506816404639456,-2.5045474766118634
214.5363408521303,0.6090499823295399,0.5733379711240233,-14.666712,-0.659717,-0.640079,-0.217101,0.03106686068549909,0.28148666685506063,-2.3963544290142718
215.53884711779446,0.6090498779588506,0.5733378756545132,-14.44114,-0.58352,-0.668494,-0.236752,-0.007801621756414658,0.29560641541027977,-2.343279228260512
216.54135338345864,0.6090497618944554,0.5733377918787091,-14.201303,-0.544884,-0.65556,-0.248503,-0.0009599310885968633,0.3102671811270321,-2.3211832377572166
217.5438596491228,0.6090496384996772,0.5733377147351562,-13.9554,-0.5166,-0.636131,-0.251188,-0.008796459430051355,0.32703981269199023,-2.311863249364736
218.54636591478695,0.6090495191191564,0.5733376400350642,-13.709497,-0.47673,-0.625355,-0.251134,-0.012391837689159753,0.34468509142965265,-2.3061560925238855
219.54887218045113,0.6090494006113002,0.5733375677784331,-13.446286,-0.474849,-0.670038,-0.298474,0.011170107212763713,0.33686598147413305,-2.298214809520726
220.55137844611528,0.6090492707588038,0.573337493427407,-13.139235,-0.511814,-0.733041,-0.310555,0.10375982403106292,0.24258329528139932,-2.303328606775777
221.55388471177943,0.6090491267691405,0.5733374045901481,-12.858501,-0.60289,-0.798176,-0.24493,0.004660029102824853,0.1333082482673269,-2.3144984347358606
222.55639097744358,0.609048973878298,0.5733373051063808,-12.653564,-0.682813,-0.844943,-0.167306,0.011903145498601334,0.0646993553714299,-2.31449843473586
223.55889724310777,0.6090488052794923,0.5733371911363807,-12.521171,-0.736597,-0.891749,-0.098869,0.028291787174828085,0.02745402913387096,-2.312840616292561
224.56140350877192,0.6090486296993696,0.5733370649490757,-12.4562,-0.773415,-0.953047,-0.033841,0.0233001455141243,0.007784168463894847,-2.311793471101242
225.56390977443607,0.6090484401566129,0.5733369331767172,-12.449658,-0.817177,-1.023043,-0.005943,0.0982794901798007,0.07253588371288444,-2.310327394529567
226.56641604010025,0.6090482387456171,0.5733367984372989,-12.356633,-0.842605,-1.075806,-0.20564,0.20586158527273113,0.22251202633675726,-2.2540753105647418
227.5689223057644,0.6090480214521252,0.5733366668394734,-12.049653,-0.744478,-1.167209,-0.388226,0.2672797041971191,0.2689726910248462,-2.091794788700527
228.57142857142856,0.6090477905450652,0.5733365512986769,-11.645205,-0.563854,-1.289513,-0.416734,0.07353072138652113,0.2704911274740813,-1.9119208941906027
229.5739348370927,0.609047557718143,0.5733364661266093,-11.232907,-0.32584,-1.353332,-0.414396,0.07099999397112929,0.2846283118685278,-1.7141580206195617
230.5764411027569,0.6090473037727369,0.5733364338380181,-10.8316,-0.030018,-1.396658,-0.399238,0.09314822217893733,0.28895671096018116,-1.4994821910117004
231.57894736842104,0.6090470456385405,0.57333644588079,-10.439916,0.291491,-1.407655,-0.400552,0.07532841051607529,0.29103363531676196,-1.2940741819049786
232.5814536340852,0.6090467787776979,0.57333651569396,-10.015219,0.604209,-1.441082,-0.462951,0.05085889440311479,0.2987828971956168,-1.1724950174499504
233.58395989974937,0.6090465047610053,0.5733366286167627,-9.512777,0.799025,-1.470965,-0.541964,0.04738568919164608,0.3052406328812882,-1.1396827402459948
234.58646616541353,0.6090462227157981,0.5733367823802697,-8.962412,0.896423,-1.526293,-0.563544,-0.010088003076527234,0.30360000593112124,-1.1397173675783547
235.58897243107768,0.609045931245813,0.5733369504554767,-8.396031,0.949332,-1.594979,-0.58545,0.009581857593448902,0.30468214497394275,-1.1427544324630425
236.59147869674183,0.6090456247659964,0.5733371187052166,-7.808831,1.014232,-1.674038,-0.606581,0.004310963252425951,0.3066892736137361,-1.1392635645195432
237.593984962406,0.6090452992620909,0.57333728835122,-7.19205,1.070955,-1.751689,-0.644806,0.00445058959258554,0.29262191984266184,-1.1324570596894459
238.59649122807016,0.6090449627626112,0.5733374660257378,-6.56503,1.143565,-1.783159,-0.602309,0.01605702911834781,0.24061109067993836,-1.122944770919982
239.59899749373432,0.609044617885551,0.5733376536486324,-6.032522,1.197454,-1.864611,-0.487309,-0.00670206432765825,0.17818066333610116,-1.1218102719996
240.6015037593985,0.6090442630601139,0.5733378466820477,-5.564856,1.259795,-1.909977,-0.45007,-0.016790067404185427,0.13058553463421596,-1.1169233675473091
241.60401002506265,0.6090439063148149,0.5733380543762286,-5.197292,1.310105,-1.926604,-0.278768,0.00563741348394169,0.07663740745507108,-1.107830271957588
242.6065162907268,0.6090435370031452,0.5733382618958767,-4.970083,1.305297,-1.963825,-0.193195,-0.018640116411299437,0.04677482395344801,-1.105544222250033
243.60902255639095,0.6090431678660083,0.5733384718589857,-4.808258,1.346473,-1.978906,-0.130189,-0.006544984694978739,0.021048670779051593,-1.106486438246722
244.61152882205513,0.609042790700357,0.5733386856618191,-4.693729,1.367618,-2.040228,-0.118079,-0.01953023432981655,0.009494591130849273,-1.1109546905713388
245.6140350877193,0.6090424093459155,0.5733389060969037,-4.591626,1.418228,-2.038101,-0.048121,-0.014294246573833559,-0.0058293997016609644,-1.103955379218773
246.61654135338344,0.6090420225809532,0.5733391349095686,-4.621597,1.429281,-2.073856,0.073957,-0.017296212887263806,-0.01254891732183916,-1.096921964132624
247.6190476190476,0.6090416267402788,0.5733393551701201,-4.662207,1.378662,-2.120235,-0.024725,-0.02864085302522695,-0.009372418083209544,-1.1002035147389304
248.62155388471177,0.6090412342157301,0.5733395759542705,-4.582339,1.424549,-2.048869,-0.071842,-0.0034906585039886553,-0.022794000031045814,-1.1025944936411158
249.62406015037593,0.6090408521631568,0.573339801101744,-4.601455,1.461585,-2.045212,0.108461,-0.021327923459370703,-0.032498030672134304,-1.1026813237714026
250.62656641604008,0.6090404657472605,0.5733400290417443,-4.734326,1.434554,-2.137888,0.111263,-0.026546457922833746,-0.0166504410640258,-1.0964505856082456
251.62907268170426,0.6090400664159276,0.5733402552364154,-4.768679,1.409608,-2.164389,-0.0419,-0.008080874436733748,-0.009459684545809255,-1.0996623579510578
252.6315789473684,0.6090396628958046,0.5733404775913621,-4.70722,1.47196,-2.078855,-0.0241,-0.012217304763960308,-0.025516713664156976,-1.0975680501151261
253.63408521303256,0.609039269847657,0.5733407093710867,-4.782229,1.476658,-2.117497,0.149465,-0.020053833105414847,-0.03085742117525969,-1.0960489853473618
254.63659147869672,0.6090388710399229,0.5733409406272126,-4.879511,1.457479,-2.175936,0.016346,-0.020891591146372124,-0.007801621756414523,-1.0941123331027633
255.6390977443609,0.6090384713595243,0.5733411720578715,-4.880251,1.435721,-2.152517,0.011557,-0.004485496177625426,-0.018151424220741008,-1.1014072683240315
256.64160401002505,0.6090380629524792,0.57334139511095,-4.88517,1.444218,-2.137239,0.00291,-0.026232298657474763,-0.012775810124598497,-1.1004650348740503
257.64411027568923,0.6090376711260621,0.5733416246217465,-4.923063,1.461629,-2.11557,0.075116,-0.009005898940290743,-0.016685347649065818,-1.0938502719155763
258.64661654135335,0.6090372745872561,0.5733418529108126,-5.009545,1.477111,-2.147494,0.077368,-0.01947787445225672,-0.008185594191853385,-1.0927855512586897
259.64912280701753,0.6090368701944684,0.5733420838178727,-5.048783,1.461484,-2.218114,-0.020188,-0.01754055898254301,0.003316125578789242,-1.0983877614516182
260.6516290726817,0.6090364558533039,0.5733423142013341,-4.960792,1.473892,-2.181566,-0.11879,-0.00726056968829641,0.0011519173063163635,-1.0958748014880115
261.65413533834584,0.6090360528567796,0.5733425482499866,-4.913818,1.472803,-2.113325,0.044844,-0.009424777960769378,-0.02019345944557438,-1.0902028130315888
262.65664160401,0.6090356542235785,0.5733427726993285,-5.003369,1.434577,-2.126351,0.097389,-0.020751964806212574,-0.012793263417118395,-1.0920526351458995
263.65914786967414,0.6090352599537004,0.5733429997666641,-5.083409,1.467208,-2.183868,0.049707,-0.008464846872172497,-0.002199114857512896,-1.10210553965117
264.6616541353383,0.6090348456125362,0.5733432277066645,-5.078588,1.476978,-2.242142,-0.070231,-0.022444934180647073,0.014346606451393518,-1.100290327415925
265.6641604010025,0.6090344356346947,0.5733434629770476,-4.990105,1.48634,-2.138678,-0.058329,0.014556045961632711,-0.002111848394913185,-1.0843033732670455
266.66666666666663,0.6090340277512486,0.5733436930114431,-4.991946,1.449433,-2.154748,0.018076,-0.020176006153054444,-0.010053096491487334,-1.093902474713503
267.6691729323308,0.6090336282453829,0.5733439178098507,-4.976855,1.476974,-2.145619,-0.023369,-0.011693705988362009,-0.004101523742186641,-1.0969043886670555
268.671679197995,0.6090332341500377,0.5733441511603717,-5.019785,1.467137,-2.172511,0.090293,-0.01022762941668677,-0.008569566627292025,-1.0951419028285143
269.6741854636591,0.6090328229504659,0.5733443810202342,-5.067635,1.476061,-2.204224,-0.020841,-0.0256388867117967,0.009948376736367726,-1.089957803711193
270.6766917293233,0.6090324192558099,0.5733446162906174,-5.023044,1.503328,-2.155259,-0.037195,0.007243116395776468,-0.0015184364492351055,-1.088876013734222
271.6791979949875,0.6090320104996991,0.5733448484194079,-5.011846,1.472698,-2.173146,-0.000276,-0.024783675378319475,-0.005061454830783463,-1.0927855512586897
272.6817042606516,0.6090316075031749,0.5733450808972643,-4.989204,1.46156,-2.172462,-0.05307,-0.008848819307611252,-0.0008028514559172972,-1.0933437424600623
273.6842105263158,0.6090312093935725,0.5733453105825937,-4.963224,1.464902,-2.12938,0.024705,-0.0001745329251994333,-0.011588986233242338,-1.0930300195270164
274.68671679197996,0.6090308063970482,0.5733455392207258,-5.031429,1.496701,-2.173346,0.077113,-0.01408480706359424,-0.005026548245743667,-1.0915988320870893
275.6892230576441,0.6090303999098654,0.573345776760037,-5.072639,1.518515,-2.22174,-0.005719,-0.01001818990644745,0.010210176124166859,-1.0897665854383451
276.69172932330827,0.609029985394168,0.5733460111577555,-5.028586,1.476034,-2.190851,-0.074376,-0.00034906585039886593,0.0050963614158234805,-1.088300247067282
277.6942355889724,0.6090295776852548,0.5733462420648157,-4.957399,1.447552,-2.129529,-0.050169,-0.005951572749300666,-0.010157816246606943,-1.0913192128876263
278.69674185463657,0.6090291806228499,0.5733464696557501,-4.948564,1.484592,-2.127723,0.033649,-0.014608405839192536,-0.013561208287995896,-1.0952638838899367
279.69924812030075,0.6090287853057744,0.5733467035298698,-5.033612,1.504389,-2.200409,0.102155,-0.010960667702524388,-0.0052883476335428,-1.0900978838369588
280.7017543859649,0.6090283713136758,0.5733469368803907,-5.072793,1.475272,-2.242247,-0.044044,-0.011606439525762293,0.010088003076527352,-1.0888414038551553
281.70426065162906,0.609027955750781,0.5733471695327801,-4.993303,1.486213,-2.166158,-0.067854,-0.0038048177693476384,-0.0011693705988360392,-1.093116832204011
282.70676691729324,0.609027547169203,0.573347398519978,-4.985246,1.463683,-2.158396,0.025948,-0.016859880574265226,-0.007923794804054252,-1.0942689240432524
283.70927318295736,0.6090271501067982,0.573347629427038,-5.002102,1.487416,-2.145797,0.002386,0.0008726646259971646,-0.004188790204786352,-1.088265096136147
284.71177944862154,0.60902675164813,0.573347865046487,-5.010839,1.512356,-2.17362,0.008858,-0.01117010721276371,-0.0030717794835100065,-1.0894523389065232
285.7142857142857,0.6090263428920192,0.5733480982224751,-5.008199,1.481995,-2.187186,-0.021322,-0.01122246709032354,-0.0001570796326795243,-1.088405176261912
286.71679197994985,0.6090259353576387,0.5733483331437924,-4.995278,1.484704,-2.181982,0.007393,-0.00486946861306418,-0.006702064327658075,-1.0917905914120054
287.719298245614,0.6090255232854024,0.5733485640508524,-5.021197,1.486313,-2.207136,0.018885,-0.012740903539558606,0.0008377580409573149,-1.0939024747135033
288.72180451127815,0.6090251155764891,0.5733487954815112,-5.015475,1.483138,-2.160341,-0.01319,8.726646259971648e-05,8.726646259971105e-05,-1.0895567270490851
289.72431077694233,0.6090247113582343,0.5733490276103018,-5.022035,1.468682,-2.162826,0.002401,-0.008168140899333463,-0.0019896753472734563,-1.0918955206066352
290.7268170426065,0.609024308536243,0.573349255724835,-5.008071,1.485922,-2.167441,-0.017062,-0.006771877497738,0.0005410520681183861,-1.0917383886140783
291.72932330827064,0.6090239037943895,0.5733494909952181,-5.003889,1.502212,-2.196765,-0.007479,-0.0060737457969402674,-0.00165806278939451,-1.0898182471842042
292.7318295739348,0.6090234946892128,0.5733497253929367,-4.97375,1.497434,-2.169708,-0.033546,-0.005427973973702364,-0.002373647782712318,-1.0867295205536573
293.734335839599,0.6090230904709582,0.5733499599651881,-4.987429,1.458654,-2.172286,0.045832,-0.002251474735072685,-0.011135200627723663,-1.091808166877573
294.7368421052631,0.6090226813657814,0.5733501882542543,-4.996428,1.482566,-2.184791,-0.043548,-0.010210176124166826,0.001937315469713763,-1.0937804936520819
295.7393483709273,0.6090222837797779,0.5733504249209009,-4.979052,1.526743,-2.148814,0.041769,0.0014486232791552933,-0.007330382858376172,-1.0900451574402563
296.7418546365915,0.609021875023667,0.5733506591440866,-5.064186,1.48924,-2.204899,0.083127,-0.016109388995907664,-0.0003316125578789464,-1.0863454783050488
297.7443609022556,0.609021464347694,0.5733508947635356,-5.068879,1.468189,-2.223289,-0.083346,0.0010297442586766547,0.012287117934040248,-1.0921746162073218
298.7468671679198,0.6090210540207868,0.5733511230526017,-4.952689,1.487988,-2.139731,-0.103003,-0.0014835298641951802,-0.0038920842319472015,-1.0968697613346965
299.74937343358397,0.6090206571329149,0.5733513572757873,-4.914637,1.514598,-2.09495,0.028768,0.0011693705988362019,-0.01656317460142609,-1.0896089298470133
300.7518796992481,0.6090202686226234,0.5733515941169668,-4.994764,1.488741,-2.147152,0.107485,-0.012007865253720986,-0.008831366015091158,-1.0859263025785968
301.7543859649123,0.6090198631826382,0.5733518257221586,-5.100661,1.476192,-2.252273,0.069228,-0.011623892818282236,0.006335545184739555,-1.091860893274275
302.7568922305764,0.6090194362751032,0.5733520561056199,-5.074657,1.483001,-2.269689,-0.1257,-0.005078908123303496,0.01980948701013574,-1.0946529488385688
303.7593984962406,0.6090190175706156,0.5733522901542726,-4.916107,1.496639,-2.128222,-0.129486,0.0021467549799530253,-0.004729842272904516,-1.0917554404808698
304.76190476190476,0.6090186212063424,0.5733525259482545,-4.882834,1.513438,-2.085349,0.059665,-0.006806784082777885,-0.021676989309769468,-1.090167121048385
305.7644110275689,0.6090182351395119,0.5733527620913023,-5.004896,1.492849,-2.161255,0.152459,-0.017331119472303695,-0.010454522219445872,-1.086502610297605
306.76691729323306,0.6090178331901852,0.5733529942200928,-5.103297,1.463826,-2.242944,0.002779,-0.0040840704496667305,0.011152653920243782,-1.0904467577011403
307.76942355889724,0.609017413613033,0.5733532228582248,-5.020204,1.483454,-2.206686,-0.131298,0.0017104226669544436,0.00930260491312973,-1.0978295702502463
308.77192982456137,0.6090170034606588,0.5733534563832787,-4.919998,1.514197,-2.10913,-0.025786,0.003735004599267862,-0.011187560505283578,-1.0902544747774465
309.77443609022555,0.609016608667182,0.5733536933989912,-4.984103,1.485939,-2.165277,0.108779,-0.017680185322702557,-0.013857914260834825,-1.088003576001028
310.77694235588973,0.6090162016564005,0.5733539237824524,-5.012853,1.473287,-2.221426,-0.064656,-0.004363323129985824,0.00755727566113551,-1.0938326964500078
311.77944862155385,0.6090157962164152,0.5733541583547038,-4.950242,1.496515,-2.161216,-0.013476,0.009407324668249438,-0.008639379797371838,-1.0921048379438265
312.78195488721803,0.6090153837951129,0.5733543892617639,-4.98993,1.473875,-2.188948,0.068373,-0.014381513036433277,-0.007819075048934643,-1.0905516868957705
313.7844611528822,0.6090149771333973,0.5733546213905544,-5.039166,1.48935,-2.211361,0.015927,0.003351032163829113,0.0010471975511967546,-1.0925064382047103
314.78696741854634,0.6090145682027536,0.5733548566609376,-5.007717,1.519741,-2.169665,-0.066997,-0.003089232776029963,0.003473205211468766,-1.091581256621521
315.7894736842105,0.6090141652062292,0.5733550933275843,-4.963503,1.490298,-2.138514,-0.000421,-0.00195476876223365,-0.008953539062730886,-1.0894693733200225
316.79197994987464,0.6090137637805012,0.5733553268526381,-4.985206,1.462198,-2.17658,0.030911,-0.007592182246175336,-0.00626573201465952,-1.0909703390234455
317.7944862155388,0.609013358689582,0.5733555554907701,-5.017503,1.468188,-2.217865,0.023525,-0.005340707511102649,-0.002216568150032794,-1.0975680501151266
318.796992481203,0.6090129436502857,0.5733557870959619,-5.018518,1.519231,-2.197914,-0.019693,-0.0005759586531581289,-0.0005585053606380619,-1.093989828442565
319.79949874686713,0.6090125355923066,0.5733560272532668,-4.99075,1.518508,-2.160672,-0.014897,-0.0007504915783575615,-0.004956735075663854,-1.0903072011741506
320.8020050125313,0.6090121291051238,0.5733562640944464,-5.000516,1.493795,-2.177013,0.031802,-0.008063421144213804,-0.005654866776461542,-1.0922619699363838
321.8045112781955,0.6090117254104678,0.5733565011101588,-5.035366,1.496754,-2.193899,0.020027,-0.004049163864626845,0.0011170107212763458,-1.0898012127707049
322.8070175438596,0.6090113177015546,0.5733567320172188,-5.01993,1.470242,-2.179657,-0.044451,0.0014486232791552935,0.0010821041362365502,-1.091808166877573
323.8095238095238,0.6090109117379705,0.5733569624006802,-4.97964,1.482664,-2.160142,-0.019979,0.004101523742186675,-0.006806784082777906,-1.096258843736622
324.812030075188,0.6090105075197159,0.5733571954021353,-4.991141,1.508168,-2.176948,0.044216,-0.00942477796076938,-0.00548033385126212,-1.097131822521883
325.8145363408521,0.609010098763605,0.5733574322433148,-5.04162,1.508034,-2.213256,0.029303,-0.002949606435870418,0.004136430327226659,-1.0910752682180755
326.8170426065163,0.6090096887857637,0.5733576694335601,-5.033422,1.493169,-2.173452,-0.01923,0.0109257611174845,0.0015358897417550033,-1.089138074921409
327.8195488721804,0.60900927985512,0.573357902958614,-5.024159,1.492193,-2.171686,-0.014315,-0.004747295565424576,-0.0019722220547535585,-1.0958748014880115
328.8220551378446,0.6090088758113981,0.5733581350874045,-4.96944,1.489555,-2.160549,-0.084106,-0.005497787143782138,0.0015184364492351055,-1.0972537861300131
329.82456140350877,0.6090084782253945,0.5733583687869914,-4.935397,1.491074,-2.132523,0.049967,0.0102799892942466,-0.01391027413839474,-1.0940074039081336
330.8270676691729,0.6090080724363434,0.5733586023120453,-5.053117,1.498785,-2.226566,0.139554,-0.02157226955464991,-0.0023561944901921983,-1.0956654841508213
331.8295739348371,0.6090076526846584,0.5733588356625663,-5.093581,1.491199,-2.273653,-0.086194,0.0067544242052180545,0.021537362969610063,-1.0984405053016142
332.83208020050125,0.6090072341547037,0.5733590705838836,-4.955801,1.493396,-2.156845,-0.126751,0.0007330382858376186,-0.0010821041362363282,-1.0952116810920096
333.8345864661654,0.6090068301109818,0.5733593039344046,-4.903233,1.490716,-2.099014,0.027241,-0.002949606435870418,-0.020821777976292255,-1.0926806220640606
334.83709273182956,0.6090064403789598,0.5733595371103927,-4.959358,1.495044,-2.148147,0.061975,-0.0023212879051524586,-0.010524335389525685,-1.0997843215591863
335.83959899749374,0.6090060441892197,0.573359771857177,-5.025692,1.494874,-2.197946,0.076719,-0.00836012711705284,-0.001832595714593932,-1.100343053812628
336.84210526315786,0.6090056282772589,0.5733600062548957,-5.085412,1.473815,-2.25552,0.013566,-0.003403392041388943,0.008360127117052807,-1.098073514919797
337.84461152882204,0.609005203464119,0.5733602378600874,-5.010594,1.492685,-2.216767,-0.138169,0.005253441048502932,0.00863937979737206,-1.097131822521883
338.8471177944862,0.6090047948825411,0.5733604731304704,-4.894358,1.523389,-2.110916,-0.035724,0.010559241974565694,-0.016615534478986005,-1.0967477977265674
339.84962406015035,0.6090043972965374,0.5733607063064586,-4.945337,1.447366,-2.154432,0.104963,-0.014154620233674016,-0.017592918860102724,-1.1005869984821788
340.8521303258145,0.6090039979652047,0.5733609337228601,-5.026469,1.444389,-2.204144,0.034784,-0.001727875959474386,-0.00029670597283892874,-1.0995574287564278
341.85463659147865,0.6090035876382975,0.5733611613137946,-5.027391,1.481126,-2.202331,-0.010587,0.00778416846389471,0.0017278759594745452,-1.10348452429317
342.85714285714283,0.6090031684102111,0.5733613892537949,-5.019328,1.482957,-2.217944,-0.010865,-0.01064650843716541,0.0019547687622336607,-1.1040256810810434
343.859649122807,0.6090027565125077,0.5733616271421719,-4.993522,1.492841,-2.189013,-0.01676,0.004310963252425994,-1.74532925198978e-05,-1.0956127577541175
344.86215538847114,0.6090023465346664,0.5733618606672258,-5.005533,1.457909,-2.211551,0.017002,0.0025307274153917774,-0.004956735075663854,-1.0989640691706273
345.8646616541353,0.6090019348114958,0.5733620863382981,-4.970881,1.448981,-2.177901,-0.056325,-0.007679448708775049,-0.0024434609527919093,-1.1041828130736007
346.8671679197995,0.6090015339093667,0.5733623167217594,-4.95775,1.471292,-2.164901,0.028643,0.001780235837034216,-0.011536626355682422,-1.103955379218773
347.8696741854636,0.6090011289929802,0.5733625465816219,-5.008095,1.472013,-2.19127,0.072342,-0.002792526803190928,-0.007225663103256563,-1.0983009487746238
348.8721804511278,0.609000716397145,0.573362777314149,-5.069025,1.454127,-2.259419,0.02801,-0.00333357887130917,0.0018849555921538474,-1.10348452429317
349.874686716792,0.6090002905368075,0.5733630054286822,-5.021353,1.457988,-2.26435,-0.105959,-0.006387905062299245,0.010663961729685312,-1.1079698284845778
350.8771929824561,0.6089998739267151,0.5733632372084069,-4.927631,1.488607,-2.160659,-0.040702,0.010297442586766544,-0.008901179185170971,-1.100656776745674
351.8796992481203,0.6089994714537896,0.5733634686390657,-4.966886,1.449559,-2.13852,0.112852,-0.0188670092140587,-0.018936822384138408,-1.099522277825293
352.88220551378447,0.6089990693299299,0.5733636913430783,-5.070194,1.413725,-2.231982,0.047763,0.0031415926535897933,0.0023212879051526247,-1.1080049794157134
353.8847117794486,0.6089986590030227,0.573363918410414,-5.03488,1.478138,-2.219359,-0.082415,0.004625122517784973,0.00989601685880781,-1.1074813980934073
354.8872180451128,0.6089982425674633,0.5733641503646716,-4.995533,1.473589,-2.218776,0.023454,-0.0008552113334772219,-0.005393067388662409,-1.1046888014770462
355.8897243107769,0.6089978217685806,0.5733643810971987,-5.003715,1.460535,-2.236682,-0.016668,-0.009948376736367675,0.0018849555921538474,-1.0993481114192358
356.8922305764411,0.6089974103944759,0.5733646135750551,-4.988388,1.456295,-2.20642,-0.010003,0.014364059743913329,-0.005393067388662409,-1.102716474702537
357.89473684210526,0.6089969969259761,0.5733648350573372,-4.972536,1.431367,-2.172174,-0.000373,-0.01174606586592184,-0.008098327729253674,-1.1113206163023117
358.8972431077694,0.6089965944530505,0.5733650635209363,-5.012923,1.457537,-2.184926,0.07146,0.00031415926535897893,-0.0060737457969402,-1.1100119335225815
359.89974937343356,0.6089961869186702,0.5733652921590682,-5.077317,1.455939,-2.228357,0.042548,-0.00041887902047863933,0.00549778714378224,-1.1017215148558528
360.90225563909775,0.6089957689123143,0.5733655187028052,-5.057362,1.44646,-2.242399,-0.074879,-0.0006108652381980153,0.009058258817850717,-1.1040081056154751
361.90476190476187,0.6089953467171684,0.5733657492607993,-4.962507,1.472459,-2.228154,-0.084606,-0.0027750735106709845,0.0007155849933178082,-1.1116178284206337
362.90726817042605,0.6089949309797404,0.5733659789461288,-4.922284,1.445184,-2.19683,0.021544,-0.005253441048502933,-0.009756390518648184,-1.1072720807562162
363.90977443609023,0.6089945243180248,0.5733662063625304,-4.986275,1.426632,-2.17932,0.081983,0.0012391837689159728,-0.010367255756846161,-1.1034317978964676
364.91228070175436,0.6089941181799079,0.5733664313354709,-5.047851,1.452461,-2.201488,0.037437,0.002460914245312005,-0.00027925268031903094,-1.113240757732186
365.91478696741854,0.6089937050604739,0.5733666585773396,-5.053069,1.470183,-2.250483,-0.026601,-0.009372418083209549,0.007871434926494558,-1.1139560809261149
366.91729323308266,0.6089932877522498,0.5733668926259923,-4.987097,1.45868,-2.223487,-0.078343,0.011065387457644049,0.005340707511102716,-1.1036240808201598
367.91979949874684,0.6089928735856183,0.5733671230094535,-4.940135,1.445219,-2.171663,0.001568,0.001989675347273536,-0.01282817000215819,-1.1046888014770462
368.922305764411,0.6089924629096453,0.5733673476333283,-4.970757,1.436579,-2.209409,0.047815,-0.0055501470213419665,-0.009721483933608388,-1.1171502778033606
369.92481203007515,0.608992052931804,0.5733675731298676,-5.011818,1.440662,-2.233013,0.031642,-0.004921828490624008,-0.0015358897417550033,-1.1143406293202072
370.9273182957393,0.6089916391142384,0.5733678021170655,-5.010357,1.452995,-2.205546,-0.040483,0.010053096491487338,0.0027750735106710778,-1.1076555644994646
371.9298245614035,0.6089912282637324,0.5733680300570658,-4.979869,1.451237,-2.170514,0.019121,0.0023387411976724007,-0.008936085770210989,-1.1117749429598984
372.93233082706763,0.6089908153188314,0.5733682583461319,-5.041761,1.445148,-2.252543,0.069856,-0.010855947947404732,0.0004712388980385729,-1.1163129735480084
373.9348370927318,0.6089903966143438,0.5733684854134676,-5.035841,1.415113,-2.257939,-0.077977,-6.981317007977385e-05,0.012671090369478888,-1.1146197423741857
374.937343358396,0.6089899801787843,0.5733687098628095,-4.959761,1.428696,-2.174813,-0.033708,0.005148721293383272,-0.009983283321407521,-1.1152828627701892
375.9398496240601,0.6089895677574821,0.5733689339630854,-4.960535,1.447468,-2.189664,0.015456,-0.0075223690760955605,-0.009564404300928864,-1.1180056811230552
376.9423558897243,0.608989164411892,0.5733691605068223,-4.968967,1.43934,-2.199386,0.021031,0.002635447170511437,-0.004747295565424414,-1.1153877919648192
377.9448621553885,0.6089887532123202,0.5733693868760263,-5.032377,1.42349,-2.230395,0.090164,-0.008080874436733746,-0.004974188368183752,-1.1148812625093056
378.9473684210526,0.608988331191707,0.5733696101036376,-5.059494,1.418895,-2.241298,-0.055881,-0.005689773361501515,0.010646508437165414,-1.1206059948157234
