Time [s],Longitude [rad],Latitude [rad],Altitude [m],V North [m/s],V East [m/s],V Down [m/s],Roll [rad],Pitch [rad],Yaw [rad]
0.0,0.6090302882087932,0.5733701750667165,-15.031991,-1.119583,1.715984,0.008585,0.0559552558189382,0.0008901179185172303,2.2648091901842617
1.0025062656641603,0.6090306063823159,0.5733699958214024,-15.031984,-1.15227,1.698177,-0.009174,0.05806710421385134,0.0032463124087094286,2.2829256031002076
2.0050125313283207,0.6090309229850422,0.5733698113401005,-15.020419,-1.178357,1.686206,-0.012103,0.05501277802286127,0.0028972465583105844,2.3008502741445302
3.007518796992481,0.6090312367952417,0.5733696228445412,-15.012469,-1.206567,1.66709,-0.00277,0.052447144022429594,0.0012740903539558701,2.3198391422469626
4.010025062656641,0.6090315472893156,0.5733694294620602,-15.013378,-1.243052,1.636531,0.001213,0.05461135229490257,0.0007155849933178082,2.3397710466508337
5.012531328320802,0.6090318506275397,0.5733692296218608,-15.010372,-1.282372,1.600116,-0.010723,0.05473352534254218,0.0017627825445143408,2.3596502072047087
6.015037593984962,0.6090321473335125,0.5733690248947395,-14.995537,-1.314607,1.571775,-0.018332,0.061540309425320065,0.00036651914291896404,2.3792153830261498
7.017543859649122,0.609032437930833,0.5733688140589658,-14.980003,-1.344962,1.545172,-0.010098,0.06082472443200238,-0.0024260076602720115,2.3999150752212657
8.020050125313283,0.6090327241648302,0.573368598859869,-14.97738,-1.374672,1.518887,0.005073,0.055152404363020824,-0.004345869837465877,2.4193055435845823
9.022556390977442,0.6090330065591033,0.5733683798210479,-14.987798,-1.405185,1.484622,0.011575,0.053965580471664665,-0.003752457891787797,2.4378933524782
10.025062656641603,0.6090332814484605,0.5733681544990414,-14.998187,-1.434262,1.447912,0.00634,0.0576831317784126,-0.0013613568165555812,2.4562191001846294
11.027568922305765,0.6090335490074348,0.5733679262099753,-14.999371,-1.45932,1.415277,-0.002673,0.05904448859496818,-0.0006108652381979773,2.474318199434396
12.030075187969924,0.6090338104577567,0.5733676947793165,-14.99556,-1.483737,1.386386,-0.002257,0.05852088981936987,-0.0015184364492351055,2.4914575072219054
13.032581453634084,0.6090340668466239,0.5733674582872029,-14.993573,-1.512723,1.356116,-0.000192,0.053494341573626196,-0.003839724354387508,2.5096263847351663
14.035087719298245,0.6090343178249703,0.5733672167336343,-14.991753,-1.54092,1.324103,-0.005679,0.050858894403114766,-0.004468042885105383,2.5271494555186043
15.037593984962406,0.6090345632182631,0.573366972736605,-14.984133,-1.560838,1.297336,-0.011518,0.05033529562751647,-0.0037000980142278816,2.543956941308725
16.040100250626566,0.6090348032010353,0.57336672542345,-14.972924,-1.581388,1.271821,-0.010249,0.05099852074327431,-0.0037350045992678993,2.562824107602416
17.042606516290725,0.6090350374242209,0.5733664739215047,-14.967067,-1.603499,1.241952,-0.000536,0.05256931707006921,-0.00441568300754569,2.5828604001488484
18.045112781954884,0.6090352672840833,0.5733662203251645,-14.973227,-1.622554,1.200651,0.011907,0.0523598775598299,-0.004625122517784908,2.6026000041757342
19.047619047619047,0.6090354880682337,0.5733659635872315,-14.992296,-1.642578,1.146187,0.022765,0.05492551156026154,-0.0049043751981039385,2.621850933465354
20.050125313283207,0.6090356978568098,0.5733657028350412,-15.010488,-1.667798,1.091555,0.009175,0.05693264020005502,-0.0031590459461097176,2.640700524293478
21.052631578947366,0.6090358978715422,0.5733654375449949,-15.00728,-1.695607,1.054497,-0.0154,0.05731661263549378,-0.002757620218150958,2.658659822670159
22.05513784461153,0.6090360924757537,0.5733651671934937,-14.98033,-1.715968,1.041699,-0.034942,0.05005604294719738,-0.0036477381366681882,2.675328013732678
23.05764411027569,0.609036285334636,0.5733648945730646,-14.947333,-1.728831,1.033674,-0.02656,0.04642575810304918,-0.007696902001294914,2.692013239208696
24.06015037593985,0.6090364774953867,0.5733646210799709,-14.937602,-1.738614,1.007702,0.0059,0.043022366061660225,-0.010122909661567148,2.7115608395645703
25.062656641604008,0.6090366640710837,0.5733643460160807,-14.960608,-1.753674,0.95248,0.033453,0.04405211032033689,-0.009738937226128286,2.732661870221182
26.065162907268167,0.6090368373822785,0.5733640686832625,-14.999724,-1.771834,0.88088,0.035609,0.047385689191646055,-0.006544984694978773,2.7524539562986745
27.06766917293233,0.6090369967308391,0.5733637873361871,-15.024611,-1.788041,0.825487,0.009817,0.05562364326105928,-0.0023561944901921983,2.7705879446801887
28.07017543859649,0.6090371463055562,0.5733635037201836,-15.021322,-1.802437,0.8008,-0.015081,0.0502305758723968,-0.0010297442586766348,2.786644938891951
29.07268170426065,0.6090372929132133,0.5733632183588511,-15.000422,-1.817365,0.786964,-0.02405,0.04260348704118158,-0.0028099800957108734,2.8029464188253335
30.075187969924812,0.6090374377755411,0.5733629309031232,-14.979829,-1.824085,0.768931,-0.015475,0.042743113381341125,-0.005148721293383174,2.819823665425656
31.07769423558897,0.609037580718007,0.5733626436219283,-14.976529,-1.829816,0.731821,0.008107,0.04359832471481836,-0.007504915783575594,2.838620791656465
32.08020050125313,0.6090377151083592,0.5733623549444701,-14.996542,-1.844806,0.673671,0.025271,0.046792277245967975,-0.006719517620178195,2.8585875851920823
33.08270676691729,0.6090378371068741,0.573362063299952,-15.016864,-1.85942,0.616215,0.009598,0.049794243559398224,-0.003036872898469989,2.8781524992141363
34.08521303258145,0.609037949157012,0.5733617699101048,-15.016158,-1.86305,0.581594,-0.011064,0.04663519761328849,-0.001186823891356159,2.8952044532725836
35.08771929824561,0.6090380559711622,0.5733614756475929,-15.002531,-1.863363,0.560804,-0.010813,0.04483750848373433,-0.0031241393610697,2.912134164470221
36.09022556390977,0.6090381577238576,0.5733611817341467,-15.000869,-1.86983,0.527148,0.008707,0.041207223639586114,-0.005235987755982885,2.9308266233057876
37.092731829573935,0.6090382514480384,0.573360887122569,-15.01688,-1.878103,0.477212,0.020079,0.040072759625789794,-0.00439822971502557,2.9494493038778598
38.095238095238095,0.6090383378418365,0.5733605921619256,-15.036191,-1.881555,0.42549,0.014115,0.041189770347066175,-0.0013613568165555812,2.9666757035950435
39.097744360902254,0.6090384135891259,0.5733602961540843,-15.043929,-1.883054,0.383332,-0.001551,0.04565781323217167,0.002024581932313474,2.982348934810878
40.100250626566414,0.6090384823550984,0.5733599987499799,-15.033247,-1.886315,0.354866,-0.017684,0.04672246407588821,0.0026354471705114513,2.9980043287617573
41.10275689223057,0.6090385455360173,0.5733597004732107,-15.012148,-1.888921,0.332327,-0.021863,0.03885102914939377,0.0015358897417550033,3.0146197934275727
42.10526315789473,0.6090386052262777,0.5733594030691062,-14.997652,-1.891177,0.304113,-0.006686,0.037803831598197175,-0.001186823891356159,3.0319508430867064
43.10776942355889,0.6090386602041493,0.573359104792337,-15.004164,-1.88992,0.26541,0.015699,0.041434116442345376,-0.002199114857512896,3.0494217110722177
44.11027568922306,0.6090387076771049,0.5733588066901008,-15.026598,-1.883802,0.217718,0.025029,0.04056145181634823,-0.0001745329251994221,3.0668052253286664
45.11278195488722,0.609038744678085,0.5733585110313254,-15.050299,-1.874183,0.171434,0.020289,0.04323180557189955,0.003124139361069922,3.0832814127201726
46.11528822055138,0.609038772777886,0.5733582164197477,-15.064054,-1.871407,0.125404,0.00721,0.046041785667610406,0.006457718232379062,3.0992159022717383
47.11779448621554,0.6090387925001065,0.5733579219827029,-15.05583,-1.873147,0.089806,-0.024691,0.04492477494633404,0.009546951008408966,3.113894173640888
48.1203007518797,0.6090388069863394,0.5733576268475263,-15.018169,-1.869542,0.074746,-0.04511,0.03960152072775133,0.007138396640656852,3.1279442137457827
49.122807017543856,0.6090388199017758,0.5733573329340803,-14.979611,-1.863935,0.066485,-0.027327,0.0383797902513553,0.0013089969389958878,-3.1400219270761682
50.125313283208015,0.6090388307228172,0.5733570393697002,-14.974154,-1.860945,0.033774,0.013367,0.03501130479500625,-0.002111848394913185,-3.1205265120649295
51.127819548872175,0.6090388347370744,0.5733567473761163,-15.002182,-1.855649,-0.025528,0.033682,0.03804817769347639,-0.00012217304763950665,-3.0998268373231066
52.130325814536334,0.609038826359494,0.5733564557315983,-15.028143,-1.841298,-0.086529,0.012256,0.04063126498642799,0.0056374134839416445,-3.0819200035437397
53.1328320802005,0.6090388073354052,0.5733561670541399,-15.023611,-1.824605,-0.121334,-0.016674,0.03860668305411457,0.007766715171374727,-3.06732906845036
54.13533834586466,0.6090387811554664,0.573355880122011,-14.999362,-1.817052,-0.139965,-0.024673,0.04206243497306335,0.005969026041820591,-3.0530870246744537
55.13784461152882,0.6090387530556655,0.5733555947606783,-14.978013,-1.815826,-0.162537,-0.012707,0.03705334001983961,0.0017627825445143408,-3.0380422865222627
56.14035087719298,0.609038721290673,0.5733553100974773,-14.971979,-1.809532,-0.198775,0.000959,0.03422590663160879,-0.0007504915783576038,-3.022229498779439
57.14285714285714,0.6090386813226333,0.5733550257833422,-14.974561,-1.795758,-0.235262,0.003916,0.0350287580875262,-0.001186823891356159,-3.0073245964069173
58.1453634085213,0.6090386362931386,0.573354743738135,-14.977333,-1.783619,-0.262262,0.001241,0.035046211380046134,-0.0018500490071138298,-2.9929605715695886
59.14786967418546,0.6090385855040572,0.5733544634382571,-14.976932,-1.774582,-0.283309,-0.000414,0.032480577379614475,-0.0018500490071138298,-2.978805864069452
60.150375939849624,0.6090385313988506,0.5733541852327743,-14.974681,-1.765179,-0.30863,-0.00091,0.03605850234620284,-0.0015882496193146967,-2.962521959601638
61.152882205513784,0.6090384715340571,0.5733539075508904,-14.978398,-1.750597,-0.345642,0.010121,0.036966073557239895,-0.0014486232791552922,-2.9452431127404313
62.15538847117794,0.6090384053860785,0.5733536335341979,-14.993147,-1.730603,-0.39199,0.018925,0.03591887600604329,-0.0005235987755982663,-2.928313401542794
63.1578947368421,0.609038329289723,0.5733533628336308,-15.007009,-1.710822,-0.433773,0.005132,0.03832743037379549,0.002565634000431638,-2.913582927375717
64.16040100250626,0.6090382458629848,0.5733530947510577,-14.997587,-1.696926,-0.453392,-0.021452,0.03757693879543792,0.003211405823669633,-2.9009467610445703
65.16290726817043,0.6090381599927855,0.5733528298100773,-14.96892,-1.689795,-0.457378,-0.028982,0.03331833542057175,-5.23598775596934e-05,-2.8880661089918043
66.16541353383458,0.6090380735989877,0.5733525641709651,-14.95074,-1.686303,-0.473004,-0.00202,0.02918190509334519,-0.00479965544298433,-2.873056259971361
67.16791979949875,0.6090379838890642,0.5733522992299847,-14.961367,-1.673866,-0.511829,0.019892,0.02806489437206882,-0.005026548245743667,-2.856091938894656
68.1704260651629,0.6090378864996918,0.5733520367324652,-14.981762,-1.645251,-0.556817,0.016674,0.03192207201897629,-0.0019024088846737452,-2.8394761949761596
69.17293233082707,0.6090377812563379,0.5733517794709335,-14.989488,-1.614536,-0.58096,0.000494,0.03434807967924841,0.0,-2.825216837534074
70.17543859649122,0.609037671475128,0.5733515274453894,-14.989313,-1.599106,-0.595386,0.002014,0.032707470182373743,-0.0011170107212763458,-2.8120570898806214
71.17794486215539,0.6090375589013912,0.5733512780378393,-14.995277,-1.59326,-0.621127,0.010251,0.03361504139341079,-0.0017802358370342386,-2.796925015452661
72.18045112781954,0.609037440568068,0.5733510286302892,-15.002972,-1.582701,-0.657324,0.002186,0.03469714552964726,0.0002967059728391508,-2.78163607083153
73.1829573934837,0.6090373171732899,0.5733507793972721,-14.994215,-1.562935,-0.673959,-0.019749,0.030106929596902185,0.001099557428756448,-2.77023880901662
74.18546365914787,0.6090371915095837,0.5733505301642549,-14.978161,-1.557428,-0.685711,0.007937,-0.009564404300928926,-0.00734783615089607,-2.690843851156567
75.18796992481202,0.609037048392585,0.5733502990826619,-14.985567,-1.346402,-0.863544,-0.00455,0.036529741244241326,0.01373574121319554,-2.4663423065521695
76.19047619047619,0.6090368852043,0.573350102733121,-14.985934,-1.020045,-1.106871,0.001909,0.0973893722612836,0.00804596785169398,-2.2012094271481732
77.19298245614034,0.6090366937416811,0.5733499618850504,-14.980705,-0.681271,-1.291888,-0.014281,0.12082914411556742,-0.003665191429188086,-1.9643505500139278
78.19548872180451,0.609036458471298,0.5733498807272401,-14.965029,-0.365922,-1.388212,-0.013056,0.1410051502686219,-0.011780972450961658,-1.760844827618831
79.19799498746866,0.6090361944029821,0.5733498526274392,-14.955139,-0.078412,-1.439079,0.00639,0.13007938915113737,-0.016318828506146854,-1.574147655664699
80.20050125313283,0.6090359219570859,0.5733498678118037,-14.963557,0.191938,-1.466097,0.006821,0.10449286231690051,-0.009930923443847606,-1.3910974015424853
81.203007518797,0.6090356495111895,0.5733499226151422,-14.964013,0.460455,-1.43512,-0.003412,0.09728465250616392,-0.0049916416607036496,-1.1991287592886766
82.20551378446115,0.6090353884099335,0.5733500170374547,-14.954226,0.725266,-1.336305,-0.007911,0.09922196797587762,-0.0037350045992678993,-1.0025347501709885
83.20802005012531,0.6090351501724905,0.5733501486352804,-14.955606,0.97739,-1.196236,0.014732,0.09995500626171526,-0.008796459430051362,-0.8092744595509488
84.21052631578947,0.6090349384640523,0.5733503177576849,-14.984254,1.190269,-1.048061,0.032606,0.10723302924253161,-0.006178465552059809,-0.625945127281342
85.21303258145363,0.6090347574734088,0.5733505196922793,-15.012027,1.373296,-0.881032,0.021852,0.08278096642209105,-0.002111848394913185,-0.44361073740512613
86.21553884711778,0.6090346106912187,0.5733507472832138,-15.015059,1.510894,-0.666219,-0.007705,0.10238101392198738,0.0029496064358705,-0.25813435344959434
87.21804511278195,0.6090345056223977,0.5733509937237042,-14.991899,1.611303,-0.403896,-0.022222,0.08468337530676485,-0.0026179938779913314,-0.06668875146602306
88.22055137844612,0.6090344513426581,0.5733512546504274,-14.978536,1.721593,-0.117388,-0.004581,0.03897320219703338,-0.003926990816987219,0.09491100472345165
89.22305764411027,0.6090344462812032,0.5733515337285747,-14.987113,1.838361,0.091177,0.015199,0.07115707360380881,0.0013264502315157856,0.17619098798882757
90.22556390977444,0.6090344831076505,0.5733518342742719,-14.997791,1.952078,0.213274,0.004112,0.003420845333908886,0.009128071987930308,0.20020671849626953
91.22807017543859,0.6090345482084315,0.5733521566365848,-14.994107,2.062801,0.284666,-0.013451,0.004258603374866163,0.01589994948566842,0.1984264826592353
92.23057644110276,0.609034621861326,0.5733524896454061,-14.970752,2.085237,0.313715,-0.03196,-0.010367255756846317,0.02069960492865275,0.1901710752973022
93.23308270676691,0.6090346935943582,0.5733528252722212,-14.935671,2.093578,0.326869,-0.038039,-0.017575465567582896,0.021607176139689876,0.1837133570649231
94.23558897243107,0.6090347634075283,0.5733531567102462,-14.89899,2.093768,0.329395,-0.038043,-0.009128071987930345,0.01904154213925824,0.18011797880581484
95.23809523809523,0.6090348285083094,0.5733534834358822,-14.863251,2.034029,0.329478,-0.034168,-0.02050761871093337,0.016406094968746787,0.17617353469630762
96.2406015037594,0.6090348866277735,0.5733537836325134,-14.82804,1.798057,0.262447,-0.035553,-0.07291985614832308,0.017994344588061706,0.0784001899995853
97.24310776942356,0.6090349201380951,0.5733540571256073,-14.802001,1.727298,0.091317,-0.024042,0.02932153143350473,0.014782938764392073,-0.10196230943443421
98.24561403508771,0.6090349450963034,0.5733543091511513,-14.785659,1.728412,-0.160804,-0.014662,0.07909832170038301,0.01813397092822111,-0.31185562273256484
99.24812030075188,0.6090349131567782,0.5733545625729587,-14.753945,1.672043,-0.43501,-0.041568,0.025307274153917782,0.0209963109014919,-0.5256930834342298
100.25062656641603,0.609034827112046,0.573354813551305,-14.705444,1.542619,-0.673828,-0.043604,0.003909537524467298,0.005532693728822036,-0.7343996950140518
101.2531328320802,0.609034691674496,0.5733550414913053,-14.677965,1.361757,-0.899592,-0.013737,-0.021362830044410593,-0.009581857593448762,-0.9365091191009686
102.25563909774435,0.6090345124291819,0.5733552374917803,-14.684317,1.148641,-1.11454,0.009044,-0.00047123889803847,-0.013473941825396185,-1.1332075338145107
103.25814536340852,0.6090342946120912,0.5733553978875386,-14.684748,0.92157,-1.279393,-0.007505,-0.011327186845443198,-0.01076868148480492,-1.3290681206739265
104.26065162907267,0.6090340504405288,0.5733555202351193,-14.659601,0.665879,-1.364666,-0.027362,0.005113814708343384,-0.013491395117916083,-1.5245100554056663
105.26315789473684,0.609033795796991,0.5733556031382586,-14.645322,0.385913,-1.392653,-0.002601,0.023596851486963333,-0.017872171540421977,-1.723355504351843
106.265664160401,0.6090335404553214,0.5733556413609693,-14.660561,0.10283,-1.392273,0.017499,0.013264502315156908,-0.016632987771505903,-1.924469706792688
107.26817042606515,0.6090332922695018,0.5733556364740474,-14.674423,-0.177271,-1.335574,0.00445,0.03220132469929539,-0.013264502315156745,-2.125392167361907
108.27067669172932,0.609033058569915,0.573355588128427,-14.671499,-0.469699,-1.228497,0.005951,-0.000872664625997164,-0.01794198471050157,-2.315476080916365
109.27318295739347,0.6090328418000219,0.5733554902154561,-14.686975,-0.756694,-1.14986,0.037481,-0.01637118838370681,-0.027279496208671317,-2.4272644020533094
110.27568922305764,0.6090326323605116,0.5733553540797744,-14.737137,-0.944579,-1.158674,0.057821,0.0485376064979623,-0.029234264970904977,-2.4518211497222846
111.27819548872179,0.6090324203030075,0.5733551788487175,-14.788016,-1.065786,-1.227594,0.047839,0.03879866927183394,-0.03087487446777959,-2.43682861436802
112.28070175438596,0.6090321960281986,0.5733549910512901,-14.827151,-1.082793,-1.252145,0.035638,0.004642575810304917,-0.03275983005993344,-2.413389069406539
113.28320802005013,0.6090319598851508,0.5733548083153174,-14.854643,-1.08467,-1.245135,0.025323,0.00802851455917392,-0.03272492347489364,-2.4004386565435714
114.28571428571428,0.6090317274072945,0.5733546318625299,-14.881861,-1.091996,-1.219991,0.038265,0.0076270888312152205,-0.033946653951289596,-2.3981872167150833
115.28822055137844,0.6090314994672942,0.5733544594239998,-14.938151,-1.090367,-1.218665,0.073147,-0.001274090353955862,-0.03293436298513286,-2.4001595434895924
116.2907268170426,0.6090312697819645,0.5733542897779966,-15.018694,-1.075382,-1.243022,0.076736,-0.0003316125578789182,-0.024870941840919203,-2.4031614748964376
117.29323308270676,0.6090310366059766,0.5733541225754542,-15.074862,-1.059451,-1.250725,0.032221,-0.007068583470577038,-0.014189526818713771,-2.405918903128371
118.29573934837092,0.6090308023827908,0.5733539579909057,-15.082431,-1.058516,-1.224475,-0.009704,-0.005899212871740833,-0.00862192650485194,-2.4090952627406605
119.29824561403508,0.6090305739191919,0.5733537927082255,-15.064931,-1.066597,-1.189895,-0.017497,-0.0010122909661567116,-0.008883725892651073,-2.4105788973246103
120.30075187969925,0.6090303536586402,0.5733536260292821,-15.059927,-1.067721,-1.169682,0.011148,-0.0022689280275926273,-0.012077678423800808,-2.410456671917094
121.3032581453634,0.6090301363651484,0.5733534600484701,-15.092065,-1.05718,-1.178645,0.047786,0.002059488517353309,-0.011798425743481555,-2.409758644936051
122.30576441102757,0.609029915406465,0.5733532949403228,-15.141959,-1.04271,-1.202871,0.041471,-0.004171336912266448,-0.004188790204786352,-2.4090779490744807
123.30827067669172,0.6090296899099257,0.5733531327992355,-15.158047,-1.029047,-1.202035,-0.011853,-0.005567600313861911,0.0051836278784231915,-2.4099682415259225
124.31077694235589,0.609029465286051,0.5733529727525429,-15.122059,-1.022356,-1.170893,-0.051694,-0.004380776422505768,0.007051130178057141,-2.4124987769550974
125.31328320802004,0.609029248167092,0.5733528132294494,-15.072729,-1.028007,-1.136137,-0.036425,-0.0012217304763960308,0.0014486232791552922,-2.4148897558572817
126.3157894736842,0.6090290378549172,0.573352653008224,-15.060925,-1.038212,-1.131557,0.011401,0.0010297442586766545,-0.004031710572106828,-2.4156229337694595
127.31829573934836,0.6090288270191435,0.5733524912162025,-15.085353,-1.032421,-1.149233,0.023724,-0.0021118483949131386,-0.0014311699866353944,-2.4155182663742174
128.32080200501252,0.6090286128672443,0.5733523297732466,-15.095118,-1.009809,-1.151245,-0.011027,-0.004328416544945938,0.0036477381366681882,-2.4159369185018935
129.32330827067668,0.609028398889878,0.5733521767078711,-15.070399,-0.946931,-1.088229,-0.036587,0.030368728984701335,0.004590215932745112,-2.484266698343811
130.32581453634086,0.6090282076017919,0.5733520222462324,-15.03897,-1.054609,-0.921511,-0.01786,0.10836749325632791,0.0009250245035570259,-2.676584493714482
131.328320802005,0.6090280451116387,0.5733518574871509,-15.020288,-1.232943,-0.681949,-0.016263,0.0799884396189001,0.012269664641520128,-2.8845579273821262
132.33082706766916,0.6090279257311179,0.5733516672462624,-14.984983,-1.36221,-0.426274,-0.03681,0.03364994797845068,0.011606439525762458,-3.0638904033047885
133.33333333333331,0.6090278697060488,0.5733514485565072,-14.942895,-1.450625,-0.142287,-0.034605,0.04068362486398781,0.002286381320112607,3.0601555906917377
134.3358395989975,0.6090278718004439,0.5733512129370582,-14.9131,-1.507634,0.134021,-0.018886,0.03225368457685522,-0.004380776422505672,2.921523931126196
135.33834586466165,0.6090279260801836,0.5733509712089568,-14.90675,-1.518793,0.376891,0.005993,0.03743731245527837,-0.009250245035569815,2.799193768947328
136.3408521303258,0.6090280225968913,0.573350735065909,-14.916914,-1.439347,0.560593,0.01418,0.015777776438028742,-0.01263618378443887,2.698401109364411
137.34335839598998,0.6090281477369985,0.5733505121873635,-14.928957,-1.360428,0.705328,0.008817,0.01085594794740473,-0.013945180723434536,2.621868508930922
138.34586466165413,0.6090282962645179,0.5733503064130447,-14.930021,-1.288806,0.823106,-0.002883,0.02298598624876532,-0.015341444125030135,2.5647788589113576
139.34837092731829,0.609028463990659,0.5733501123324319,-14.925156,-1.225654,0.916278,-0.000599,0.019949113350295186,-0.01647590813882638,2.523728627637988
140.35087719298244,0.6090286458539671,0.5733499268039325,-14.931687,-1.170156,0.977311,0.019298,0.02031563249321399,-0.016493361431346276,2.4946165531680156
141.35338345864662,0.609028835222191,0.5733497493039474,-14.959875,-1.126053,1.006287,0.037737,0.028605946440187064,-0.014154620233673976,2.475400513010143
142.35588972431077,0.6090290263357441,0.5733495773890162,-14.997324,-1.094866,1.018617,0.034128,0.032882003107573166,-0.01117010721276368,2.4629560885506203
143.35839598997492,0.6090292176238301,0.5733494100119408,-15.021357,-1.077392,1.03323,0.012966,0.032340951039454925,-0.008936085770210989,2.4554688878589523
144.36090225563908,0.6090294110063112,0.5733492429839315,-15.019314,-1.071295,1.058211,-0.012695,0.030246555937061742,-0.007766715171374727,2.451210214670916
145.36340852130326,0.6090296096247801,0.5733490756068563,-14.999239,-1.071423,1.085541,-0.020901,0.022689280275926284,-0.008360127117052807,2.449831491828303
146.3659147869674,0.6090298143519013,0.5733489073571164,-14.982904,-1.066238,1.10215,-0.007327,0.01937315469713706,-0.010035643198967437,2.449796340897168
147.36842105263156,0.6090300211734176,0.5733487408527057,-14.988319,-1.0535,1.101051,0.017179,0.018971728969178363,-0.011676252695842049,2.4514195494614004
148.37092731829574,0.6090302255514731,0.573348576791756,-15.016088,-1.040858,1.086073,0.033668,0.022759093446006063,-0.010803588069844938,2.454072589550772
149.3734335839599,0.6090304260898042,0.5733484141270697,-15.051203,-1.039847,1.068514,0.0321,0.031573006168577424,-0.008168140899333487,2.457301396307084
150.37593984962405,0.6090306219157463,0.573348250240653,-15.074291,-1.050334,1.058425,0.013094,0.03502875808752619,-0.00439822971502557,2.4600588419923097
151.3784461152882,0.6090308165199578,0.5733480842598411,-15.07334,-1.062558,1.063526,-0.009361,0.029984756549262585,-0.002024581932313474,2.4618916296931217
152.38095238095238,0.6090310128694987,0.5733479160101012,-15.052644,-1.07313,1.074945,-0.024177,0.02478367537831948,-0.0022514747350725894,2.4756971840763966
153.38345864661653,0.6090312113134346,0.5733477454914333,-15.026306,-1.084614,1.070308,-0.021727,0.02754129559647052,-0.003036872898469989,2.5096263847351663
154.38596491228068,0.6090314104555024,0.5733475730529032,-15.011755,-1.108249,1.033746,-0.005013,0.02691297706575256,-0.0044505895925854855,2.562213172551048
155.38847117794487,0.6090316012199896,0.5733473969491816,-15.018614,-1.154238,0.960175,0.01566,0.03584906283596353,-0.005358160803622614,2.6306473579888205
156.39097744360902,0.6090317740075855,0.5733472121188139,-15.040242,-1.230331,0.857989,0.025148,0.04768239516448509,-0.005585053606381729,2.710496380707071
157.39348370927317,0.6090319246295001,0.5733470145475426,-15.063406,-1.31729,0.73987,0.020164,0.05537929716578007,-0.004852015320544245,2.7960698739323533
158.39598997493732,0.6090320515149366,0.5733468017919068,-15.074085,-1.390872,0.614882,0.002457,0.051626839273992274,-0.003211405823669411,2.885517736297675
159.3984962406015,0.6090321520459016,0.5733465769934991,-15.068042,-1.439108,0.486533,-0.007504,0.05633922825437696,-0.003769911184307695,2.9784394147397033
160.40100250626566,0.6090322281422569,0.5733463452137744,-15.059615,-1.475284,0.344053,-0.000752,0.05803219762881146,-0.006614797865058364,3.075723892712942
161.4035087719298,0.6090322766624101,0.5733461090707267,-15.064117,-1.507418,0.178059,0.011621,0.05815437067645105,-0.007958701389094047,-3.106930275018846
162.406015037594,0.6090322934175708,0.5733458697860861,-15.081097,-1.52695,-0.001514,0.018803,0.056793013859895485,-0.00626573201465952,-3.0062422828311703
163.40852130325814,0.6090322742189491,0.5733456284070505,-15.0991,-1.523258,-0.178383,0.015697,0.05511749777798093,-0.002460914245312029,-2.9078230441381625
164.4110275689223,0.6090322215100057,0.5733453899950749,-15.111312,-1.488158,-0.341357,0.01113,0.05290092962794813,0.0008726646259973325,-2.8128949177347486
165.41353383458645,0.6090321387813992,0.5733451578662843,-15.124987,-1.436079,-0.502051,0.016795,0.05153957281139254,0.0030019663134304153,-2.721369799400289
166.41604010025063,0.6090320263821953,0.5733449363840022,-15.141735,-1.374073,-0.661443,0.014276,0.05515240436302081,0.006370451769779351,-2.6349235891891323
167.41854636591478,0.6090318865813222,0.5733447264208932,-15.149457,-1.301865,-0.797554,-0.000509,0.04860741966804208,0.01029744258676657,-2.556121990914881
168.42105263157893,0.6090317221713067,0.573344528500556,-15.140631,-1.221194,-0.908625,-0.014158,0.04276056667386107,0.012705996954518683,-2.4843540520728737
169.4235588972431,0.6090315383881365,0.573344344193787,-15.119608,-1.14179,-0.997654,-0.02554,0.04066617157146788,0.013177235852557256,-2.4186948877858945
170.42606516290726,0.609031341165931,0.5733441719297898,-15.091737,-1.067917,-1.065801,-0.027025,0.038240163911195765,0.012548917321839381,-2.3594757789992644
171.42857142857142,0.6090311338208159,0.5733440113594986,-15.072596,-0.995175,-1.131489,-0.008026,0.033946653951289714,0.01050688209700601,-2.3055973602704443
172.43107769423557,0.6090309132111984,0.5733438619593146,-15.077564,-0.923731,-1.210786,0.010204,0.03171263250873697,0.011623892818282355,-2.2578628670277867
173.43358395989975,0.6090306800352103,0.573343723380172,-15.0808,-0.851358,-1.268817,-0.009838,0.028605946440187064,0.017034413499464662,-2.2180518020700406
174.4360902255639,0.6090304369108456,0.5733435959711366,-15.057763,-0.787218,-1.291129,-0.033073,0.030019663134302467,0.018989182261698323,-2.1861468691843204
175.43859649122805,0.6090301894231576,0.5733434785104781,-15.021129,-0.737518,-1.310164,-0.036987,0.03396410724380966,0.016004669240788028,-2.159530964610549
176.44110275689223,0.6090299408882721,0.5733433680311364,-14.984213,-0.702298,-1.332049,-0.036912,0.028850292535466275,0.012339477811599942,-2.1380810600897564
177.4436090225564,0.6090296911316562,0.5733432617405848,-14.946496,-0.67466,-1.344039,-0.037091,0.028221974004748306,0.008813912722571482,-2.121098884294804
178.44611528822054,0.6090294377098489,0.5733431582425603,-14.917095,-0.646869,-1.354987,-0.018885,0.030770154712660022,0.002827433388230771,-2.1058443052066456
179.4486215538847,0.6090291818445804,0.5733430589333258,-14.910115,-0.616814,-1.377651,0.002561,0.028379053637427792,-0.001745329251994221,-2.092929305074201
180.45112781954887,0.6090289223141208,0.5733429648600792,-14.915112,-0.586759,-1.401181,0.002724,0.025429447201557383,-0.002024581932313474,-2.082422056458052
181.45363408521303,0.6090286587694036,0.5733428756737543,-14.909483,-0.565553,-1.407598,-0.01499,0.023544491609403508,-0.0012740903539558701,-2.075807310952871
182.45614035087718,0.6090283943520219,0.5733427882327587,-14.890089,-0.557172,-1.399403,-0.019274,0.021397736629450475,-0.0038746309394273037,-2.0710948347060243
183.45864661654133,0.6090281320290354,0.573342701315362,-14.876261,-0.554028,-1.398235,-0.006048,0.026145032194875056,-0.008866272600131175,-2.066766400707785
184.4611528822055,0.6090278704041804,0.57334261527063,-14.871539,-0.540284,-1.405532,-0.005802,0.023614304779483276,-0.01097812099504436,-2.0610592438669344
185.46365914786966,0.6090276080811938,0.5733425318438916,-14.864232,-0.520656,-1.407147,-0.007462,0.023858650874762483,-0.013072516097437425,-2.0558586339348888
186.46616541353382,0.6090273448855427,0.5733424503370157,-14.865592,-0.512134,-1.413167,0.012165,0.024190263432641402,-0.016894787159305036,-2.051599698947464
187.468671679198,0.6090270790718976,0.5733423710990676,-14.889564,-0.502086,-1.434753,0.031239,0.017680185322702553,-0.017313666179783693,-2.0463458215666495
188.47117794486215,0.6090268090694624,0.5733422932573831,-14.914772,-0.482753,-1.450979,0.013309,0.014311699866353502,-0.012863076587198208,-2.041023230573181
189.4736842105263,0.6090265381943624,0.5733422178591593,-14.910464,-0.46768,-1.433221,-0.016781,0.01869247628885927,-0.011239920382843493,-2.037549920641958
190.47619047619045,0.6090262713335197,0.5733421445553307,-14.895964,-0.468949,-1.411666,-0.003002,0.020647245051092916,-0.015934856070708214,-2.033745067966026
191.47869674185463,0.6090260076142698,0.5733420710769692,-14.911988,-0.468743,-1.423946,0.034386,0.022811453323565888,-0.018779742751458883,-2.0262224370905426
192.4812030075188,0.609025741277026,0.5733419986458053,-14.952392,-0.448599,-1.451974,0.039466,0.02136283004441059,-0.014538592669112615,-2.016675800241398
193.48370927318294,0.6090254700528602,0.5733419283090364,-14.976597,-0.42283,-1.45973,0.006995,0.020909044438892067,-0.0076619954162551185,-2.0077571503104146
194.48621553884712,0.6090251963852336,0.5733418623355906,-14.969893,-0.410142,-1.447634,-0.013843,0.022008601867648494,-0.0066497044500983815,-2.0002520949004987
195.48872180451127,0.6090249251610677,0.573341798805606,-14.959326,-0.404975,-1.446883,-0.003075,0.02272418686096617,-0.010210176124166859,-1.990931827255339
196.49122807017542,0.6090246537623691,0.5733417361482857,-14.965289,-0.391589,-1.460956,0.011597,0.019303341527057285,-0.011344640137963102,-1.9788368177120657
197.49373433583958,0.6090243809674071,0.5733416743636303,-14.976966,-0.36879,-1.466059,0.008766,0.02106612407157156,-0.009040805525330597,-1.9654677527214226
198.49624060150376,0.609024107823379,0.5733416172913637,-14.984947,-0.346895,-1.460592,0.009463,0.021589722847169857,-0.00794124809657415,-1.9518888118882258
199.4987468671679,0.6090238345048181,0.5733415638842886,-15.001505,-0.326628,-1.468459,0.023133,0.025534166956677044,-0.008395033702092602,-1.937699494509023
200.50125313283206,0.6090235599645268,0.5733415137933391,-15.025873,-0.305897,-1.487651,0.019683,0.021205750411731106,-0.004974188368183752,-1.9232135060635644
201.50375939849624,0.609023281933577,0.5733414668439821,-15.031295,-0.282793,-1.493334,-0.010714,0.01900663555421825,0.0,-1.9081509306464177
202.5062656641604,0.6090230028554297,0.5733414239088827,-15.008049,-0.257506,-1.480327,-0.029266,0.02432988977280095,-0.0002268928027591155,-1.8930015425522773
203.50877192982455,0.609022726395276,0.5733413849880403,-14.985167,-0.236258,-1.473819,-0.009298,0.03050835532486088,-0.005811946409141067,-1.8776425578682645
204.5112781954887,0.609022451331386,0.5733413488597248,-14.99321,-0.217695,-1.487676,0.022615,0.025900686099595848,-0.008534660042252229,-1.8609922040707016
205.51378446115288,0.609022173649502,0.5733413162220676,-15.023263,-0.193536,-1.506675,0.029346,0.02012364627549462,-0.005078908123303361,-1.843643578946
206.51629072681703,0.6090218909061632,0.5733412879477338,-15.045138,-0.162389,-1.513037,0.01035,0.020821777976292356,0.0005934119456780795,-1.826085880830203
207.51879699248119,0.6090216085118901,0.5733412645603219,-15.042137,-0.133709,-1.50323,-0.014616,0.02513274122871835,0.0037175513067480015,-1.8097495292183654
208.52130325814534,0.6090213283865452,0.5733412451871671,-15.021601,-0.116217,-1.490917,-0.021591,0.0265639112153537,0.0023212879051526247,-1.7942856153397237
209.52380952380952,0.6090210503555954,0.5733412284320063,-15.006926,-0.099414,-1.494853,-0.005517,0.025987952562195573,-0.00165806278939451,-1.7779497873266614
210.52631578947367,0.6090207716265139,0.5733412144693723,-15.008389,-0.071566,-1.508527,0.006058,0.023317598806644243,-0.0026354471705114513,-1.760583307483712
211.52882205513782,0.6090204911521031,0.5733412045209956,-15.014697,-0.040937,-1.512302,0.005128,0.020699604928652752,-0.0011170107212763458,-1.7433047224218945
212.531328320802,0.6090202084087641,0.5733411994595407,-15.020802,-0.018345,-1.50877,0.006565,0.02270673356844623,-5.23598775596934e-05,-1.7256767224438256
213.53383458646616,0.6090199260144913,0.5733411984123432,-15.028449,-0.000144,-1.509931,0.006341,0.02214822820780804,0.0006108652381979773,-1.7080492635178262
214.5363408521303,0.6090196434456853,0.5733411999831395,-15.030293,0.026384,-1.509835,-0.004736,0.023666664657043108,0.0024260076602722336,-1.6898454794195248
215.53884711779446,0.60901936209861,0.5733412067899236,-15.018519,0.057785,-1.502202,-0.017163,0.028344147052387914,0.0030717794835100065,-1.6716763401068757
216.54135338345864,0.609019081973265,0.573341217436432,-15.000999,0.08554,-1.494701,-0.013232,0.02555162024919698,0.0009773843811169414,-1.6544323649241248
217.5438596491228,0.6090188046404469,0.5733412327953294,-14.995403,0.107446,-1.495957,0.004367,0.024486969405480445,-0.0017627825445141188,-1.6380960133122884
218.54636591478695,0.6090185255622994,0.5733412509467537,-15.008586,0.127345,-1.50457,0.017762,0.022322761133007473,-0.0018151424220740342,-1.6212887893215557
219.54887218045113,0.6090182445642899,0.5733412727633693,-15.023545,0.152483,-1.506661,0.007995,0.02068215163613281,0.001570796326795021,-1.6035558776021495
220.55137844611528,0.6090179649625437,0.5733412984197093,-15.02289,0.180108,-1.495359,-0.00798,0.02145009650701031,0.0037175513067480015,-1.5860503822842795
221.55388471177943,0.6090176862334622,0.5733413284393725,-15.011901,0.207122,-1.484831,-0.011243,0.024364796357840838,0.0027052603405912645,-1.5692426346947717
222.55639097744358,0.6090174097733086,0.5733413628223587,-15.002104,0.22927,-1.482684,-0.007158,0.024486969405480445,0.0007504915783576038,-1.5537270590702692
223.55889724310777,0.6090171338367539,0.5733413996488059,-14.995863,0.249306,-1.482449,-0.006459,0.022636920398366452,0.0003316125578789464,-1.53833346450719
224.56140350877192,0.6090168587728638,0.5733414410131092,-14.988906,0.274779,-1.472455,-0.005546,0.024033183799961923,0.0008726646259973325,-1.5218745907818634
225.56390977443607,0.6090165852797701,0.573341485868071,-14.99287,0.302324,-1.468952,0.015646,0.026092672317315223,-0.0008028514559172972,-1.5055036118376661
226.56641604010025,0.6090163107394787,0.5733415347372901,-15.016395,0.32158,-1.483001,0.023913,0.017819811662862107,0.0005585053606382839,-1.4905286519489702
227.5689223057644,0.609016034628391,0.5733415867481018,-15.023907,0.340685,-1.480649,-0.014382,0.01164134611080218,0.006108652381980217,-1.4747510151372811
228.57142857142856,0.6090157597390339,0.5733416419005061,-14.989409,0.366771,-1.448652,-0.046317,0.024661502330679874,0.00588175957922088,-1.4585366271335733
229.5739348370927,0.6090154906092632,0.5733417012417007,-14.95015,0.394331,-1.428333,-0.022899,0.0347495054072071,-0.0020420352248333717,-1.4437363747030025
230.5764411027569,0.6090152251446839,0.5733417638990209,-14.949646,0.414217,-1.440642,0.01827,0.023701571242082994,-0.0071034900556168346,-1.4302277531853689
231.57894736842104,0.609014956713045,0.5733418307451311,-14.973453,0.43196,-1.453428,0.020472,0.012042771838760874,-0.0037350045992678993,-1.4160554876729576
232.5814536340852,0.6090146861870109,0.5733418995111037,-14.983235,0.449619,-1.442496,-0.001988,0.01916371518689774,0.0001570796326795243,-1.4005915737943149
233.58395989974937,0.6090144160100427,0.5733419719422677,-14.976499,0.473408,-1.424893,-0.00812,0.02347467843932373,-0.00041887902047865744,-1.384691973374496
234.58646616541353,0.6090141498473318,0.5733420475150244,-14.969205,0.49475,-1.418624,-0.007136,0.0226543736908864,-0.0025481807079117402,-1.3706768224013495
235.58897243107768,0.6090138857790159,0.5733421265784394,-14.957204,0.514697,-1.410746,-0.017637,0.02415535684760152,-0.003211405823669411,-1.3562952046451608
236.59147869674183,0.6090136245032269,0.5733422096561117,-14.937422,0.540583,-1.396924,-0.018805,0.02549926037163715,-0.005811946409141067,-1.3409367610132166
237.593984962406,0.6090133644491684,0.5733422972716402,-14.925459,0.565279,-1.387531,-0.004277,0.027017696820872225,-0.009529497715889068,-1.3266947172373096
238.59649122807016,0.6090131063149721,0.5733423882032942,-14.930552,0.582466,-1.382237,0.013458,0.021903882112528833,-0.011833332328521573,-1.31351739411829
239.59899749373432,0.6090128488789074,0.5733424812293434,-14.950907,0.591398,-1.382031,0.022605,0.018448130193580065,-0.010908307824964547,-1.3005323539229625
240.6015037593985,0.6090125914428426,0.5733425749535243,-14.971241,0.60519,-1.379496,0.014111,0.0176976386152225,-0.008115781021773572,-1.2858364896349521
241.60401002506265,0.6090123347049098,0.5733426718192978,-14.974317,0.633665,-1.368728,-0.008399,0.021624629432209747,-0.005585053606381729,-1.269517713488683
242.6065162907268,0.6090120802359047,0.5733427723502627,-14.953902,0.663794,-1.350308,-0.029274,0.026319565120074488,-0.005846852994180862,-1.2543334188095028
243.60902255639095,0.6090118303047558,0.5733428793389458,-14.922924,0.683502,-1.328552,-0.026211,0.02476622208579954,-0.009721483933608388,-1.2404929752944807
244.61152882205513,0.609011584911463,0.5733429887710899,-14.913248,0.696365,-1.317592,0.009146,0.02237512101056731,-0.01537635071006993,-1.2276821015052086
245.6140350877193,0.6090113402163019,0.573343100472162,-14.943796,0.710345,-1.323538,0.044304,0.018675022996339326,-0.01605702911834772,-1.2139460635860406
246.61654135338344,0.609011092728614,0.5733432135694976,-14.988261,0.72495,-1.32888,0.034217,0.01619665545850738,-0.009983283321407521,-1.1988666981014904
247.6190476190476,0.6090108443682615,0.5733433282376293,-15.001949,0.741748,-1.31235,-0.008648,0.018884462506578648,-0.004241150082346268,-1.1821292698275452
248.62155388471177,0.6090106007202979,0.5733434465709527,-14.978702,0.770083,-1.281592,-0.029758,0.027646015351590184,-0.004834562028024125,-1.1645188453150441
249.62406015037593,0.609010364402717,0.5733435697911979,-14.956819,0.79704,-1.265118,-0.007186,0.028274333882308135,-0.009965830028887623,-1.1494741246161457
250.62656641604008,0.6090101303540644,0.5733436965021015,-14.963168,0.809839,-1.267165,0.016562,0.018535396656179783,-0.01185078562104147,-1.135755121110477
251.62907268170426,0.6090098959563459,0.5733438253074004,-14.982009,0.822801,-1.263547,0.015103,0.014748032179352086,-0.008639379797371838,-1.1202571209515437
252.6315789473684,0.6090096620822262,0.573343956905226,-14.991415,0.843842,-1.244073,0.003648,0.023457225146803786,-0.00568977336150156,-1.1032922413694781
253.63408521303256,0.6090094310006332,0.5733440912955784,-14.992904,0.866138,-1.223025,-7.2e-05,0.026581364507873635,-0.0054628805587422224,-1.08660701589346
254.63659147869672,0.609009204980495,0.5733442279548588,-14.99399,0.882118,-1.210078,0.001766,0.02326523892908441,-0.006178465552059809,-1.0719638780021532
255.6390977443609,0.6090089803566203,0.5733443677557319,-14.995123,0.893778,-1.20551,-0.000906,0.02045525883337354,-0.006161012259539911,-1.0575476678201894
256.64160401002505,0.6090087578271407,0.5733445101745989,-14.99063,0.911331,-1.193344,-0.008363,0.021240656996770992,-0.005445427266222325,-1.040914627688806
257.64411027568923,0.6090085368684575,0.5733446555605256,-14.982938,0.936147,-1.17267,-0.003586,0.02588323280707591,-0.006667157742618279,-1.0232163258484672
258.64661654135335,0.6090083194004327,0.5733448042625778,-14.988199,0.959599,-1.160555,0.012141,0.0234223185617639,-0.008045967851693758,-1.0073342834409245
259.64912280701753,0.6090081042013358,0.5733449568043545,-15.000723,0.970648,-1.152278,0.007915,0.01741838593490341,-0.005951572749300693,-0.9923417655399531
260.6516290726817,0.6090078924928976,0.5733451107423945,-15.002519,0.977249,-1.131802,-0.004457,0.020193459445574394,-0.003839724354387508,-0.9758136546032
261.65413533834584,0.6090076834024531,0.5733452653785662,-14.999836,0.99066,-1.114396,-0.000114,0.0289026524130261,-0.005515240436301916,-0.9592855436664458
262.65664160401,0.6090074774536014,0.5733454224581989,-15.004773,1.015198,-1.107204,0.006779,0.024137903555081577,-0.006475171524898959,-0.942617352603927
263.65914786967414,0.6090072722028813,0.5733455837266217,-15.008554,1.040452,-1.094778,-0.001532,0.02012364627549462,-0.004590215932745112,-0.925634897556294
264.6616541353383,0.609007070093754,0.5733457504055653,-15.001483,1.058088,-1.069082,-0.010131,0.01966986066997609,-0.0031415926535898198,-0.9084963926202408
265.6641604010025,0.609006871824351,0.5733459183062394,-14.996871,1.066318,-1.048235,0.002534,0.02242748088812713,-0.004729842272904516,-0.8922468536853981
266.66666666666663,0.6090066773946723,0.5733460867305122,-15.00744,1.072022,-1.045732,0.014645,0.020647245051092923,-0.005585053606381729,-0.8763824041967151
267.6691729323308,0.6090064831395265,0.5733462569001142,-15.017333,1.085514,-1.040486,0.001927,0.01747074581246324,-0.003385938748868833,-0.8585972722260912
268.671679197995,0.6090062895825125,0.5733464295131773,-15.00834,1.110333,-1.013197,-0.016893,0.02256710722828668,-0.002303834612632505,-0.8388052036018901
269.6741854636591,0.6090061023086838,0.5733466057914317,-14.992429,1.135916,-0.978697,-0.010543,0.02857103985514717,-0.004660029102824703,-0.8203921021663974
270.6766917293233,0.6090059221907049,0.5733467864330093,-14.993543,1.15187,-0.961065,0.01261,0.02267182698340633,-0.0070162235930171235,-0.8045095361600798
271.6791979949875,0.6090057460869834,0.5733469696925808,-15.012502,1.159344,-0.95629,0.020636,0.014556045961632708,-0.0052883476335428,-0.7886269876070532
272.6817042606516,0.609005569808729,0.5733471529521522,-15.027456,1.164724,-0.944793,0.006381,0.01811651763570114,-0.00146607657167519,-0.7707901938905686
273.6842105263158,0.6090053956248695,0.5733473370843882,-15.026309,1.176153,-0.922074,-0.006937,0.02542944720155738,3.4906585040017646e-05,-0.7518359356672024
274.68671679197996,0.6090052251062017,0.5733475231364865,-15.017003,1.195521,-0.900253,-0.009526,0.027279496208671372,-0.001186823891356159,-0.7336316454234189
275.6892230576441,0.6090050598235215,0.5733477123301775,-15.008083,1.217716,-0.880482,-0.008198,0.021886428820008894,-0.0021467549799529806,-0.7160212209109188
276.69172932330827,0.6090048982060328,0.5733479060617245,-15.002882,1.235903,-0.857356,-0.002648,0.02124065699677099,-0.0019547687622336607,-0.6985157255930476
277.6942355889724,0.6090047404282685,0.5733481022367324,-15.007839,1.246303,-0.83974,0.01048,0.0205599785884932,-0.002373647782712318,-0.6819876146562945
278.69674185463657,0.6090045861411625,0.5733482999825367,-15.023202,1.250905,-0.828727,0.014665,0.01827359726838063,-0.0008028514559172972,-0.6653716263917037
279.69924812030075,0.6090044330757872,0.573348497204742,-15.032792,1.256014,-0.811624,0.00166,0.020018926520374958,0.0017976891295541364,-0.6472381616089653
280.7017543859649,0.609004284024669,0.5733486952996122,-15.027813,1.26724,-0.783106,-0.00909,0.02614503219487506,0.002652900463031349,-0.6284229188605209
281.70426065162906,0.6090041398604727,0.573348896536075,-15.02094,1.28662,-0.760526,-0.00209,0.02892010570554604,0.0008901179185172303,-0.6109877428582129
282.70676691729324,0.6090039993614681,0.5733491007395974,-15.02192,1.304428,-0.751003,0.001756,0.01893682238413847,0.0010646508437166524,-0.5948777429970672
283.70927318295736,0.609003862004056,0.573349307212048,-15.017941,1.314216,-0.736389,-0.011034,0.01424188669627373,0.002932153143350602,-0.5772673359378591
284.71177944862154,0.6090037277882364,0.5733495149062289,-15.001942,1.318882,-0.706705,-0.018613,0.02157226955464991,0.002478367537831927,-0.558732253440944
285.7142857142857,0.6090035996810694,0.573349722425877,-14.991171,1.328052,-0.674689,-0.001463,0.02787290815434944,-0.0006283185307178751,-0.5410344926526742
286.71679197994985,0.6090034761117583,0.5733499320399201,-15.003901,1.340363,-0.659577,0.023492,0.023300145514124303,-0.0019547687622336607,-0.5248904065112375
287.719298245614,0.6090033553349741,0.5733501435738255,-15.029767,1.347887,-0.659215,0.021039,0.016179202165987436,0.0008203047484374171,-0.5085716303649674
288.72180451127815,0.609003234209124,0.5733503575511918,-15.035313,1.352089,-0.648762,-0.013093,0.01813397092822108,0.0049043751981041606,-0.48970418481859584
289.72431077694233,0.609003115177669,0.5733505713540252,-15.0045,1.363456,-0.613628,-0.042575,0.02665117767795341,0.004991641660703872,-0.469371483005298
290.7268170426065,0.6090030026039323,0.5733507869021879,-14.963316,1.38124,-0.56951,-0.032503,0.02944370448114434,3.4906585040017646e-05,-0.450574374227782
291.72932330827064,0.609002900327638,0.5733510054174101,-14.950592,1.393754,-0.542767,0.006239,0.023317598806644243,-0.0048171087355042275,-0.4350231066200758
292.7318295739348,0.6090028027637329,0.5733512258524947,-14.972772,1.395515,-0.539672,0.028876,0.01684242728174528,-0.004625122517784908,-0.42020527872393687
293.734335839599,0.609002704501696,0.5733514468111779,-14.998657,1.394337,-0.537122,0.015818,0.015515977050229588,-0.0014311699866353944,-0.40318873739601296
294.7368421052631,0.6090026057160604,0.5733516674207954,-15.001756,1.402226,-0.517397,-0.00831,0.02303834612632515,0.0006283185307180972,-0.3840773646333828
295.7393483709273,0.609002510595616,0.5733518890776104,-14.984801,1.414999,-0.489547,-0.021593,0.025499260371637158,0.00036651914291896404,-0.36473855801592525
296.7418546365915,0.6090024196639621,0.5733521133524193,-14.960125,1.425462,-0.460915,-0.024405,0.023143065881444814,-0.0014486232791552922,-0.346133714708808
297.7443609022556,0.6090023369353555,0.5733523393725575,-14.938181,1.43078,-0.430502,-0.016459,0.02218313479284792,-0.00460766922526501,-0.3281568408665596
298.7468671679198,0.6090022608390001,0.5733525660908273,-14.931205,1.436657,-0.403913,0.003554,0.023003439541285264,-0.008674286382411855,-0.3112271296689209
299.74937343358397,0.609002188756902,0.5733527933326958,-14.946429,1.443457,-0.391236,0.022507,0.0188670092140587,-0.010018189906447317,-0.2952572099335405
300.7518796992481,0.6090021177220014,0.573353021621762,-14.970001,1.447227,-0.386858,0.018741,0.015166911199830721,-0.007330382858376172,-0.2782577204724082
301.7543859649123,0.6090020473852326,0.5733532507834929,-14.975613,1.448548,-0.369337,-0.00866,0.018535396656179783,-0.004293509959905961,-0.25891943745372653
302.7568922305764,0.6090019814117869,0.5733534797706907,-14.955273,1.455263,-0.331943,-0.026957,0.028326693759867967,-0.0050963614158234805,-0.23883068030997845
303.7593984962406,0.6090019215469935,0.5733537106777508,-14.93127,1.471428,-0.297539,-0.016613,0.028605946440187054,-0.008796459430051362,-0.22090655031772521
304.76190476190476,0.6090018684889843,0.5733539440282717,-14.92529,1.483655,-0.280855,0.003664,0.021415189921970425,-0.011693705988361947,-0.2047097377795846
305.7644110275689,0.6090018196197652,0.5733541796477207,-14.935552,1.48951,-0.268152,0.012517,0.01827359726838063,-0.012130038301360502,-0.18736083340220347
306.76691729323306,0.6090017714486778,0.5733544159653015,-14.94957,1.49756,-0.248909,0.013165,0.02579596634447619,-0.01204277183876079,-0.1693317742153202
307.76942355889724,0.6090017264191832,0.5733546533300797,-14.961593,1.510741,-0.227707,0.009929,0.02530727415391778,-0.011466813185602609,-0.1509357246466199
308.77192982456137,0.6090016852294128,0.573354893138319,-14.966424,1.524327,-0.210773,-0.001182,0.022584560520806624,-0.010070549784007232,-0.1325407397287626
309.77443609022555,0.6090016480538998,0.5733551353900191,-14.958019,1.5351,-0.189375,-0.014428,0.023806290997202658,-0.009459684545809255,-0.11283546632826294
310.77694235588973,0.6090016155907756,0.5733553793870486,-14.942326,1.542847,-0.156664,-0.014377,0.027523842303950576,-0.010751228192285023,-0.09290384117707287
311.77944862155385,0.6090015888872381,0.5733556239076768,-14.935168,1.548806,-0.123014,0.000511,0.028763026072866547,-0.01303760951239763,-0.07346062896376118
312.78195488721803,0.6090015696886163,0.5733558691264367,-14.945598,1.556391,-0.099458,0.016948,0.025848326222036026,-0.014643312424232446,-0.055606277235002353
313.7844611528822,0.6090015536315873,0.57335611574146,-14.964819,1.567912,-0.084891,0.017082,0.023055799418845096,-0.014329153158873398,-0.0377865353853102
314.78696741854634,0.6090015408906837,0.5733563635782137,-14.976321,1.580914,-0.069503,0.004633,0.02495820830351891,-0.012601277199399075,-0.019041594499136033
315.7894736842105,0.6090015300696423,0.573356615080159,-14.974117,1.593332,-0.046459,-0.007207,0.025464353786597272,-0.011257373675363391,0.0010471975511965976
316.79197994987464,0.6090015236119242,0.5733568674547689,-14.964498,1.598957,-0.016844,-0.010328,0.024661502330679878,-0.011047934165123952,0.021467549799530253
317.7944862155388,0.6090015239609899,0.5733571210511091,-14.958439,1.597101,0.018647,-0.000157,0.031031954100459176,-0.012793263417118395,0.042341687653382434
318.796992481203,0.6090015314659057,0.5733573744729166,-14.967453,1.597656,0.049295,0.018233,0.032724923474893676,-0.014660765716752344,0.06169738905799957
319.79949874686713,0.6090015436832105,0.5733576275456581,-14.991165,1.607221,0.067334,0.025569,0.02898991887562581,-0.0143116998663535,0.08051203839449843
320.8020050125313,0.6090015590421078,0.5733578827127946,-15.008071,1.62067,0.083896,0.005585,0.026232298657474774,-0.01155407964820232,0.10067059125503294
321.8045112781955,0.6090015791133944,0.5733581392761947,-14.998731,1.628821,0.11879,-0.020216,0.031101767270538958,-0.010192722831646739,0.1222254075171629
322.8070175438596,0.6090016045952014,0.573358397584924,-14.976484,1.632848,0.165264,-0.017003,0.03478441199224698,-0.01204277183876079,0.14322171841865464
323.8095238095238,0.6090016395017863,0.5733586567663179,-14.97282,1.635749,0.195805,0.012406,0.030735248127620136,-0.014521139376592718,0.1611637031291564
324.812030075188,0.6090016785971616,0.573358915598646,-14.997595,1.636388,0.202167,0.031784,0.02145009650701031,-0.013683381335635403,0.17941984710501707
325.8145363408521,0.6090017176925369,0.5733591740819083,-15.024353,1.635795,0.209829,0.015393,0.026232298657474767,-0.010786134777324818,0.20003218557107014
326.8170426065163,0.6090017588823072,0.5733594318670387,-15.023436,1.637139,0.248425,-0.015973,0.036250488563922226,-0.009232791743049917,0.222826185602116
327.8195488721804,0.6090018091477897,0.573359690350301,-15.000475,1.642448,0.308387,-0.022016,0.038292523788755584,-0.011117747335203765,0.24420648639233916
328.8220551378446,0.609001871630577,0.5733599511024912,-14.990047,1.649813,0.348353,0.005469,0.03218387140677544,-0.013770647798235114,0.2624102530373474
329.82456140350877,0.6090019409201481,0.5733602127273462,-15.009885,1.657116,0.352965,0.030061,0.01996656664281513,-0.013369222070276576,0.27995079456659794
330.8270676691729,0.6090020089879891,0.5733604750503327,-15.039308,1.658591,0.349736,0.022385,0.019268434942017403,-0.009512044423368948,0.3001791605972121
331.8295739348371,0.6090020751359677,0.5733607373733193,-15.046836,1.651582,0.37627,-0.007649,0.03256784384221419,-0.006422811647339044,0.3240901888028271
332.83208020050125,0.6090021475671317,0.5733609981255096,-15.02823,1.642702,0.434978,-0.024357,0.040858157789187256,-0.007138396640656852,0.34765215115804304
333.8345864661654,0.6090022323901333,0.5733612566087717,-15.008955,1.637647,0.491768,-0.00854,0.03932226804743224,-0.010437068926925974,0.3688404133706692
334.83709273182956,0.6090023285577751,0.5733615142193694,-15.015182,1.640914,0.518924,0.020347,0.033946653951289714,-0.012374384396639737,0.3877772357548076
335.83959899749374,0.6090024299614046,0.5733617734007633,-15.042663,1.649264,0.522465,0.028259,0.025237460983838,-0.010419615634406076,0.40713295461271726
336.84210526315786,0.6090025315395671,0.5733620341529535,-15.062445,1.651764,0.534341,0.008348,0.027349309378751144,-0.006422811647339044,0.42938588512235243
337.84461152882204,0.6090026343394601,0.5733622952542096,-15.054963,1.641801,0.573809,-0.019451,0.03867649622419434,-0.004188790204786352,0.453663432470886
338.8471177944862,0.6090027453424005,0.5733625547846694,-15.030632,1.625712,0.630411,-0.02285,0.041573742782504926,-0.005742133239061253,0.47726030141114195
339.84962406015035,0.6090028683881128,0.5733628109990035,-15.016541,1.616164,0.675444,-0.00261,0.035046211380046134,-0.008970992355250784,0.49808206193414184
340.8521303258145,0.6090029998114055,0.5733630663406731,-15.023951,1.615365,0.696626,0.014186,0.031014500807939244,-0.009878563566287912,0.5172282889219345
341.85463659147865,0.6090031345508237,0.573363320984211,-15.038219,1.616081,0.711607,0.010232,0.03061307507998054,-0.008150687606813367,0.5375264681226285
342.85714285714283,0.6090032710355712,0.5733635770240122,-15.041183,1.610767,0.737464,-0.003979,0.03220132469929539,-0.006597344572538466,0.5592383989240229
343.859649122807,0.6090034122327077,0.5733638316675501,-15.031878,1.599053,0.778419,-0.011631,0.03642502148912166,-0.006579891280018568,0.5818229419915372
344.86215538847114,0.6090035611092928,0.5733640835185612,-15.020683,1.584691,0.824814,-0.008855,0.035918876006043286,-0.007906341511534354,0.6037268415573586
345.8646616541353,0.6090037201087877,0.5733643331006443,-15.016215,1.571339,0.862258,-0.001151,0.03405137370640937,-0.008918632477690869,0.6245835086653982
346.8671679197995,0.6090038864386654,0.5733645807628651,-15.020349,1.561933,0.886974,0.00626,0.03195697860401617,-0.009529497715889068,0.6446024875456507
347.8696741854636,0.6090040573063992,0.5733648273778884,-15.029872,1.558192,0.906407,0.008963,0.03467969223712734,-0.00961676417848878,0.663644029684909
348.8721804511278,0.6090042299194622,0.573365073469313,-15.036246,1.550693,0.934882,0.003239,0.03625048856392223,-0.008447393579652518,0.6841865200742971
349.874686716792,0.6090044084666447,0.5733653174663423,-15.034286,1.533208,0.974445,-0.004674,0.03527310418280539,-0.007260569688296359,0.7047814227011228
350.8771929824561,0.6090045953914076,0.573365558496312,-15.029451,1.512298,1.014306,-0.003644,0.03707079331235956,-0.0074700091985355765,0.7247654426364578
351.8796992481203,0.6090047899956191,0.5733657958610904,-15.029168,1.496969,1.047848,0.002774,0.038798669271833945,-0.008255407361933198,0.7441559808129449
352.88220551378447,0.6090049907084832,0.573366032004138,-15.032509,1.488309,1.07381,0.003148,0.038344883666315416,-0.0084124869946125,0.7629532466700939
353.8847117794486,0.6090051952610714,0.5733662670999884,-15.033586,1.479089,1.097646,-0.001008,0.03839724354387525,-0.008360127117052807,0.7814362485421287
354.8872180451128,0.6090054040024501,0.5733665006250424,-15.032875,1.463983,1.124441,4.1e-05,0.04152138290494511,-0.008604473212332042,0.8005476213047591
355.8897243107769,0.6090056176307505,0.5733667311830365,-15.03598,1.446385,1.156053,0.006146,0.0419228086329038,-0.009285151620609833,0.8194495371038577
356.8922305764411,0.6090058377167691,0.5733669601702344,-15.044007,1.429854,1.189406,0.008619,0.039863320115550493,-0.008709192967451651,0.8379326087890627
357.89473684210526,0.609006064435039,0.5733671847941091,-15.050794,1.413785,1.218805,0.004542,0.03974114706791089,-0.006981317007977328,0.856101433942446
358.8972431077694,0.6090062972619612,0.5733674067999899,-15.052974,1.396161,1.244091,0.00034,0.041381756564785564,-0.005201081170943089,0.8755094777713305
359.89974937343356,0.6090065337540749,0.5733676265369428,-15.0515,1.379137,1.265475,-0.002017,0.03735004599267867,-0.004956735075663854,0.8957553669076348
360.90225563909775,0.6090067746095116,0.5733678426087041,-15.05036,1.361698,1.292303,-0.00054,0.04159119607502487,-0.005899212871740778,0.9166468707875441
361.90476190476187,0.6090070203518703,0.5733680558879387,-15.050253,1.342289,1.327331,-0.000626,0.04455825580341523,-0.005864306286700982,0.9376955590198883
362.90726817042605,0.6090072729010131,0.5733682674218441,-15.048195,1.31943,1.363645,-0.003899,0.04035201230610889,-0.004293509959905961,0.958622074204593
363.90977443609023,0.6090075327805388,0.5733684749414921,-15.043022,1.293214,1.394766,-0.006035,0.04283037984394084,-0.0032637657012293264,0.9799150561723385
364.91228070175436,0.6090077984196508,0.5733686779232842,-15.035267,1.265923,1.42052,-0.007775,0.04340633849709898,-0.003595378259108273,1.002185474881079
365.91478696741854,0.6090080684220861,0.5733688760181542,-15.025826,1.236274,1.447189,-0.007824,0.046774823953448036,-0.005602506898901627,1.0240195961834055
366.91729323308266,0.6090083422642457,0.5733690695751683,-15.018149,1.207463,1.475383,-0.005,0.045884706034930924,-0.00794124809657415,1.0448937165839653
367.91979949874684,0.6090086223895907,0.5733692577216616,-15.015398,1.177735,1.507347,-0.000565,0.0459545192050107,-0.009424777960769237,1.0643889919688643
368.922305764411,0.6090089096707856,0.5733694415048319,-15.015086,1.149745,1.539434,-0.002003,0.04902629868852072,-0.009843656981247895,1.0836399736183617
369.92481203007515,0.6090092030606329,0.5733696219718766,-15.011601,1.122451,1.569811,-0.006141,0.0460766922526503,-0.010053096491487334,1.1022277825119788
370.9273182957393,0.609009501511935,0.5733697966793347,-15.006112,1.093765,1.597617,-0.002483,0.0463559449329694,-0.010786134777324818,1.1203617708934923
371.9298245614035,0.6090098043265602,0.5733699673725355,-15.006808,1.066302,1.620283,0.004918,0.049933869899557774,-0.01027998929424645,1.1377453026032338
372.93233082706763,0.6090101108063768,0.5733701326552156,-15.015301,1.042266,1.638247,0.010196,0.049480084294039245,-0.009459684545809255,1.154168746144745
373.9348370927318,0.6090104199041874,0.5733702949708361,-15.025431,1.021698,1.652386,0.007105,0.04661774432076854,-0.008726646259971549,1.1702956407930503
374.937343358396,0.609010731270926,0.5733704543193968,-15.029001,0.997865,1.671093,-0.000691,0.04792674125976429,-0.007976154681613945,1.1867192239609021
375.9398496240601,0.6090110480481852,0.5733706098282332,-15.024426,0.96732,1.698611,-0.005973,0.04982915014443811,-0.00822050077689318,1.2048532297957082
376.9423558897243,0.6090113702359651,0.5733707606246805,-15.018163,0.93194,1.730394,-0.003839,0.049183378321200205,-0.008377580409572705,1.2235980136022495
377.9448621553885,0.6090116980087986,0.5733709060106071,-15.015892,0.902011,1.752752,0.000673,0.049794243559398224,-0.00813323431429347,1.2426569217675651
