Time [s],Longitude [rad],Latitude [rad],Altitude [m],V North [m/s],V East [m/s],V Down [m/s],Roll [rad],Pitch [rad],Yaw [rad]
0.0,0.573372684675648,0.6090204138340172,-15.019743,-0.002938,2.049684,-0.012921,0.05574581630869888,-0.0019896753472735357,1.7378417720499815
1.0025062656641603,0.5733726813595224,0.6090207976319196,-15.015198,-0.053999,2.047484,0.003562,0.055274577410660414,0.0003141592653589793,1.761909827528398
2.0050125313283207,0.5733726696658165,0.6090211814298222,-15.024001,-0.108849,2.043323,0.01102,0.05300564938306779,0.0005235987755982988,1.7847911812885064
3.007518796992481,0.5733726481982666,0.6090215633078625,-15.032573,-0.163959,2.038374,0.005619,0.056182148621697466,6.981317007977319e-05,1.8070615999972466
4.010025062656641,0.5733726174804717,0.6090219441387053,-15.032977,-0.214411,2.037046,-0.003496,0.06063273821428301,-0.001239183768915974,1.828598840793809
5.012531328320802,0.5733725801304258,0.6090223265403444,-15.028145,-0.251042,2.038733,-0.00352,0.0576831317784126,-0.0019198621771937625,1.8483909268713024
6.015037593984962,0.5733725371953261,0.6090227091165165,-15.027547,-0.284658,2.037015,0.001858,0.05555383009097951,-0.0028099800957108708,1.8682177624542027
7.017543859649122,0.5733724897223705,0.6090230916926885,-15.030632,-0.321367,2.028391,0.001627,0.053651421206305686,-0.003560471674068432,1.8872942460850857
8.020050125313283,0.5733724363152953,0.6090234714763337,-15.030818,-0.36494,2.017234,-0.001446,0.05450663253978292,-0.002408554367752175,1.9062660797740192
9.022556390977442,0.5733723750542387,0.609023848816518,-15.024626,-0.414544,2.012218,-0.010017,0.056635934227215995,-0.0024609142453120045,1.9254297775076246
10.025062656641603,0.5733723055901344,0.6090242256331035,-15.009099,-0.463243,2.01323,-0.019004,0.05614724203665758,-0.0023038346126325153,1.9442968216282681
11.027568922305765,0.5733722296683119,0.6090246031478207,-14.989559,-0.501831,2.011989,-0.016915,0.05522221753310059,-0.0005759586531581288,1.9631462728300517
12.030075187969924,0.5733721483359688,0.6090249799644063,-14.978917,-0.532698,2.002142,-0.003822,0.05506513790042109,0.001064650843716541,1.981716628431149
13.032581453634084,0.5733720619421708,0.6090253527667344,-14.985454,-0.563661,1.981932,0.014138,0.056007615696498037,0.0026354471705114374,2.001089783128286
14.035087719298245,0.5733719703123851,0.6090257220784042,-15.005229,-0.602523,1.956397,0.021763,0.058398716771730266,0.002129301687433082,2.0212832076672753
15.037593984962406,0.5733718723994141,0.6090260854559544,-15.021024,-0.647451,1.934946,0.007985,0.06351253148007364,0.0009773843811168245,2.0421225785624277
16.040100250626566,0.5733717668069943,0.6090264456919121,-15.020021,-0.699177,1.925494,-0.009353,0.06428047635095116,0.0008726646259971648,2.061914385387241
17.042606516290725,0.5733716526624613,0.6090268061024027,-15.002364,-0.750948,1.926503,-0.023483,0.06141813637768046,0.0015882496193148398,2.0804848806146783
18.045112781954884,0.5733715285695514,0.609027166861959,-14.97579,-0.796979,1.92763,-0.026978,0.05576326960121883,0.002775073510670984,2.098077729661611
19.047619047619047,0.5733713988915881,0.6090275293668447,-14.954807,-0.828119,1.917572,-0.012108,0.05276130328778859,0.005131268000863329,2.1147107523397017
20.050125313283207,0.5733712655484332,0.6090278883810717,-14.960281,-0.847852,1.892868,0.020713,0.049183378321200205,0.006894050545377602,2.131640480990632
21.052631578947366,0.5733711295872844,0.6090282409375807,-14.994276,-0.86883,1.857894,0.039631,0.05246459731494954,0.005427973973702365,2.149373008737602
22.05513784461153,0.5733709913572077,0.609028585465575,-15.034383,-0.899624,1.822297,0.033251,0.05881759579220891,0.002076941809873252,2.1689381845590434
23.05764411027569,0.5733708480656761,0.6090289233613182,-15.055043,-0.945267,1.797863,0.005192,0.0685739863108572,-0.0017976891295541594,2.1890268020764507
24.06015037593985,0.573370696396564,0.6090292584645346,-15.041753,-0.999371,1.790114,-0.029361,0.07213445798492564,-0.0027925268031909274,2.2091678841911726
25.062656641604008,0.5733705344300094,0.6090295949640144,-14.9995,-1.052684,1.792164,-0.048929,0.0642979296434711,-0.00020943951023931956,2.2291694272321974
26.065162907268167,0.5733703646094733,0.60902993181256,-14.951029,-1.091258,1.785878,-0.042142,0.05492551156026155,0.0041887902047863905,2.248804381317134
27.06766917293233,0.5733701888548176,0.6090302660431117,-14.925753,-1.118285,1.760614,-0.005287,0.050213122579876854,0.009773843811168246,2.2687535819338915
28.07017543859649,0.5733700099585692,0.6090305939904782,-14.943893,-1.140967,1.715098,0.036647,0.051260320131073456,0.011397000015522973,2.2882487351457432
29.07268170426065,0.5733698279207283,0.6090309102441387,-14.993782,-1.171914,1.659058,0.05306,0.056950093492574974,0.008499753457212385,2.3076567789746276
30.075187969924812,0.5733696411704983,0.6090312168984883,-15.041019,-1.213646,1.613936,0.032884,0.0658338193852261,0.002949606435870417,2.3261050313412555
31.07769423558897,0.5733694465662867,0.6090315148261916,-15.052815,-1.257523,1.594603,-0.008953,0.06435028952103093,-0.001117010721276371,2.3435410101950187
32.08020050125313,0.5733692444571593,0.6090318115321645,-15.02504,-1.293865,1.593663,-0.039831,0.05904448859496817,-0.0009075712110370514,2.3598073391972654
33.08270676691729,0.5733690371120441,0.6090321098089336,-14.982488,-1.327321,1.591723,-0.03737,0.048397980157802764,0.0027052603405912107,2.377260631717209
34.08521303258145,0.5733688248800072,0.609032407562104,-14.956931,-1.356552,1.571175,-0.010738,0.045081854579013536,0.006789330790257942,2.394836167097962
35.08771929824561,0.5733686077610483,0.6090327019991488,-14.962967,-1.380682,1.531835,0.018059,0.04583234615737109,0.008883725892651137,2.4122545704861578
36.09022556390977,0.5733683880240953,0.6090329870114157,-14.993314,-1.401999,1.485072,0.035378,0.04775220833456486,0.007138396640656807,2.429864977545366
37.092731829573935,0.5733681661927474,0.6090332624243716,-15.029005,-1.42292,1.446035,0.03103,0.04686209041604775,0.00312413936106985,2.446812002409183
38.095238095238095,0.5733679403471422,0.6090335291106813,-15.051009,-1.447522,1.416457,0.011065,0.052324970974790004,-0.001361356816555577,2.464631744258875
39.097744360902254,0.5733677104872797,0.6090337912591349,-15.050418,-1.477835,1.393347,-0.009485,0.05167919915155209,-0.003298672286269283,2.4832544422842395
40.100250626566414,0.5733674745187649,0.6090340506150618,-15.03529,-1.510823,1.37093,-0.016635,0.048328166987722986,-0.003420845333908886,2.5025229470394272
41.10275689223057,0.5733672329651964,0.6090343043859351,-15.02183,-1.54227,1.33964,-0.008287,0.04813618077000361,-0.0027925268031909274,2.521686522599985
42.10526315789473,0.5733669870483048,0.6090345527462876,-15.01654,-1.568765,1.301644,-0.003721,0.04639085151800928,-0.0019896753472735357,2.540623449703878
43.10776942355889,0.5733667378152876,0.6090347948234549,-15.015203,-1.587175,1.264339,-0.001548,0.04752531553180559,-0.0004014257279586958,2.5587923446704317
44.11027568922306,0.5733664861388095,0.6090350283485088,-15.013675,-1.605801,1.228565,-0.004292,0.048328166987722986,0.0006457718232379018,2.5769961113154403
45.11278195488722,0.5733662321934033,0.6090352550667786,-15.010262,-1.627517,1.196826,-0.00308,0.05298819609054785,0.0013264502315156904,2.595374323619185
46.11528822055138,0.5733659745828058,0.6090354751527973,-15.010374,-1.650712,1.166027,0.003762,0.048956485518440944,0.001064650843716541,2.6132289546006247
47.11779448621554,0.5733657129579508,0.6090356896537624,-15.016664,-1.67274,1.130785,0.006415,0.046268678470369674,-0.00015707963267948965,2.6316074287037576
48.1203007518797,0.5733654480169704,0.6090358975224763,-15.024907,-1.687801,1.090026,0.006696,0.04820599394008338,-0.002670353755551324,2.651172604525199
49.122807017543856,0.5733651801089302,0.6090360971881428,-15.032909,-1.705264,1.043452,0.008018,0.05541420375081996,-0.0031764992386296795,2.671331139932441
50.125313283208015,0.5733649111536925,0.6090362893488933,-15.041831,-1.727972,0.999618,0.006099,0.05201081170943102,-0.0031066860685499066,2.69021560243902
51.127819548872175,0.5733646380096645,0.6090364740047282,-15.040282,-1.749102,0.96415,-0.011265,0.04843288674284264,-0.005253441048502932,2.707494204954131
52.130325814536334,0.5733643612004452,0.6090366504575155,-15.021237,-1.767393,0.9353,-0.023228,0.05461135229490257,-0.005131268000863329,2.7252966331376434
53.1328320802005,0.5733640810751003,0.6090368223724469,-14.999831,-1.781828,0.905511,-0.016956,0.056775560567375545,-0.0029845130209103037,2.7435179752482193
54.13533834586466,0.573363799204426,0.6090369899240551,-14.992552,-1.791947,0.867239,0.001817,0.049951323192077714,0.0,2.762018430412774
55.13784461152882,0.5733635155884226,0.6090371504943463,-15.004387,-1.798716,0.823626,0.018103,0.046181412007769956,0.0004014257279586958,2.780588646387531
56.14035087719298,0.5733632312742875,0.6090373019889254,-15.022467,-1.809673,0.780066,0.013637,0.05009094953223726,-0.0018849555921538759,2.8003980461312037
57.14285714285714,0.5733629459129547,0.6090374452804569,-15.033204,-1.824287,0.739934,0.004431,0.05213298475707063,-0.0043982297150257105,2.820155504876338
58.1453634085213,0.573362658282694,0.6090375812416056,-15.035535,-1.83808,0.695709,-0.000944,0.05077162794051504,-0.006806784082777886,2.8388128127807692
59.14786967418546,0.5733623669872419,0.6090377083015752,-15.033249,-1.848356,0.648423,-0.005205,0.0575260521457331,-0.008342673824532895,2.8557427857777946
60.150375939849624,0.5733620744700593,0.6090378268094314,-15.026587,-1.857433,0.607496,-0.009238,0.05883504908472885,-0.007539822368615503,2.8715028471239155
61.152882205513784,0.5733617812547448,0.6090379372887731,-15.013186,-1.864398,0.57817,-0.016926,0.05420992656694387,-0.005585053606381855,2.886757164412686
62.15538847117794,0.5733614868177,0.6090380432302587,-14.994276,-1.868937,0.554842,-0.02079,0.05471607205002223,-0.0032812189937493396,2.902046109033816
63.1578947368421,0.5733611920315895,0.6090381460301516,-14.976721,-1.870319,0.534202,-0.012682,0.04874704600820163,-0.0008726646259971648,2.918155567842894
64.16040100250626,0.5733608961982812,0.6090382451648532,-14.975666,-1.872225,0.502551,0.010189,0.049340457953879695,0.0010297442586766543,2.93639422361965
65.16290726817043,0.5733606014121706,0.6090383359219742,-14.996635,-1.877719,0.448831,0.026468,0.05555383009097951,-0.0005759586531581288,2.95632612802352
66.16541353383458,0.5733603062769941,0.6090384174288503,-15.022557,-1.882406,0.383954,0.020609,0.060109139438684706,-0.004921828490624009,2.9751405504672164
67.16791979949875,0.5733600104436858,0.6090384858457569,-15.029364,-1.879754,0.335029,-0.006197,0.06335545184739416,-0.007923794804054257,2.991145359334345
68.1704260651629,0.5733597151339764,0.6090385444888199,-15.012672,-1.880638,0.308527,-0.025192,0.06080727113948244,-0.006789330790257942,3.0058758335014213
69.17293233082707,0.5733594189516024,0.6090385996412242,-14.98119,-1.886591,0.296156,-0.035001,0.055187310948060696,-0.004310963252425994,3.0212172427198665
70.17543859649122,0.5733591225946953,0.6090386556662932,-14.949384,-1.889378,0.283915,-0.024068,0.051173053668473745,0.0004014257279586958,3.0371871450019547
71.17794486215539,0.5733588246669921,0.6090387095969672,-14.942698,-1.887019,0.250326,0.010227,0.047036623341247176,0.004031710572106902,3.0562111814888158
72.18045112781954,0.573358528484618,0.6090387537537971,-14.967609,-1.88462,0.183871,0.033997,0.05136503988619312,0.0029670597283903604,3.077050412757628
73.1829573934837,0.5733582319531779,0.609038784471592,-15.00013,-1.878778,0.117866,0.02356,0.060877084309562214,-0.001361356816555577,3.0955684433877506
74.18546365914787,0.5733579369925345,0.6090388022739504,-15.008973,-1.871124,0.077728,-0.007061,0.05564109655357923,-0.004310963252425994,3.110543124023766
75.18796992481202,0.5733576427300227,0.6090388134440575,-14.991271,-1.866345,0.061564,-0.02383,0.05181882549171164,-0.0034557519189487725,3.124401143004356
76.19047619047619,0.5733573496892411,0.6090388225197696,-14.970054,-1.866639,0.040941,-0.015388,0.049410271123959466,0.00017453292519943296,3.1396378848275597
77.19298245614034,0.573357056124861,0.6090388296756196,-14.961547,-1.863569,0.006265,-0.003988,0.050021136362157485,0.0021991148575128553,3.1563755923541854
78.19548872180451,0.5733567636076783,0.6090388314209488,-14.961346,-1.853643,-0.032226,0.001993,0.05071926806295522,0.0032288591161895096,3.172991057020001
79.19799498746866,0.573356472486759,0.6090388233924343,-14.96634,-1.844439,-0.068219,0.005472,0.05049237526019595,0.004276056667386108,3.189345001550698
80.20050125313283,0.5733561825875704,0.6090388082080699,-14.974055,-1.838535,-0.108539,0.006551,0.051871185369271475,0.0037175513067479217,3.205995337894969
81.203007518797,0.5733558944337108,0.6090387851697237,-14.978086,-1.829828,-0.145462,0.00083,0.05057964172279567,0.0019024088846738192,3.2213543225789816
82.20551378446115,0.5733556076761147,0.6090387565463239,-14.978771,-1.818106,-0.177336,0.001758,0.052028265001950964,0.0019373154697137059,3.2366432672001118
83.20802005012531,0.573355322314782,0.6090387205925414,-14.983518,-1.808394,-0.210922,0.005711,0.050789081233034994,0.002827433388230814,3.250902624642198
84.21052631578947,0.5733550381751797,0.6090386783555735,-14.990272,-1.80082,-0.241276,0.003565,0.0466002910282486,0.0026529004630313807,3.264149726024713
85.21303258145363,0.573354755431841,0.6090386317552825,-14.991149,-1.791967,-0.266666,-0.002798,0.044436082755775624,0.0023038346126325153,3.2774839018836093
86.21553884711778,0.5733544742592985,0.6090385790463391,-14.986688,-1.779021,-0.292245,-0.004161,0.0471238898038469,0.0018849555921538759,3.2912721600539974
87.21804511278195,0.5733541957047498,0.60903852302127,-14.985588,-1.766036,-0.319898,0.003546,0.04651302456564888,0.0025656340004316645,3.3051126035690195
88.22055137844612,0.5733539190700634,0.6090384629819438,-14.992694,-1.75267,-0.353598,0.009251,0.05096361415823442,0.0022689280275926286,3.320052674325969
89.22305764411027,0.5733536450533709,0.6090383952631687,-15.002203,-1.739721,-0.387075,0.007452,0.05159193268895238,0.0010471975511965976,3.334818037624793
90.22556390977444,0.5733533727820075,0.6090383219593402,-15.004538,-1.725626,-0.419104,-0.004273,0.04857251308300219,-0.0003141592653589793,3.349914961121619
91.22807017543859,0.5733531026050394,0.6090382423723263,-14.995945,-1.714035,-0.442221,-0.01136,0.0472460628514865,-0.0004014257279586958,3.3640523549555756
92.23057644110276,0.5733528345224663,0.6090381580729235,-14.983259,-1.701265,-0.459872,-0.011597,0.04698426346368736,0.0005235987755982988,3.377962576734093
93.23308270676691,0.5733525683597553,0.6090380711555268,-14.979816,-1.684839,-0.482215,0.003671,0.04565781323217166,0.0029146998508305304,3.3922744162267864
94.23558897243107,0.5733523049895712,0.6090379788276092,-14.995428,-1.658688,-0.509368,0.01679,0.034854225162326766,0.005009094953223725,3.4033920413889427
95.23809523809523,0.5733520433647162,0.6090378819618358,-15.022675,-1.62587,-0.569535,0.039873,-0.01806415775814131,0.004380776422505767,3.501706368340613
96.2406015037594,0.5733518042546087,0.6090377550763991,-15.029981,-1.402614,-0.795833,-0.031342,0.07293730944084303,-0.02113593724165133,3.7402057502519783
97.24310776942356,0.5733516002256193,0.60903761073767,-14.988478,-1.082721,-1.052505,-0.037526,0.1098510231205231,-0.0037699111843077517,4.006176457510102
98.24561403508771,0.5733514523962316,0.6090374316668887,-14.956106,-0.762198,-1.230296,-0.026503,0.10801842740592905,0.005811946409141118,4.240155122499536
99.24812030075188,0.5733513621627093,0.6090372037268884,-14.946752,-0.44812,-1.354289,0.011384,0.13062044121925562,0.013945180723434694,4.450938728249109
100.25062656641603,0.5733513223692023,0.6090369445454945,-14.965672,-0.149926,-1.446398,0.02691,0.136048415192958,0.015603243512829306,4.638823422226299
101.2531328320802,0.5733513255107949,0.6090366686089398,-14.997824,0.123324,-1.50411,0.02745,0.11252137687607443,0.00809832772925369,4.819691473731451
102.25563909774435,0.5733513714129543,0.6090363846438706,-15.010535,0.388782,-1.498191,0.000745,0.10649999095669399,0.001239183768915974,5.005551882482299
103.25814536340852,0.5733514550142255,0.6090361078346512,-14.991023,0.650218,-1.412775,-0.029895,0.12501795177364636,0.0029146998508305304,5.195042192104862
104.26065162907267,0.5733515757910097,0.6090358528420474,-14.970263,0.898644,-1.281838,-0.009034,0.1144063324682283,0.010140362954087054,5.381216323788757
105.26315789473684,0.5733517326961095,0.60903562507658,-14.985101,1.119037,-1.147775,0.034822,0.10156070917355003,0.010088003076527224,5.5609509410243705
106.265664160401,0.5733519234605966,0.6090354240146503,-15.024855,1.314021,-1.009429,0.041922,0.10318386537790476,0.0025656340004316645,5.738904414851739
107.26817042606515,0.5733521435466155,0.6090352494817249,-15.050051,1.480031,-0.828631,0.005882,0.09529497715889039,-0.004345869837465881,5.920750391790077
108.27067669172932,0.5733523856237827,0.6090351109025824,-15.041068,1.596855,-0.587145,-0.026569,0.1042485162216213,-0.005550147021341968,6.107587643869974
109.27318295739347,0.5733526455033083,0.6090350213671917,-15.013862,1.728687,-0.301584,-0.019701,0.040421825476188666,-0.0012915436464758037,6.270007984060567
110.27568922305764,0.5733529256286533,0.609034981050086,-15.00654,1.860261,-0.092389,0.005382,0.07031931556285154,-0.0037000980142279784,0.07333873516880172
111.27819548872179,0.5733532312358053,0.609034983493547,-15.012286,1.991071,0.030275,0.003631,0.0009773843811168245,-0.011780972450961725,0.10930997105240486
112.28070175438596,0.573353551154657,0.6090349986779116,-15.00855,2.021866,0.113829,-0.017122,-0.01960004749989632,-0.02282890661608583,0.10854202618152736
113.28320802005013,0.5733538635685932,0.6090350178765332,-14.980547,1.979486,0.05761,-0.041098,0.03652974124424132,-0.028501226685067403,6.2545968140319195
114.28571428571428,0.5733541779023915,0.6090350187491979,-14.941288,1.933507,-0.164465,-0.034134,0.08119271680277622,-0.024801128670839424,6.03124706456079
115.28822055137844,0.5733544644854547,0.6090350051356297,-14.907823,1.813723,-0.456177,-0.035258,0.028047441079548877,-0.0317649923862968,5.788175024728954
116.2907268170426,0.5733547306481657,0.6090349302610047,-14.870054,1.636937,-0.744796,-0.044253,0.044942228238853986,-0.030560715202420707,5.553079157032026
117.29323308270676,0.5733549669657464,0.6090347892384013,-14.824651,1.42291,-0.991062,-0.0599,0.02181661564992912,-0.026284658535034602,5.329886557006746
118.29573934837092,0.5733551673295444,0.6090345979503152,-14.766053,1.174098,-1.176909,-0.066247,-0.03860668305411457,-0.013281955607676848,5.120149834649105
119.29824561403508,0.5733553275507698,0.6090343759444343,-14.718026,0.902767,-1.298627,-0.027027,-0.020734511513692634,0.0042935099599060505,4.920536859711071
120.30075187969925,0.573355443964231,0.6090341329946025,-14.704624,0.622626,-1.385809,-0.003211,0.0046251225177849735,0.0064053583548191895,4.72474605111515
121.3032581453634,0.5733555153481973,0.6090338764312024,-14.705091,0.342637,-1.435183,-0.009531,-0.018046704465621368,0.005375614096142535,4.526703261638673
122.30576441102757,0.5733555453678605,0.6090336167262098,-14.698299,0.062835,-1.417797,-0.014505,-0.0033335788713091696,0.0068591439603377154,4.327316655904623
123.30827067669172,0.5733555336741545,0.6090333634789353,-14.688348,-0.206528,-1.338467,-0.002129,0.02748893571891069,0.004223696789826277,4.127773459230084
124.31077694235589,0.5733554814888099,0.6090331310010789,-14.684896,-0.468094,-1.211273,0.004489,0.05307546255314756,0.004084070449666731,3.9282648724346125
125.31328320802004,0.5733553872410302,0.6090329252267601,-14.685496,-0.748923,-1.06145,-0.003573,-0.004921828490624009,0.0036302848441482054,3.744481719652902
126.3157894736842,0.5733552483128217,0.6090327463305117,-14.685452,-1.000721,-0.934196,0.008179,-0.011798425743481668,0.013124875974997358,3.649500884306078
127.31829573934836,0.5733550743034953,0.6090325831422267,-14.701276,-1.16827,-0.896381,0.022504,0.05049237526019595,0.020682151636132805,3.6349624138100127
128.32080200501252,0.5733548636422546,0.6090324297277855,-14.734729,-1.292435,-0.931555,0.044013,0.024329889772800952,0.027838001569309555,3.6513509856730693
129.32330827067668,0.5733546369239848,0.6090322637469736,-14.785851,-1.391046,-1.002468,0.053823,0.02611012560983517,0.029164451800825247,3.671998195817577
130.32581453634086,0.5733543999082723,0.6090320722843546,-14.838645,-1.479338,-1.071989,0.048737,0.02844886680750757,0.027768188399229784,3.684878847870343
131.328320802005,0.5733541520715186,0.6090318637175091,-14.885392,-1.556684,-1.123574,0.043984,0.016406094968746697,0.026476644752753978,3.6891023526739515
132.33082706766916,0.5733538956826515,0.6090316446786879,-14.930539,-1.625521,-1.160376,0.042266,0.010576695267085637,0.025342180738957665,3.6894514883375207
133.33333333333331,0.573353630916204,0.6090314184840169,-14.97198,-1.684819,-1.185897,0.037735,0.00788888821901437,0.02307325271136504,3.689538842066583
134.3358395989975,0.5733533575976432,0.6090311907185495,-15.013531,-1.736963,-1.203237,0.046399,-0.001413716694115407,0.020786871391252466,3.6891723927368343
135.33834586466165,0.5733530764251006,0.6090309594624236,-15.068758,-1.784341,-1.239333,0.056704,0.0031066860685499066,0.01621410875102732,3.6903590944551428
136.3408521303258,0.5733527901911032,0.609030720701382,-15.120968,-1.805052,-1.278498,0.038727,-0.00153588974175501,0.007557275661135447,3.6927676662761875
137.34335839598998,0.57335250360804,0.6090304767043525,-15.146693,-1.775484,-1.297027,0.008159,-0.023230332344044525,0.001710422666954443,3.686519352647463
138.34586466165413,0.5733522301149463,0.6090302452736936,-15.151899,-1.690946,-1.05796,0.009925,0.029583330821303887,0.005707226654021458,3.497447695152577
139.34837092731829,0.5733519594143792,0.6090300922083183,-15.141963,-1.762428,-0.569947,-0.03416,0.08552113334772216,-0.008988445647770798,3.2356136974743603
140.35087719298244,0.573351717337212,0.6090299864413656,-15.094926,-1.775047,-0.126221,-0.052952,0.01960004749989632,-0.012636183784438945,3.0281987168074767
141.35338345864662,0.5733514592030157,0.6090299956916105,-15.058792,-1.745153,0.263539,-0.013679,0.027314402793711258,-0.005689773361501515,2.855934545102711
142.35588972431077,0.5733511956582986,0.6090300906375219,-15.061013,-1.687019,0.585973,0.017839,0.02665117767795341,-0.006352998477259359,2.709623663721197
143.35839598997492,0.5733509397930303,0.6090302363725145,-15.088454,-1.605335,0.838312,0.024245,0.04967207051175862,-0.010105456369047167,2.5846580194652327
144.36090225563908,0.5733506943997374,0.6090304229482115,-15.105431,-1.524751,1.046324,-0.00134,0.05380850083898518,-0.012705996954518718,2.4898694670421007
145.36340852130326,0.5733504607001506,0.6090306426851644,-15.086588,-1.45929,1.237965,-0.035329,0.060702551384362785,-0.011711159280881952,2.4193055435845823
146.3659147869674,0.5733502353781442,0.6090308983758997,-15.036075,-1.418093,1.421335,-0.057903,0.06311110575211495,-0.0068591439603377154,2.368621059933619
147.36842105263156,0.5733500152921256,0.609031187227891,-14.983323,-1.394242,1.582269,-0.044508,0.06166248247295966,-0.0006806784082777885,2.334290520813353
148.37092731829574,0.5733497990458312,0.6090315003399588,-14.959769,-1.345493,1.649107,-0.006448,0.036878807094640184,0.005375614096142535,2.3142542282669214
149.3734335839599,0.5733495908280515,0.6090318209569424,-14.975029,-1.297898,1.665279,0.027456,0.027558748888990462,0.0075223690760955605,2.3024383143243345
150.37593984962405,0.5733493902897204,0.6090321379087346,-15.015025,-1.266446,1.664474,0.0426,0.03892084231947355,0.005829399701661061,2.2963122435564194
151.3784461152882,0.5733491948128442,0.6090324485773414,-15.056637,-1.254746,1.663108,0.033358,0.04860741966804208,0.001064650843716541,2.2950555017752285
152.38095238095238,0.5733489988123691,0.609032757500619,-15.078253,-1.257397,1.668184,0.006439,0.048729592715681676,-0.003892084231947355,2.2954571020361123
153.38345864661653,0.5733488015901637,0.6090330695654893,-15.070462,-1.258941,1.680486,-0.019803,0.044331363000655974,-0.005881759579220891,2.2960328861563455
154.38596491228068,0.5733486036698264,0.6090333844228863,-15.042151,-1.25733,1.696376,-0.034802,0.038414696836395194,-0.004101523742186674,2.297656077267285
155.38847117794487,0.5733484059240221,0.6090337034690736,-15.010419,-1.252178,1.71005,-0.028041,0.03103195410045918,-0.0009773843811168245,2.2996633106268334
156.39097744360902,0.5733482087018168,0.6090340251332547,-14.993855,-1.250073,1.712965,-0.006015,0.03399901382884954,0.0028099800957108708,2.302787188188516
157.39348370927317,0.5733480113050784,0.6090343450521066,-15.003334,-1.260927,1.697713,0.017713,0.036093408931242736,0.0040666171571467884,2.3072730159786987
158.39598997493732,0.5733478121630107,0.6090346599095038,-15.02731,-1.2714,1.677089,0.022377,0.04324925886441949,0.0011693705988362008,2.3101178153929873
159.3984962406015,0.5733476112756137,0.6090349705781105,-15.047272,-1.275341,1.663857,0.011782,0.04351105825221863,-0.0032812189937493396,2.311112757786379
160.40100250626566,0.5733474100391511,0.6090352781051247,-15.052283,-1.273329,1.663928,-0.003878,0.04448844263333546,-0.005497787143782138,2.310257354466684
161.4035087719298,0.5733472089772212,0.6090355870284023,-15.044355,-1.267284,1.673608,-0.011858,0.03928736146239235,-0.005375614096142535,2.3088786316240713
162.406015037594,0.5733470080898243,0.6090358983951408,-15.033347,-1.26668,1.681578,-0.010445,0.04040437218366873,-0.003944444109507185,2.3089135207558185
163.40852130325814,0.573346807900559,0.6090362118562745,-15.021855,-1.268887,1.686555,-0.01328,0.043319072034499265,-0.0037699111843077517,2.308895945290251
164.4110275689223,0.5733466078858268,0.6090365272372704,-15.007921,-1.273609,1.688276,-0.01467,0.043947390565217216,-0.0030892327760299633,2.30915774467805
165.41353383458645,0.5733464061257654,0.6090368426182662,-14.996257,-1.281057,1.688094,-0.011554,0.0436157780073383,-0.0021467549799530253,2.3097859759423054
166.41604010025063,0.5733462026203745,0.6090371574756632,-14.989389,-1.284793,1.685246,-0.004181,0.04157374278250493,-0.0007330382858376184,2.3102400408005046
167.41854636591478,0.5733460001621812,0.6090374712858628,-14.989762,-1.281583,1.683315,0.001774,0.03998549316319009,0.000296705972839036,2.3096291232024284
168.42105263157893,0.5733457989257186,0.6090377850960622,-14.996268,-1.274699,1.684267,0.007785,0.0439822971502571,0.0004886921905584122,2.3087215170848068
169.4235588972431,0.5733455978637887,0.6090380994298606,-15.005848,-1.270129,1.688427,0.008481,0.0490612052735606,-8.726646259971648e-05,2.308355067755058
170.42606516290726,0.5733453971509248,0.6090384151599223,-15.013877,-1.270243,1.690561,0.00357,0.048014007722364006,-0.0021118483949131386,2.309384899280197
171.42857142857142,0.5733451967871266,0.6090387322862474,-15.014155,-1.273378,1.69151,-0.004133,0.05229006438975011,-0.003159045946109736,2.3103971727930612
172.43107769423557,0.5733449962487955,0.6090390495871054,-15.006578,-1.277917,1.69307,-0.010963,0.05344198169606637,-0.0024609142453120045,2.3111998497160537
173.43358395989975,0.5733447955359315,0.6090393665388975,-14.993996,-1.279655,1.697354,-0.013815,0.05314527572322733,-0.0013788101090755204,2.311985212972866
174.4360902255639,0.5733445925541396,0.6090396827925579,-14.981731,-1.285759,1.70254,-0.011841,0.05222025121967034,0.0006806784082777885,2.3134864404756765
175.43859649122805,0.57334438852515,0.6090400007915476,-14.974375,-1.293034,1.70499,-0.004506,0.0511556003759538,0.0033161255787892262,2.31554585917986
176.44110275689223,0.5733441827508312,0.6090403198377349,-14.974846,-1.298953,1.705372,0.002244,0.05239478414486977,0.003612831551628262,2.3171690677440915
177.4436090225564,0.5733439764529137,0.6090406381857906,-14.979634,-1.300877,1.705651,0.004183,0.051242866838553516,0.0019896753472735357,2.3178321881400943
178.44611528822054,0.5733437705040618,0.6090409563593132,-14.986625,-1.298414,1.704852,0.007981,0.048642326253081965,0.0012217304763960308,2.317936855535337
179.4486215538847,0.573343567173204,0.6090412750564346,-14.998395,-1.295829,1.70189,0.01153,0.04988151002199794,0.0008377580409572782,2.317814612674527
180.45112781954887,0.5733433631442145,0.6090415925318255,-15.011776,-1.298059,1.693914,0.011493,0.051399946471233,0.00034906585039886593,2.3171863639569787
181.45363408521303,0.573343158766159,0.6090419077382885,-15.019555,-1.305828,1.689213,0.002961,0.053564154743705975,-0.000296705972839036,2.3161219050994806
182.45614035087718,0.5733429519446427,0.6090422231192842,-15.012628,-1.317409,1.695787,-0.018048,0.05260422365510909,-0.0010821041362364843,2.314655566728417
183.45864661654133,0.57334274355233,0.6090425400710764,-14.985196,-1.315363,1.716502,-0.035454,0.046129052130210124,-0.0002443460952792061,2.3125087942951716
184.4611528822055,0.5733425362072149,0.6090428624333892,-14.953951,-1.308964,1.73358,-0.022804,0.03876376268679406,0.0044156830075456534,2.312421440566109
185.46365914786966,0.5733423299092972,0.6090431863664985,-14.947448,-1.301763,1.731387,0.009107,0.03817035074111599,0.007539822368615503,2.313852889805425
186.46616541353382,0.5733421255312419,0.6090435097760089,-14.974139,-1.295282,1.711013,0.03893,0.04089306437422714,0.0073129295658562405,2.31460336393049
187.468671679198,0.573341921851318,0.6090438269023338,-15.020497,-1.293059,1.686081,0.045133,0.04167846253762459,0.0035953782591083188,2.3138875171377844
188.47117794486215,0.5733417178223287,0.6090441396653359,-15.057051,-1.296412,1.672733,0.019695,0.05253441048502932,-0.002076941809873252,2.3131373048121073
189.4736842105263,0.5733415134442732,0.6090444492867452,-15.056636,-1.305624,1.682652,-0.021619,0.05204571829447091,-0.005096361415823442,2.311880563030916
190.47619047619045,0.5733413078444873,0.6090447643186752,-15.018828,-1.312732,1.710359,-0.048891,0.04797910113732412,-0.003159045946109736,2.310868289518052
191.47869674185463,0.5733410994521746,0.6090450863319221,-14.970983,-1.310435,1.736119,-0.040039,0.03563962332572421,0.0009948376736367678,2.310432061924809
192.4812030075188,0.5733408928051912,0.609045413232091,-14.95016,-1.300501,1.739692,0.000641,0.03256784384221419,0.005689773361501515,2.310728471191675
193.48370927318294,0.573340687903537,0.6090457394341282,-14.976305,-1.291109,1.715802,0.045606,0.035238197597765517,0.006440264939859076,2.3114965207823075
194.48621553884712,0.573340484572679,0.6090460576076508,-15.029715,-1.290056,1.682899,0.051663,0.04244640740850209,0.0022514747350726853,2.3122296986944852
195.48872180451127,0.5733402821144858,0.609046367752659,-15.06613,-1.294917,1.66966,0.014931,0.05113814708343386,-0.004380776422505767,2.312020363904001
196.49122807017542,0.5733400780854964,0.6090466775486012,-15.055339,-1.300509,1.683547,-0.031895,0.0558330827712986,-0.007260569688296411,2.3108509758518725
197.49373433583958,0.5733398726602434,0.60904699310413,-15.011816,-1.301269,1.712411,-0.047486,0.047612581994405316,-0.004799655442984407,2.3101527045247345
198.49624060150376,0.5733396667113917,0.6090473135465806,-14.970205,-1.295968,1.729341,-0.030421,0.03467969223712733,0.0003141592653589793,2.318111283740781
199.4987468671679,0.5733394600644082,0.6090476352107619,-14.956695,-1.327959,1.687335,-0.000189,0.03789109806079689,0.0027401669256310974,2.366404788489559
200.50125313283206,0.5733392438181139,0.6090479437849736,-14.972423,-1.428453,1.580572,0.025605,0.06124360345248102,0.0029845130209103037,2.453409451701477
201.50375939849624,0.5733390141327843,0.609048229844438,-15.002224,-1.560175,1.413717,0.028102,0.0715934059168074,0.0033684854563490563,2.563434763401104
202.5062656641604,0.5733387647252343,0.6090484804737185,-15.028152,-1.684643,1.19721,0.021989,0.08340928495280901,0.0047298422729046335,2.686864552821898
203.50877192982455,0.573338494548266,0.6090486848517739,-15.042037,-1.794046,0.953032,0.008657,0.08330456519768935,0.00614355896702004,2.8170835508599024
204.5112781954887,0.5733382091869332,0.6090488398370115,-15.044685,-1.880377,0.693836,0.000515,0.08038986534685881,0.005864306286700947,2.950828026720473
205.51378446115288,0.5733379102120324,0.6090489438586348,-15.041915,-1.940181,0.420451,-0.000838,0.07995353303386024,0.006108652381980153,3.0858817264128415
206.51629072681703,0.5733376039067487,0.6090489946477162,-15.048045,-1.967026,0.139409,0.014757,0.08021533242165939,0.005235987755982988,3.2175318944374816
207.51879699248119,0.573337295158004,0.6090489929023869,-15.069441,-1.959354,-0.149125,0.027915,0.08349655141540872,0.0019024088846738192,3.3430386780280266
208.52130325814534,0.5733369900744508,0.6090489347829228,-15.104057,-1.9197,-0.43843,0.037682,0.08606218541584039,-0.0025830872929516074,3.4595391961591377
209.52380952380952,0.5733366923212805,0.6090488225582519,-15.131996,-1.859296,-0.706291,0.0147,0.08922123136195013,-0.007976154681614086,3.563316456029428
210.52631578947367,0.5733364050400855,0.609048663558757,-15.128287,-1.791282,-0.919826,-0.020024,0.08468337530676487,-0.010192722831646885,3.6533930907110728
211.52882205513782,0.5733361280563333,0.6090484672092161,-15.096811,-1.729145,-1.080831,-0.036459,0.07789404451650693,-0.00958185759344887,3.732700694842063
212.531328320802,0.5733358591010954,0.6090482439816048,-15.065516,-1.662411,-1.235239,-0.020478,0.07531095722355532,-0.00778416846389471,3.804625748223334
213.53383458646616,0.5733356009668992,0.6090479952721864,-15.056336,-1.59251,-1.395116,-0.001467,0.08114035692521639,-0.008813912722571364,3.8654680655741966
214.5363408521303,0.5733353555736063,0.6090477179393683,-15.060197,-1.523199,-1.547544,1e-05,0.07831292353698557,-0.01265363707695889,3.912382306428294
215.53884711779446,0.5733351220485523,0.6090474159974077,-15.044703,-1.436288,-1.626223,-0.034766,0.06250024051391694,-0.01684242728174528,3.9448281343025013
216.54135338345864,0.5733349016134678,0.6090471006164119,-14.990653,-1.377058,-1.65078,-0.065873,0.0599869663910451,-0.013962634015954637,3.9632412357379936
217.5438596491228,0.5733346897304967,0.6090467859335478,-14.933022,-1.350108,-1.654842,-0.039752,0.054960418145301435,-0.0046251225177849735,3.971863214602723
218.54636591478695,0.5733344806400522,0.6090464735196117,-14.918817,-1.342863,-1.678152,0.008827,0.05724679946541401,0.0016231562043547264,3.97435914015283
219.54887218045113,0.5733342720732066,0.60904615778955,-14.936524,-1.331993,-1.711922,0.015328,0.05251695719250937,-0.0009773843811168245,3.973469109500776
220.55137844611528,0.5733340645535586,0.609045835950836,-14.93589,-1.324832,-1.711693,-0.016175,0.03855432317655474,-0.0029845130209103037,3.9660162394354948
221.55388471177943,0.5733338556376472,0.6090455165555828,-14.914227,-1.338179,-1.676118,-0.019277,0.03804817769347639,0.0016755160819145565,3.9536069833604
222.55639097744358,0.5733336451509394,0.6090452043161796,-14.90925,-1.356113,-1.647735,0.010686,0.03595378259108319,0.0065275314024587925,3.9434145397814335
223.55889724310777,0.5733334329189023,0.6090448980108959,-14.93484,-1.357434,-1.64761,0.034914,0.03562217003320427,0.006562437987498679,3.9376898074750146
224.56140350877192,0.5733332196396677,0.6090445913565462,-14.966099,-1.351243,-1.654298,0.018174,0.033039082740252655,0.0020420352248333657,3.9329597557625995
225.56390977443607,0.5733330077566965,0.6090442852257956,-14.961221,-1.351388,-1.625974,-0.025952,0.026808257310632903,-0.0012217304763960308,3.927601472785929
226.56641604010025,0.5733327944774619,0.6090439860763617,-14.928493,-1.359309,-1.578989,-0.027535,0.030333822399661446,0.00312413936106985,3.924931398283058
227.5689223057644,0.573332582070892,0.6090436940827778,-14.926233,-1.357915,-1.566451,0.025353,0.04000294645571003,0.009023352232810684,3.931074782717153
228.57142857142856,0.5733323701879207,0.6090434027873256,-14.971049,-1.336043,-1.604423,0.051147,0.03457497248200767,0.006283185307179586,3.9423671153374342
229.5739348370927,0.5733321614465422,0.6090431055577541,-15.006826,-1.298784,-1.62736,0.010538,0.035168384427685745,-0.0027052603405912107,3.953380073104348
230.5764411027569,0.5733319586392832,0.6090428034412605,-14.99145,-1.264822,-1.608443,-0.033436,0.03677408733952053,-0.004241150082346221,3.962054534019685
231.57894736842104,0.5733317619406765,0.6090425041172939,-14.961364,-1.24515,-1.58601,-0.016463,0.04260348704118158,0.0025830872929516074,3.972125013990522
232.5814536340852,0.5733315676855307,0.6090422084585185,-14.968207,-1.235044,-1.597684,0.025947,0.0359188760060433,0.00614355896702004,3.9856687864392906
233.58395989974937,0.5733313750011813,0.6090419114034799,-15.001906,-1.210246,-1.62863,0.029318,0.027611108766550294,0.0014311699866353504,4.000800599067865
234.58646616541353,0.573331186680155,0.6090416084143218,-15.014452,-1.169051,-1.640896,-0.008982,0.03335324200561164,-0.005323254218582705,4.014553950653212
235.58897243107768,0.5733310041187153,0.6090413035053014,-14.991672,-1.134546,-1.622262,-0.030673,0.041852995462824026,-0.005497787143782138,4.025270516606552
236.59147869674183,0.5733308278404607,0.6090410022614725,-14.96994,-1.115108,-1.609638,-0.005645,0.04504694799397364,0.0009250245035569946,4.035986541507825
237.593984962406,0.5733306562745953,0.6090407032865716,-14.982266,-1.08892,-1.633188,0.022944,0.03869394951671429,0.0020594885173533086,4.050682126543154
238.59649122807016,0.5733304878503225,0.6090403989011501,-15.002866,-1.050378,-1.662973,0.011494,0.03745476574779831,-0.002286381320112572,4.0645750521087844
239.59899749373432,0.5733303237893729,0.6090400885816092,-14.998173,-1.019021,-1.669274,-0.021551,0.03146828641345776,-0.004607669225265031,4.074052172493821
240.6015037593985,0.5733301656625426,0.609039776342206,-14.963184,-1.00218,-1.646655,-0.043593,0.03953170755767157,-0.0027925268031909274,4.081155889442241
241.60401002506265,0.5733300101537062,0.6090394712586525,-14.927787,-0.993454,-1.618178,-0.016699,0.037646751965517686,0.0047298422729046335,4.088713130196791
242.6065162907268,0.5733298556920674,0.6090391707129554,-14.94274,-0.971301,-1.630085,0.042619,0.03314380249537232,0.009616764178488757,4.100685914332547
243.60902255639095,0.5733297064664163,0.6090388668511327,-14.998722,-0.928566,-1.672261,0.051733,0.031066860685499065,0.003438298626428829,4.112920742202197
244.61152882205513,0.5733295635239507,0.6090385563570587,-15.025912,-0.888021,-1.683724,-0.005225,0.03134611336581816,-0.005567600313861911,4.120076661948544
245.6140350877193,0.5733294259920056,0.6090382435940569,-14.993629,-0.87599,-1.651972,-0.049669,0.02946115777366428,-0.0054105206811824215,4.122258044260857
246.61654135338344,0.573329289681791,0.6090379378123719,-14.94536,-0.883647,-1.620007,-0.033785,0.032183871406775436,0.002775073510670984,4.125085791808353
247.6190476190476,0.5733291530225106,0.6090376379648064,-14.935533,-0.873376,-1.621325,0.018486,0.034191000046568915,0.009459684545809267,4.133480616070935
248.62155388471177,0.5733290172358947,0.609037337768175,-14.973231,-0.841415,-1.650274,0.047814,0.03185225884889652,0.00783652834145454,4.144074939163467
249.62406015037593,0.573328885987135,0.6090370309392925,-15.009762,-0.80584,-1.666383,0.016103,0.027890361446869388,-0.0004886921905584122,4.151545105441635
250.62656641604008,0.5733287604979619,0.6090367204452186,-15.002197,-0.785012,-1.643649,-0.025457,0.027244589623631483,-0.003944444109507185,4.155349696318179
251.62907268170426,0.5733286390230459,0.6090364148380666,-14.973786,-0.77692,-1.615572,-0.019348,0.03073524812762014,0.0008552113334772215,4.159346570118417
252.6315789473684,0.5733285184207946,0.6090361156886327,-14.967813,-0.77131,-1.615386,0.007156,0.02675589743307307,0.004886921905584123,4.1649141704322785
253.63408521303256,0.573328398167609,0.6090358182845282,-14.978498,-0.758303,-1.62507,0.008316,0.02476622208579954,0.0032114058236695662,4.172157164655007
254.63659147869672,0.5733282793106871,0.6090355168661664,-14.980733,-0.733932,-1.626093,-0.004077,0.030333822399661446,0.0006457718232379018,4.18029018952979
255.6390977443609,0.5733281651661539,0.6090352147496728,-14.975154,-0.711881,-1.6201,-0.005767,0.029251718263424962,0.0018500490071139892,4.186765675213955
256.64160401002505,0.5733280545122794,0.6090349138549098,-14.97091,-0.692326,-1.613247,-0.00156,0.023841197582242544,0.003996803987067015,4.19379961389888
257.64411027568923,0.5733279478726621,0.6090346152290748,-14.970787,-0.671774,-1.610316,0.003196,0.023631758072003222,0.005585053606381855,4.200745675255967
258.64661654135335,0.573327843152907,0.6090343174759044,-14.977289,-0.655208,-1.611554,0.00876,0.024242623310201238,0.006161012259539983,4.2073252698300125
259.64912280701753,0.5733277405275469,0.6090340188500694,-14.984248,-0.644866,-1.606243,0.003174,0.021519909677090086,0.003682644721708035,4.2135213806608105
260.6516290726817,0.5733276401711149,0.609033721271432,-14.98076,-0.630823,-1.592337,-0.006911,0.02349213173184368,0.0023911010752322315,4.220258648279481
261.65413533834584,0.5733275427817427,0.6090334273579859,-14.973366,-0.605194,-1.583736,-0.003267,0.02691297706575256,0.003403392041388943,4.22889794081039
262.65664160401,0.5733274492320947,0.6090331348408032,-14.976518,-0.579854,-1.590242,0.011358,0.027506389011430633,0.00481710873550435,4.236908740277657
263.65914786967414,0.5733273589985725,0.6090328398801597,-14.991416,-0.567701,-1.600661,0.014718,0.021205750411731106,0.003298672286269283,4.242546642453789
264.6616541353383,0.5733272710339781,0.6090325436977856,-14.995349,-0.560499,-1.59366,-0.008637,0.01689478715930511,-0.00013962634015954637,4.247712642506767
265.6641604010025,0.5733271855128448,0.6090322494352738,-14.978328,-0.544016,-1.569806,-0.02028,0.02139773662945048,0.0005410520681182421,4.254047768812486
266.66666666666663,0.573327101038909,0.6090319586634204,-14.964067,-0.527486,-1.556833,-0.003155,0.02598795256219557,0.005288347633542819,4.260994353768348
267.6691729323308,0.5733270188339012,0.6090316703350279,-14.970796,-0.517635,-1.561335,0.014534,0.021938788697568722,0.006981317007977318,4.267940956177504
268.671679197995,0.5733269387232885,0.6090313816575696,-14.9825,-0.501435,-1.565215,0.007426,0.01869247628885927,0.0048345620280242935,4.275969313657045
269.6741854636591,0.5733268617542685,0.6090310931546443,-14.982265,-0.479107,-1.553966,-0.004094,0.023125612588924867,0.0030368728984701333,4.284085304118329
270.6766917293233,0.5733267874032424,0.6090308051753177,-14.982471,-0.460044,-1.546958,0.007325,0.02726204291615143,0.0044156830075456534,4.292008994202629
271.6791979949875,0.5733267161938088,0.6090305171959912,-14.994934,-0.45129,-1.55123,0.014136,0.020525072003453316,0.003525565089028546,4.298641332626669
272.6817042606516,0.5733266456825072,0.6090302309619938,-15.000279,-0.440704,-1.547739,-0.004224,0.0187448361664191,-0.00013962634015954637,4.306093661639882
273.6842105263158,0.5733265776146663,0.6090299445534636,-14.986831,-0.423195,-1.530528,-0.017707,0.025289820861397836,-0.0005759586531581288,4.314192338434986
274.68671679197996,0.5733265125138852,0.6090296605883943,-14.97165,-0.403911,-1.516917,-0.007874,0.027244589623631483,0.002722713633111154,4.322168231317213
275.6892230576441,0.5733264502056309,0.6090293806375823,-14.975818,-0.38754,-1.514207,0.016285,0.02494075501099897,0.005148721293383272,4.329655449462173
276.69172932330827,0.5733263898172388,0.6090291010358361,-15.000963,-0.375122,-1.522053,0.030366,0.021694442602289518,0.0038048177693476384,4.337247858601152
277.6942355889724,0.5733263318723076,0.6090288174198327,-15.026108,-0.357611,-1.530075,0.015728,0.017662732030182614,-0.0012042771838760874,4.345450923538817
278.69674185463657,0.5733262767199033,0.6090285339783621,-15.022947,-0.338184,-1.517056,-0.020042,0.020420352248333655,-0.005672320068981571,4.3525194895561015
279.69924812030075,0.5733262243600258,0.6090282545511488,-14.991201,-0.327217,-1.48513,-0.032358,0.02588323280707591,-0.003787364476827695,4.3581219790017105
280.7017543859649,0.5733261732218786,0.6090279815816538,-14.971409,-0.32192,-1.472519,0.000496,0.027052603405912107,0.0028099800957108708,4.364562558100835
281.70426065162906,0.5733261238290608,0.6090277091357577,-14.989767,-0.30992,-1.493845,0.031831,0.0244695161129605,0.004153883619746504,4.3728876040999225
282.70676691729324,0.5733260763561051,0.6090274321520054,-15.018443,-0.287297,-1.511716,0.021505,0.019565140914856435,-0.0009948376736367678,4.38145685656795
283.70927318295736,0.5733260313266104,0.6090271509794628,-15.022629,-0.270401,-1.504106,-0.008412,0.021886428820008894,-0.005567600313861911,4.387478539193303
284.71177944862154,0.573325990311373,0.6090268698069203,-15.002896,-0.267255,-1.488864,-0.023064,0.022968532956245378,-0.0043982297150257105,4.392469831788157
285.7142857142857,0.573325948423471,0.609026593172234,-14.981443,-0.265409,-1.483683,-0.013608,0.02652900463031381,-0.0004014257279586958,4.398491235160829
286.71679197994985,0.5733259074082335,0.6090263181083437,-14.978251,-0.251515,-1.494403,0.008058,0.025656340004316644,0.002548180707911721,4.4064503554289445
287.719298245614,0.5733258688364571,0.6090260397283281,-14.992373,-0.231765,-1.507285,0.017345,0.0216071761396898,0.0010471975511965976,4.413484032314481
288.72180451127815,0.5733258327081415,0.6090257587303185,-15.003371,-0.219889,-1.504075,0.006526,0.021327923459370707,-0.002129301687433082,4.419103573626883
289.72431077694233,0.5733257983251553,0.609025477732309,-15.004755,-0.219769,-1.496425,0.000467,0.02403318379996192,-0.002356194490192345,4.423885810683932
290.7268170426065,0.5733257646403007,0.6090251983050956,-15.003139,-0.216488,-1.499808,-0.00153,0.022933626371205492,-0.00153588974175501,4.431024416764099
291.72932330827064,0.5733257311299791,0.6090249194014812,-14.995323,-0.200736,-1.503732,-0.011671,0.025446900494077326,-0.0016580627893946131,4.4394367990389565
292.7318295739348,0.5733256993649867,0.6090246410214655,-14.981395,-0.186069,-1.503272,-0.010576,0.02537708732399755,-0.000593411945678072,4.447116300107609
293.734335839599,0.5733256702179882,0.6090243614197194,-14.974507,-0.181833,-1.505812,-0.000479,0.023841197582242544,0.0009599310885968813,4.454394183462085
294.7368421052631,0.5733256419436543,0.6090240811198415,-14.976499,-0.178159,-1.504597,0.005868,0.02069960492865275,0.0009773843811168245,4.462056091611878
295.7393483709273,0.5733256152401167,0.6090238022162271,-14.983708,-0.161015,-1.501078,0.011513,0.024556782575560217,0.0014311699866353504,4.471568903980118
296.7418546365915,0.5733255920272378,0.6090235222654149,-14.99829,-0.137599,-1.50783,0.017227,0.027977627909469102,0.001361356816555577,4.481342171832633
297.7443609022556,0.573325570385155,0.6090232410928725,-15.006846,-0.125645,-1.515147,-0.001635,0.02256710722828668,-0.0014660765716752368,4.489248565704044
298.7468671679198,0.5733255508374674,0.6090229588731324,-14.99003,-0.120283,-1.507705,-0.02473,0.024207716725161352,-0.002722713633111154,4.4972598887700865
299.74937343358397,0.5733255319879115,0.609022677526057,-14.965237,-0.113278,-1.5036,-0.015156,0.02715732316103177,0.001308996938995747,4.505811827571933
300.7518796992481,0.5733255147091518,0.609022397575245,-14.960248,-0.096535,-1.513918,0.007412,0.025953045977155684,0.004590215932745087,4.515759802882573
301.7543859649123,0.5733254998738532,0.6090221158791038,-14.970488,-0.078404,-1.518859,0.011795,0.0226543736908864,0.003403392041388943,4.525516559920365
302.7568922305764,0.5733254887037459,0.6090218338338966,-14.97616,-0.066775,-1.509207,0.002352,0.02473131550075965,0.0014311699866353504,4.5338069785870925
303.7593984962406,0.573325479278968,0.6090215526613542,-14.976945,-0.052753,-1.502492,0.004699,0.02796017461694916,0.0019896753472735357,4.542760535103116
304.76190476190476,0.5733254721231181,0.6090212735832068,-14.987248,-0.035362,-1.510222,0.01654,0.029845130209103034,0.0030543261909900766,4.551714074165847
305.7644110275689,0.5733254675852621,0.6090209915379996,-15.00188,-0.019593,-1.521881,0.010776,0.024696408915719763,0.001308996938995747,4.559184240444015
306.76691729323306,0.5733254654908669,0.6090207079219961,-14.999354,-0.009982,-1.517982,-0.013171,0.02181661564992912,-0.0015882496193148398,4.5657638524713535
307.76942355889724,0.5733254649672681,0.609020425702256,-14.977769,-0.004544,-1.502117,-0.018911,0.028239427297268253,3.490658503988659e-05,4.572378615429828
308.77192982456137,0.5733254647927352,0.609020145925977,-14.968408,0.005614,-1.504536,0.006933,0.028693212902786775,0.004485496177625427,4.580145452774249
309.77443609022555,0.5733254668871304,0.609019865800632,-14.982142,0.0258,-1.521096,0.016926,0.024661502330679878,0.0037524578917878084,4.588505126105696
310.77694235588973,0.5733254721231181,0.6090195821846286,-14.990502,0.04322,-1.51938,0.000121,0.021781709064889233,8.726646259971648e-05,4.595155563594082
311.77944862155385,0.5733254796280339,0.6090192997903557,-14.985023,0.049415,-1.503851,-0.003928,0.021729349187329404,0.0007853981633974482,4.600478695639616
312.78195488721803,0.5733254885292132,0.6090190187923461,-14.988314,0.053405,-1.504076,0.013597,0.02350958502436362,0.0032114058236695662,4.606116074216972
313.7844611528822,0.573325498128524,0.6090187386670012,-15.003877,0.067635,-1.516155,0.016366,0.02181661564992912,0.001762782544514273,4.613585699443074
314.78696741854634,0.5733255098222299,0.609018456447261,-15.009744,0.083582,-1.516659,-0.004454,0.022130774915288098,-0.0020420352248333657,4.620287816130609
315.7894736842105,0.5733255239593968,0.6090181745765868,-14.992584,0.092787,-1.499768,-0.022601,0.024748768793279592,-0.0023212879051524586,4.625785638180976
316.79197994987464,0.5733255387946955,0.6090178974183016,-14.974202,0.094963,-1.490856,-0.007069,0.026022859147235455,0.0023212879051524586,4.63109171835972
317.7944862155388,0.5733255545026589,0.6090176202600164,-14.98043,0.101855,-1.502336,0.019546,0.024382249650360784,0.005131268000863329,4.637392234786371
318.796992481203,0.5733255721304843,0.6090173406582703,-15.005327,0.12098,-1.517566,0.026472,0.022671826983406338,0.0024260076602721182,4.644705269071983
319.79949874686713,0.5733255925508365,0.609017056518668,-15.023818,0.135842,-1.518343,0.00858,0.019285888234537342,-0.0027052603405912107,4.650621760703318
320.8020050125313,0.5733256148910508,0.6090167732517304,-15.017469,0.14031,-1.502265,-0.016482,0.02129301687433082,-0.004642575810304917,4.655857521566499
321.8045112781955,0.5733256389765946,0.6090164938245173,-14.996727,0.143483,-1.48811,-0.017148,0.025865779514555962,-0.0012566370614359172,4.6614251393336525
322.8070175438596,0.5733256621894737,0.6090162182370283,-14.988646,0.148292,-1.492756,0.002292,0.02494075501099897,0.0028099800957108708,4.668075053223261
323.8095238095238,0.5733256855768856,0.6090159417768748,-14.995121,0.158867,-1.50272,0.008564,0.022165681500327987,0.002181661564992912,4.675684234976351
324.812030075188,0.5733257112332256,0.6090156621751287,-14.998347,0.174167,-1.500104,0.000895,0.022741640153486113,-0.0003316125578789226,4.68394002631072
325.8145363408521,0.5733257402056913,0.6090153825733825,-14.999577,0.190394,-1.497528,0.006607,0.02415535684760152,-1.7453292519943296e-05,4.692178242179521
326.8170426065163,0.5733257717961507,0.6090151031461692,-15.007377,0.205574,-1.506122,0.007681,0.020490165418413427,0.00027925268031909274,4.699718186721184
327.8195488721804,0.5733258054810052,0.6090148228462914,-15.001662,0.216514,-1.498966,-0.019432,0.019896753472735354,-0.0020943951023931952,4.70692576821339
328.8220551378446,0.5733258407366562,0.6090145455134732,-14.972239,0.224065,-1.475834,-0.029744,0.02675589743307307,6.981317007977319e-05,4.7140816879597365
329.82456140350877,0.5733258772140375,0.609014270973182,-14.954742,0.228593,-1.473439,-0.000395,0.029426251188624394,0.006021385919380436,4.720731601849345
330.8270676691729,0.5733259136914188,0.609013997480088,-14.968463,0.238826,-1.488704,0.023639,0.022183134792847926,0.007016223593017205,4.7282369190586495
331.8295739348371,0.5733259527867941,0.6090137194491383,-14.994272,0.260847,-1.499167,0.023575,0.019390607989657,0.00312413936106985,4.736788857860495
332.83208020050125,0.5733259955473607,0.6090134391492604,-15.007955,0.281466,-1.498677,0.004168,0.021537362969610025,-0.0007330382858376184,4.744450242411513
333.8345864661654,0.5733260407513884,0.6090131595475141,-14.993689,0.290741,-1.482154,-0.027397,0.019128808601857852,-0.002478367537831948,4.750803485234867
334.83709273182956,0.5733260880498112,0.6090128855308217,-14.958989,0.290133,-1.457932,-0.031301,0.02684316389567279,0.0019896753472735357,4.756388661014297
335.83959899749374,0.5733261346501021,0.6090126153538534,-14.943324,0.290104,-1.459371,0.004996,0.030787608005179972,0.009005898940290741,4.76296879664041
336.84210526315786,0.5733261807267944,0.6090123439551548,-14.964643,0.3036,-1.483646,0.031866,0.022392574303087248,0.009128071987930343,4.770752685851625
337.84461152882204,0.5733262297705464,0.6090120666223366,-14.989747,0.327255,-1.493336,0.01438,0.01754055898254301,0.0028448866807507574,4.779897984239272
338.8471177944862,0.5733262830030886,0.6090117877187222,-14.986523,0.34541,-1.474118,-0.014926,0.020001473227855015,-0.0007155849933176752,4.787979085568809
339.84962406015035,0.5733263392026905,0.609011512480299,-14.966877,0.351043,-1.453716,-0.015619,0.027419122548830915,0.002548180707911721,4.794559221194923
340.8521303258145,0.5733263961004241,0.6090112430014626,-14.958023,0.356353,-1.453657,0.001305,0.0273318560862312,0.006684611035138282,4.8015926188277795
341.85463659147865,0.5733264531726906,0.6090109742207578,-14.962423,0.366796,-1.461896,0.007522,0.023177972466484696,0.007661995416255106,4.809167190701802
342.85714285714283,0.5733265123393524,0.6090107026475262,-14.965701,0.383017,-1.463827,0.000824,0.021642082724729686,0.0064053583548191895,4.817265867496907
343.859649122807,0.5733265730768102,0.6090104302016299,-14.960368,0.398233,-1.457262,-0.007209,0.023230332344044525,0.006440264939859076,4.824735492723007
344.86215538847114,0.5733266367813279,0.6090101591519971,-14.951184,0.409605,-1.44627,-0.006887,0.024242623310201238,0.008063421144213804,4.831542538605173
345.8646616541353,0.5733267024057078,0.6090098901967594,-14.949724,0.420096,-1.43981,0.009451,0.02590068609959585,0.011152653920243767,4.837930391307594
346.8671679197995,0.5733267694263511,0.6090096212415216,-14.967608,0.429578,-1.449115,0.025712,0.02199114857512855,0.011780972450961725,4.843899609335633
347.8696741854636,0.5733268378432578,0.6090093514136192,-14.985818,0.433167,-1.455756,0.007865,0.01876228945893904,0.0075223690760955605,4.850305037503622
348.8721804511278,0.5733269071328291,0.6090090814111839,-14.977863,0.443075,-1.439618,-0.017589,0.0216071761396898,0.004886921905584123,4.8581235540471965
349.874686716792,0.5733269778186638,0.6090088143758083,-14.960362,0.462502,-1.423428,-0.010134,0.02811725424962865,0.008237954069413234,4.865576668458573
350.8771929824561,0.5733270521696899,0.6090085497838938,-14.962897,0.477263,-1.424588,0.015204,0.025167647813758232,0.011431906600562858,4.871510718102183
351.8796992481203,0.573327128964177,0.6090082846683805,-14.9838,0.47849,-1.430086,0.023812,0.01858775653373961,0.010035643198967395,4.876764612936291
352.88220551378447,0.5733272055841312,0.6090080183311367,-15.002748,0.476436,-1.429407,0.013717,0.021223203704251046,0.0066322511575784525,4.883273905648067
353.8847117794486,0.5733272809823549,0.6090077518193597,-15.008589,0.48782,-1.423899,0.001968,0.023858650874762483,0.004485496177625427,4.892175259366163
354.8872180451128,0.5733273591731054,0.6090074872274452,-15.005397,0.509531,-1.418807,-0.002989,0.027087509990951997,0.004345869837465881,4.901198576692389
355.8897243107769,0.5733274401563826,0.6090072233336623,-15.000713,0.526046,-1.417003,-0.002415,0.022095868330248212,0.00481710873550435,4.909087936150301
356.8922305764411,0.5733275249793843,0.6090069592653464,-14.995294,0.533933,-1.41106,-0.004641,0.01965240737745615,0.004991641660703782,4.915824662716904
357.89473684210526,0.573327609627853,0.6090066971168928,-14.990149,0.535364,-1.400705,-0.000838,0.021973695282608608,0.0059515727493006645,4.922160312621398
358.8972431077694,0.5733276942763218,0.609006437586433,-14.993022,0.538209,-1.395864,0.0098,0.022916173078685546,0.007278022980816354,4.929699733564286
359.89974937343356,0.573327779971988,0.6090061759615782,-15.008114,0.553057,-1.400087,0.019224,0.022741640153486113,0.006841690667817772,4.938758201821647
360.90225563909775,0.5733278668893848,0.6090059141621903,-15.024658,0.5739,-1.403607,0.012442,0.021851522234969004,0.003473205211468716,4.947729333803238
361.90476190476187,0.5733279586937035,0.6090056525373355,-15.027269,0.589848,-1.397796,-0.004802,0.020298179200694055,0.00020943951023931956,4.956141716078095
362.90726817042605,0.573328053116016,0.6090053933559416,-15.013707,0.595279,-1.383842,-0.01631,0.02192133540504878,-0.0003316125578789226,4.963611358757488
363.90977443609023,0.5733281480619272,0.6090051371416074,-14.995337,0.599226,-1.368709,-0.0135,0.02303834612632515,0.002356194490192345,4.971360620636343
364.91228070175436,0.5733282435314373,0.6090048830216682,-14.988559,0.61099,-1.364336,0.003722,0.026406831582674203,0.006021385919380436,4.979511500229375
365.91478696741854,0.5733283403972108,0.6090046290762622,-14.99946,0.625879,-1.370803,0.017949,0.022689280275926284,0.006806784082777886,4.987417894100786
366.91729323308266,0.5733284395319124,0.6090043733855267,-15.016152,0.637559,-1.375965,0.014487,0.016807520696705394,0.004118977034706617,4.995534128908165
367.91979949874684,0.5733285416336736,0.6090041169966596,-15.021748,0.649126,-1.370198,-0.00265,0.02087413785385218,0.0008726646259971648,5.004120695042372
368.922305764411,0.5733286446080995,0.6090038616549901,-15.008056,0.66071,-1.352304,-0.018474,0.022444934180647077,5.235987755982989e-05,5.012498467438162
369.92481203007515,0.5733287502005191,0.6090036108511765,-14.989245,0.670804,-1.335405,-0.010539,0.027035150113392165,0.003490658503988659,5.019654387184509
370.9273182957393,0.5733288570146694,0.6090033628398899,-14.992225,0.676426,-1.338157,0.018017,0.02349213173184368,0.006754424205218055,5.025902159761166
371.9298245614035,0.5733289641778855,0.6090031141304715,-15.014181,0.679891,-1.350066,0.021347,0.015341444125030157,0.0046251225177849735,5.032831169251461
372.93233082706763,0.5733290718647004,0.6090028628030592,-15.022315,0.691082,-1.344763,-0.006261,0.01785471824790199,0.00027925268031909274,5.041889654962115
373.9348370927318,0.5733291828676408,0.6090026128719103,-15.005548,0.713215,-1.321901,-0.019618,0.027209683038591597,0.0005061454830783556,5.051576092684343
374.937343358396,0.5733292963140422,0.6090023664314198,-14.992408,0.727835,-1.309963,0.000635,0.027593655474030348,0.004380776422505767,5.058540270559066
375.9398496240601,0.5733294113312398,0.6090021233070552,-15.004228,0.728074,-1.315766,0.022369,0.019250981649497456,0.00486946861306418,5.06409029540736
376.9423558897243,0.5733295268720363,0.609001878437361,-15.027149,0.728747,-1.322817,0.020935,0.01884955592153876,0.0013962634015954637,5.071368178761836
377.9448621553885,0.5733296434600303,0.609001631298739,-15.036668,0.739997,-1.317597,-0.001685,0.020612338466053034,-0.002897246558310587,5.080653557275249
378.9473684210526,0.573329760746156,0.6090013857309132,-15.021081,0.755548,-1.298958,-0.023796,0.024190263432641405,-0.003839724354387525,5.089693926468266
379.9498746867168,0.5733298806502757,0.6090011450500092,-14.995352,0.770495,-1.278516,-0.020135,0.026040312439755398,-0.00047123889803846896,5.097967293268202
380.9523809523809,0.573330003695988,0.6090009087324286,-14.988338,0.780713,-1.276135,0.008131,0.025743606466916362,0.003735004599267865,5.104145305034657
