Time [s],Longitude [rad],Latitude [rad],Altitude [m],V North [m/s],V East [m/s],V Down [m/s],Roll [rad],Pitch [rad],Yaw [rad]
0.0,0.6097300519669746,0.5734839021170399,-6.111891,-1.13986,-0.099866,0.526628,-0.02118829711921115,-0.340409017308974,-2.8634220075937664
1.0025062656641603,0.6097300186311859,0.5734837286313121,-6.58656,-1.060675,-0.288946,0.439063,0.06462954220135003,-0.34463271409880036,-2.705015854869592
2.0050125313283207,0.6097299551012011,0.5734835708535478,-6.999248,-0.958091,-0.421653,0.4085,-0.05005604294719737,-0.35473818792114,-2.5399078647105604
3.007518796992481,0.609729866613008,0.5734834317508064,-7.409154,-0.82556,-0.529422,0.429158,-0.018727382873899166,-0.3293087232662899,-2.3817461977080043
4.010025062656641,0.6097297578789956,0.573483313766549,-7.835239,-0.702043,-0.653715,0.40326,-0.07785913793146707,-0.20970130962711853,-2.306435188124572
5.012531328320802,0.6097296275029005,0.5734832071269317,-8.175602,-0.679313,-0.744877,0.253539,-0.10573204608581645,-0.09707521299592448,-2.3683070752011854
6.015037593984962,0.60972949084362,0.5734831032798413,-8.368189,-0.719222,-0.695153,0.136613,-0.000890117918517114,-0.07044148861049115,-2.513675461333331
7.017543859649122,0.6097293665761773,0.5734829907061045,-8.47162,-0.789528,-0.576377,0.079769,0.06270968002415626,-0.060423298704043615,-2.6671947096052144
8.020050125313283,0.6097292711066673,0.5734828622498714,-8.538614,-0.888788,-0.425847,0.065811,-0.015673056682909078,-0.04300491276914031,-2.8147098681706053
9.022556390977442,0.6097292065294849,0.5734827170384778,-8.614151,-1.032624,-0.289299,0.086906,-0.07531095722355534,-0.03340560188317143,-2.925241447526359
10.025062656641603,0.609729159580128,0.5734825416328879,-8.711001,-1.169316,-0.253527,0.098983,0.01977458042509575,-0.05016076270231706,-2.9078230441381625
11.027568922305765,0.6097291087910468,0.5734823540099933,-8.80182,-1.202333,-0.354016,0.076557,0.08724900930719652,-0.0664097780383841,-2.7672893596603823
12.030075187969924,0.6097290332182901,0.5734821594057817,-8.867803,-1.229193,-0.562395,0.076129,0.03427826650916863,-0.08646361114379908,-2.6193901762996754
13.032581453634084,0.6097289197718888,0.5734819599146482,-8.96297,-1.281389,-0.730324,0.118225,0.0578925712886519,-0.0941430598525741,-2.5568202622420184
14.035087719298245,0.6097287710698365,0.5734817506496709,-9.103214,-1.371467,-0.853801,0.164144,0.0341037335839692,-0.08920377806943014,-2.5519682469214735
15.037593984962406,0.6097285977586419,0.5734815265493949,-9.275985,-1.478646,-0.947773,0.172444,0.023719024534602937,-0.06995279641993268,-2.5647263943140426
16.040100250626566,0.6097284096121484,0.5734812860430241,-9.431458,-1.574626,-1.023871,0.130731,0.027680921936630073,-0.049445177708999255,-2.571428511001578
17.042606516290725,0.6097282106446137,0.5734810315740191,-9.533189,-1.644406,-1.079527,0.074851,0.02153736296961002,-0.037000980142279705,-2.5711667116137793
18.045112781954884,0.6097280059174924,0.5734807662839728,-9.594903,-1.709965,-1.105843,0.056149,0.02129301687433082,-0.03387684078120978,-2.5707653731522826
19.047619047619047,0.6097277973506469,0.573480490696484,-9.655323,-1.778898,-1.127202,0.071841,0.009407324668249437,-0.03452261260444778,-2.5715158647306406
20.050125313283207,0.6097275840714123,0.5734802044624866,-9.738612,-1.842659,-1.169741,0.090711,0.015411257295109929,-0.03155555287605738,-2.5730168129807707
21.052631578947366,0.6097273620655314,0.5734799095018429,-9.823184,-1.892008,-1.22365,0.073387,0.011763519158441784,-0.02371902453460284,-2.5731739449733277
22.05513784461153,0.6097271287150104,0.573479608258014,-9.883005,-1.929875,-1.272012,0.044327,0.00874409955249159,-0.017994344588061484,-2.5713587327380836
23.05764411027569,0.6097268880341065,0.5734793017781975,-9.913194,-1.957867,-1.296763,0.018614,0.006387905062299247,-0.015830136315588605,-2.5697006524953965
24.06015037593985,0.609726646655071,0.5734789912841235,-9.932266,-1.988593,-1.287402,0.025218,0.006021385919380438,-0.018779742751458883,-2.571672717470517
25.062656641604008,0.6097264073704305,0.5734786753795289,-9.974678,-2.028331,-1.289765,0.054991,0.0033510321638291116,-0.01862266311877936,-2.57327861236857
26.065162907268167,0.6097261647696645,0.5734783537153477,-10.030821,-2.062031,-1.325649,0.047735,0.009546951008408982,-0.01096066770252424,-2.5742386656302143
27.06766917293233,0.609725916234779,0.5734780282114423,-10.059255,-2.078476,-1.357164,0.014326,0.002757620218151041,-0.004852015320544245,-2.573802176237583
28.07017543859649,0.6097256626384387,0.5734777000895428,-10.059829,-2.094964,-1.365241,-0.006223,0.002635447170511437,-0.003979350694546913,-2.573941732764572
29.07268170426065,0.6097254086930325,0.5734773690005838,-10.053238,-2.113537,-1.356245,0.004618,-0.000122173047639603,-0.004747295565424414,-2.5735752834348236
30.075187969924812,0.6097251550966922,0.5734770356426967,-10.071733,-2.134174,-1.371596,0.027844,0.004223696789826278,-0.004782202150464432,-2.573208554852395
31.07769423558897,0.609724899056891,0.5734766998413486,-10.096665,-2.14522,-1.394413,0.013292,0.0036826447217080346,0.0008552113334772127,-2.5738197517031507
32.08020050125313,0.6097246393518982,0.5734763631673359,-10.094581,-2.151195,-1.39771,-0.014773,-0.00010471975511966002,0.0037873644768278147,-2.5738892681672576
33.08270676691729,0.6097243805195701,0.5734760254461256,-10.072702,-2.154801,-1.38696,-0.016685,-0.002164208272472969,0.002460914245312029,-2.574430424955131
34.08521303258145,0.609724122036308,0.5734756872013165,-10.065295,-2.161566,-1.403173,0.006158,0.0017976891295541594,-0.00029670597283892874,-2.572929459251708
35.08771929824561,0.6097238605859859,0.5734753484329087,-10.060824,-2.169015,-1.419803,-0.018692,0.005166174585903215,0.0034557519189488684,-2.572231449723958
36.09022556390977,0.6097235991356641,0.5734750065229084,-10.033229,-2.176872,-1.400126,-0.027207,-0.005078908123303499,0.0008726646259973325,-2.5737497116402683
37.092731829573935,0.6097233394306714,0.5734746644383749,-10.024377,-2.185882,-1.395391,0.010251,-0.0014835298641951804,-0.004136430327226437,-2.5742035146990787
38.095238095238095,0.6097230786784811,0.5734743216557099,-10.038789,-2.192397,-1.421496,0.00922,0.0004014257279586958,-0.00026179938779913314,-2.573557969768644
39.097744360902254,0.6097228158318957,0.5734739774767813,-10.031045,-2.189756,-1.419224,-0.016439,-0.00015707963267948984,0.0029670597283903977,-2.573662637163886
40.100250626566414,0.6097225531598434,0.5734736348686492,-10.015676,-2.18045,-1.410961,-0.008058,0.0017627825445142731,-0.00027925268031903094,-2.573331076965885
41.10275689223057,0.6097222887424617,0.5734732945294451,-10.013307,-2.175904,-1.427453,-0.002446,-0.00481710873550435,-0.0026878070480711447,-2.5716032010064103
42.10526315789473,0.6097220238014812,0.573472954015708,-9.99754,-2.182926,-1.430473,-0.029595,0.001396263401595464,-0.0007504915783576038,-2.5698228779029133
43.10776942355889,0.6097217616530276,0.5734726112330429,-9.966201,-2.195793,-1.394958,-0.015112,0.0014311699866353502,-0.0054628805587422224,-2.5735228188375086
44.11027568922306,0.6097215036933642,0.5734722663559827,-9.98135,-2.197607,-1.403249,0.043309,-0.004276056667386108,-0.008970992355250784,-2.5738021762375833
45.11278195488722,0.6097212406722459,0.573471922700653,-10.016181,-2.189885,-1.447248,0.008502,0.004084070449666731,-0.0005410520681181641,-2.570189344685955
46.11528822055138,0.6097209732878045,0.5734715806161195,-9.997239,-2.177734,-1.432657,-0.035253,-0.0012391837689159741,0.00024434609527923534,-2.568042554799417
47.11779448621554,0.6097207095685545,0.5734712395787838,-9.977131,-2.176719,-1.408651,0.008855,-0.003316125578789226,-0.007504915783575594,-2.568164535860839
48.1203007518797,0.6097204458493045,0.5734708981923821,-10.001057,-2.191962,-1.428991,0.026563,0.004276056667386107,-0.004258603374866166,-2.5686883789825323
49.122807017543856,0.609720180908324,0.5734705548861182,-10.005371,-2.192588,-1.438148,-0.015482,-0.002809980095710871,0.0006283185307180972,-2.568566136121723
50.125313283208015,0.6097199154437449,0.5734702131506506,-9.988756,-2.1796,-1.427334,-0.011457,0.002146754979953025,-0.004223696789826148,-2.566628698478961
51.127819548872175,0.6097196503282314,0.5734698729859794,-9.991993,-2.169494,-1.436483,0.017984,0.00036651914291880905,-0.006876597252857497,-2.563661935456544
52.130325814536334,0.6097193841655205,0.5734695338685057,-10.003816,-2.174426,-1.450576,0.001885,-0.0030543261909900758,-0.0022340214425526916,-2.5620035759611763
53.1328320802005,0.6097191185264084,0.5734691947510321,-9.990672,-2.155877,-1.421441,-0.015829,0.01026253600172666,-0.00031415926535882654,-2.5626842892760386
54.13533834586466,0.6097188701660559,0.5734688744831143,-9.978151,-1.976983,-1.19853,-0.009461,-0.011868238913561441,-0.0008028514559172972,-2.669638170558007
55.13784461152882,0.6097186823686283,0.5734685561350588,-9.996627,-2.071893,-0.866567,0.041789,-0.0029146998508305304,-0.020525072003453326,-2.8476268127698035
56.14035087719298,0.6097185333175102,0.5734682529713676,-10.031375,-2.112096,-0.534916,0.032409,0.005619960191421742,-0.02832669375986785,-3.003955953870936
57.14285714285714,0.6097184706601899,0.5734679267693304,-10.066241,-2.134154,-0.188865,0.046829,-0.0012217304763960308,-0.03644247478164164,-3.137630668921304
58.1453634085213,0.609718466122334,0.5734675982983652,-10.121523,-2.113715,0.100492,0.070276,0.0006283185307179581,-0.03949680097263153,3.04320828657524
59.14786967418546,0.6097185130716908,0.5734672719217951,-10.203298,-2.069252,0.303355,0.091856,-0.005759586531581287,-0.04115486376202626,2.9712834949933566
60.150375939849624,0.6097185921351059,0.5734669535737396,-10.29411,-2.018594,0.435639,0.087558,0.012985249634837812,-0.04064871827894789,2.9251367801311163
61.152882205513784,0.6097186895244782,0.573466642207001,-10.374321,-1.987793,0.518216,0.074777,0.0056025068989017995,-0.03830997708127537,2.9035995218812616
62.15538847117794,0.6097187961640955,0.5734663345054538,-10.441871,-1.982561,0.560296,0.062439,0.006265732014659643,-0.03403392041388931,2.9024301338291325
63.1578947368421,0.60971890681797,0.573466026105775,-10.493917,-1.984725,0.56588,0.045262,0.0031066860685499066,-0.02675589743307305,2.915834087951524
64.16040100250626,0.6097190174718448,0.5734657163098329,-10.535041,-1.98758,0.548024,0.040699,0.008063421144213804,-0.019617500792416198,2.9401642046171275
65.16290726817043,0.6097191235878632,0.573465405466693,-10.572384,-1.990228,0.510042,0.033006,0.010768681484805013,-0.01204277183876079,2.9742329443495947
66.16541353383458,0.6097192188828403,0.5734650956707509,-10.60128,-1.994291,0.448112,0.024469,0.007766715171374767,-0.005899212871740778,3.0154054184837733
67.16791979949875,0.6097192995170517,0.5734647834313477,-10.622087,-2.012431,0.356871,0.016164,0.009983283321407561,-0.0012566370614357503,3.0603475943627494
68.1704260651629,0.6097193592073122,0.5734644671776872,-10.62983,-2.038917,0.253017,-0.005432,0.016004669240788007,0.003961897402027237,3.1027938621449116
69.17293233082707,0.609719401618813,0.5734641469097694,-10.606639,-2.04969,0.171594,-0.040376,0.008133234314293575,0.009651670763528797,3.1392711736984227
70.17543859649122,0.6097194304167457,0.57346382594372,-10.556034,-2.046657,0.124163,-0.055186,0.010506882097005864,0.013823007675795251,-3.1122712443293366
71.17794486215539,0.6097194503134992,0.5734635056758023,-10.510887,-2.045121,0.074197,-0.032114,0.01450368608407288,0.013962634015954656,-3.08343826546005
72.18045112781954,0.60971945991281,0.5734631852333516,-10.497552,-2.051243,-0.010581,-0.002907,0.01497492498211135,0.011100294042684089,-3.056560317152385
73.1829573934837,0.60971945275696,0.5734628651399668,-10.492826,-2.056793,-0.089374,-0.015811,0.015027284859671176,0.00989601685880781,-3.03867053523981
74.18546365914787,0.6097194311148775,0.5734625439993843,-10.463043,-2.05493,-0.131403,-0.044886,0.011030480872604161,0.009093165402890513,-3.029856797050164
75.18796992481202,0.6097194042368069,0.5734622228588021,-10.40535,-2.052399,-0.135672,-0.066295,0.007365289443416071,0.007051130178057141,-3.0274655563485915
76.19047619047619,0.6097193791040656,0.5734619018927526,-10.343021,-2.054938,-0.114596,-0.052801,0.005672320068981572,0.0031764992386298374,-3.0283382733344664
77.19298245614034,0.6097193588582464,0.5734615800540386,-10.314893,-2.06398,-0.104017,-0.004839,0.00413643032722656,-0.0016231562043547143,-3.031165741629282
78.19548872180451,0.6097193391360258,0.5734612582153245,-10.332035,-2.068702,-0.129971,0.028197,0.009494591130849151,-0.005148721293383174,-3.033818519919266
79.19799498746866,0.6097193152250151,0.5734609358530116,-10.360285,-2.056461,-0.155176,0.022402,0.006963863715457375,-0.006614797865058364,-3.041253535266299
80.20050125313283,0.6097192881724116,0.5734606145378964,-10.370508,-2.045865,-0.139113,-0.002285,0.007016223593017204,-0.008237954069413078,-3.0547975695144554
81.203007518797,0.6097192658321973,0.5734602953171762,-10.361099,-2.054062,-0.094702,-0.013289,0.002234021442552742,-0.010471975511965992,-3.0700516250038388
82.20551378446115,0.6097192522186291,0.5734599722567316,-10.347446,-2.071837,-0.05255,-0.011478,0.0008901179185171077,-0.009878563566287912,-3.0824608985322257
83.20802005012531,0.6097192468081084,0.5734596465782933,-10.343059,-2.082308,-0.023095,0.001384,0.00015707963267948965,-0.007906341511534354,-3.0926884930423277
84.21052631578947,0.6097192489025035,0.5734593196781244,-10.355122,-2.079194,-0.014526,0.015377,0.0015009831567151235,-0.0060737457969402,-3.1005248468508566
85.21303258145363,0.6097192499497011,0.5734589945232847,-10.369821,-2.065367,-0.001416,0.006772,0.002879793265790644,-0.004886921905584041,-3.1079776994628454
86.21553884711778,0.6097192553602218,0.5734586723355047,-10.376056,-2.051493,0.034526,0.00616,-0.0005759586531581289,-0.005009094953223769,-3.1137895236989386
87.21804511278195,0.6097192658321973,0.5734583527657187,-10.393556,-2.052344,0.043935,0.025243,0.012217304763960305,-0.0048171087355042275,-3.1140513056334456
88.22055137844612,0.609719273511646,0.5734580335449986,-10.420544,-2.058077,0.016951,0.021816,0.011449359893082803,-0.00293215314335038,-3.111538083870451
89.22305764411027,0.6097192782240349,0.5734577113572186,-10.429992,-2.064965,-0.003289,-0.009189,0.003525565089028546,3.4906585040017646e-05,-3.1104035674967774
90.22556390977444,0.6097192811910946,0.573457388122241,-10.401209,-2.070057,0.013012,-0.046802,0.001500983156715123,0.004433136300065588,-3.1104208811629572
91.22807017543859,0.6097192874742801,0.5734570647127307,-10.350019,-2.072406,0.043243,-0.05186,-0.0021642082724729686,0.007871434926494558,-3.108658412777708
92.23057644110276,0.6097193009133153,0.5734567407796215,-10.312311,-2.064526,0.060467,-0.022641,0.0024609142453120045,0.00951204442336917,-3.1044346287214193
93.23308270676691,0.6097193145268833,0.5734564182427758,-10.311448,-2.054278,0.030699,0.012978,0.0032812189937493396,0.00921533845053002,-3.0961268963885114
94.23558897243107,0.609719320111937,0.5734560969276605,-10.326758,-2.053088,-0.028775,0.002088,0.014102260356114183,0.010157816246607165,-3.087626898585204
95.23809523809523,0.6097193150504822,0.5734557749144136,-10.307899,-2.055929,-0.049836,-0.042646,0.004031710572106902,0.012566370614359279,-3.0852185885635466
96.2406015037594,0.6097193051021055,0.5734554548210287,-10.250449,-2.060253,-0.031913,-0.0664,-0.003874630939427411,0.014294246573833602,-3.0859863763547914
97.24310776942356,0.6097193002151835,0.5734551335059134,-10.187023,-2.063565,-0.011726,-0.057783,0.0016755160819145562,0.014276793281313704,-3.0861610838129163
98.24561403508771,0.6097193007387823,0.5734548104454689,-10.141159,-2.067606,-0.010729,-0.038254,0.0037699111843077513,0.01305506280491775,-3.085864412746662
99.24812030075188,0.6097193026586444,0.5734544875595573,-10.112738,-2.066772,-0.022325,-0.026856,0.005445427266222309,0.012322024519080044,-3.085934191010157
100.25062656641603,0.6097193003897164,0.5734541651972445,-10.089897,-2.057285,-0.03601,-0.025784,0.006003932626860495,0.010908307824964547,-3.08645775487917
101.2531328320802,0.6097192941065311,0.5734538444057279,-10.066199,-2.049838,-0.045859,-0.025998,0.002286381320112572,0.007627088831215323,-3.08727800726773
102.25563909774435,0.6097192879978787,0.5734535246614089,-10.039699,-2.056801,-0.034254,-0.030676,0.00450294947014537,0.003944444109507339,-3.0903496994847774
103.25814536340852,0.6097192845072201,0.5734532021245631,-10.012118,-2.07043,-0.010977,-0.028413,-0.000698131700797732,0.0016057029118348165,-3.0930549423720763
104.26065162907267,0.6097192853798848,0.5734528790641186,-9.987198,-2.069031,-0.000968,-0.024441,0.000174532925199433,0.001378810109075479,-3.09485284094114
105.26315789473684,0.6097192899177409,0.573452555829141,-9.96843,-2.051644,0.003722,-0.014174,0.004468042885105484,-3.49065850397956e-05,-3.0965804376479342
106.265664160401,0.6097192951537286,0.5734522331177625,-9.968588,-2.046835,-0.003803,0.009812,0.00614355896702004,-0.0040840704496667435,-3.0963538066445633
107.26817042606515,0.6097192948046628,0.5734519133734435,-9.985184,-2.059772,-0.030851,0.011842,0.0057421332390613445,-0.005305800926062698,-3.0937705448186863
108.27067669172932,0.6097192911394713,0.5734515925819269,-9.983006,-2.064444,-0.031616,-0.017955,0.0005585053606381855,-0.003926990816987219,-3.0944339270140766
109.27318295739347,0.6097192911394713,0.5734512702196141,-9.96039,-2.057639,0.003745,-0.022508,0.000174532925199433,-0.003944444109507117,-3.097941846824368
110.27568922305764,0.6097192935829323,0.5734509490790317,-9.948522,-2.057612,0.019767,-0.003498,0.00019198621771937622,-0.005235987755982885,-3.097383638169702
111.27819548872179,0.6097192995170517,0.5734506275893835,-9.952681,-2.057119,0.015591,0.004636,0.001361356816555577,-0.005654866776461542,-3.0944339270140766
112.28070175438596,0.609719305800237,0.5734503069724,-9.960752,-2.051704,0.003929,0.005787,0.0003839724354387525,-0.006195918844579706,-3.0912748810679673
113.28320802005013,0.6097193092908956,0.5734499879262127,-9.974779,-2.052377,-0.021418,0.014792,0.005689773361501514,-0.007208209810736443,-3.087504917523782
114.28571428571428,0.6097193049275725,0.5734496662620314,-9.987096,-2.059093,-0.040444,0.004743,0.008866272600131194,-0.00694641042293731,-3.085375720556104
115.28822055137844,0.6097192996915847,0.573449343201587,-9.985009,-2.059143,-0.027609,-0.010986,-0.0005759586531581288,-0.006544984694978773,-3.08645775487917
116.2907268170426,0.6097192963754592,0.5734490201411424,-9.975599,-2.053487,-0.002029,-0.008329,-0.00043633231299858234,-0.008150687606813367,-3.0880111851799077
117.29323308270676,0.609719298993453,0.5734486983024283,-9.976941,-2.054746,0.003605,0.006365,-6.98131700797731e-05,-0.010367255756846161,-3.08719067099196
118.29573934837092,0.6097193030077103,0.5734483768127802,-9.996167,-2.058918,-0.017464,0.023928,0.003106686068549907,-0.01216494488640052,-3.0854454988195985
119.29824561403508,0.6097192996915847,0.5734480544504673,-10.023881,-2.058285,-0.046592,0.024155,0.00577703982410123,-0.012182398178920417,-3.0845552063681563
120.30075187969925,0.6097192904413398,0.5734477315645556,-10.042578,-2.057328,-0.053677,0.00873,0.0057246799465414016,-0.011274826967883289,-3.0863528256845405
121.3032581453634,0.609719282761891,0.5734474104239733,-10.043728,-2.058032,-0.024353,-0.007202,0.0020594885173533086,-0.010070549784007232,-3.090733741733386
122.30576441102757,0.609719280492963,0.573447088934325,-10.038431,-2.056923,0.017179,-0.001278,-0.001727875959474386,-0.009477137838329153,-3.0942941086877
123.30827067669172,0.6097192857289507,0.5734467669210781,-10.05313,-2.0539,0.018058,0.028011,0.005427973973702366,-0.009808750396208099,-3.092863200500452
124.31077694235589,0.6097192899177409,0.5734464449078311,-10.093459,-2.058393,-0.025823,0.040185,0.006806784082777886,-0.009546951008408966,-3.0902975141401425
125.31328320802004,0.6097192862525495,0.5734461225455183,-10.124107,-2.059926,-0.052061,0.01388,0.003124139361069851,-0.00694641042293731,-3.091536680455766
126.3157894736842,0.6097192759551069,0.573445801404936,-10.124248,-2.058383,-0.037389,-0.016612,0.0028623399732707003,-0.003961897402027015,-3.0960920072567637
127.31829573934836,0.6097192681011252,0.5734454786935572,-10.101214,-2.055762,0.002656,-0.030291,-0.0024260076602721182,-0.0018675022996339496,-3.1014851793651816
128.32080200501252,0.6097192729880472,0.5734451568548431,-10.078903,-2.057238,0.033252,-0.014598,0.0005061454830783556,-0.002199114857512896,-3.1036838927969663
129.32330827067668,0.6097192824128251,0.5734448343179973,-10.081592,-2.063358,0.023762,0.013434,0.0013439035240356337,-0.0038048177693474905,-3.101066265438118
130.32581453634086,0.6097192900922739,0.5734445119556845,-10.104548,-2.062902,-0.001077,0.020893,0.003246312408709453,-0.00420624349730625,-3.0982387796900097
131.328320802005,0.6097192914885372,0.5734441904660363,-10.122749,-2.055812,-0.012101,0.00649,-0.0005759586531581288,-0.0034557519189486463,-3.097767401165631
132.33082706766916,0.6097192881724116,0.5734438701981185,-10.119446,-2.046792,-0.007729,-0.014547,0.008290313946973065,-0.0026179938779913314,-3.0983261334190715
133.33333333333331,0.6097192860780165,0.573443549581135,-10.103092,-2.048357,0.000123,-0.016744,0.004153883619746505,-0.003193952531149513,-3.0981863150926947
134.3358395989975,0.6097192878233457,0.5734432287896184,-10.093109,-2.060887,0.001754,-0.007245,0.00047123889803846896,-0.003926990816987219,-3.0974358409676293
135.33834586466165,0.6097192888705434,0.573442905554641,-10.088233,-2.066579,0.001754,-0.008594,0.002530727415391777,-0.002652900463031349,-3.0965282348500076
136.3408521303258,0.6097192920121359,0.5734425826687293,-10.082037,-2.056946,0.003241,-0.004797,0.006143558967020041,-0.002373647782712318,-3.095900003585752
137.34335839598998,0.6097192937574653,0.5734422610045482,-10.089135,-2.050414,-0.010046,0.011081,0.0033335788713091696,-0.003385938748868833,-3.094678133483016
138.34586466165413,0.6097192918376031,0.5734419412602292,-10.102578,-2.051812,-0.02979,0.005192,0.004555309347705201,-0.003665191429188086,-3.093386781822758
139.34837092731829,0.6097192886960104,0.5734416202941799,-10.094458,-2.05525,-0.024285,-0.025044,0.002164208272472969,-0.0025481807079117402,-3.094556169874886
140.35087719298244,0.6097192859034837,0.5734412970592023,-10.063784,-2.057126,0.001703,-0.033922,-8.726646259971646e-05,-0.0028099800957108734,-3.096545810315575
141.35338345864662,0.6097192874742801,0.5734409724279615,-10.044497,-2.062908,0.020735,-0.010731,1.7453292519943296e-05,-0.003316125578789242,-3.095900003585752
142.35588972431077,0.6097192970735908,0.573440649192984,-10.051608,-2.057977,0.019611,0.018272,-0.0004712388980384689,-0.0038746309394273037,-3.094817951809393
143.35839598997492,0.6097193040549078,0.5734403266561383,-10.082684,-2.047393,-0.016037,0.031939,0.003543018381548489,-0.005410520681182307,-3.092182487185589
144.36090225563908,0.6097192982953212,0.5734400072608852,-10.107232,-2.044638,-0.058373,0.00499,0.005567600313861909,-0.005986479334340489,-3.0904021640820925
145.36340852130326,0.6097192869506812,0.5734396894364283,-10.088235,-2.05028,-0.038716,-0.042739,0.0019024088846738192,-0.0058293997016609644,-3.0943990378823294
146.3659147869674,0.6097192843326873,0.5734393674231814,-10.043152,-2.058693,0.02921,-0.038117,-0.00502654824574367,-0.006510078109938755,-3.0985178927439883
147.36842105263156,0.6097192918376031,0.5734390448863356,-10.031799,-2.069741,0.047669,0.009685,-0.0022689280275926286,-0.006352998477259231,-3.09556816413507
148.37092731829574,0.6097193035313091,0.5734387204296276,-10.06009,-2.063321,0.002379,0.033555,0.00481710873550435,-0.004223696789826148,-3.090018139286776
149.3734335839599,0.6097193054511713,0.5734383975437161,-10.088501,-2.048022,-0.04661,0.013292,0.0022340214425527424,-0.003560471674068477,-3.087749403245401
150.37593984962405,0.6097192979462556,0.5734380767521995,-10.086694,-2.044501,-0.050414,-0.022886,0.0026703537555513236,-0.00439822971502557,-3.089895896425966
151.3784461152882,0.609719289743208,0.5734377568333475,-10.055343,-2.051792,-0.012705,-0.0377,0.0004188790204786392,-0.005393067388662409,-3.093194760698453
152.38095238095238,0.6097192899177409,0.5734374355182323,-10.030598,-2.059763,0.022278,-0.012536,-0.0016406094968746698,-0.005969026041820591,-3.094084791350508
153.38345864661653,0.609719298993453,0.5734371122832548,-10.039459,-2.058887,0.015898,0.021254,0.0010995574287564274,-0.006894050545377617,-3.0919555943828296
154.38596491228068,0.6097193044039737,0.5734367902700078,-10.070226,-2.051722,-0.015876,0.028317,0.003909537524467297,-0.008360127117052807,-3.090192584945513
155.38847117794487,0.6097193007387823,0.5734364668604974,-10.091641,-2.051975,-0.03649,0.003502,0.004590215932745088,-0.008499753457212211,-3.089895896425966
156.39097744360902,0.6097192956773274,0.5734361453708492,-10.082154,-2.055547,-0.01633,-0.024094,-0.001466076571675237,-0.006579891280018568,-3.092182487185589
157.39348370927317,0.6097192951537286,0.5734358244047999,-10.062636,-2.053429,0.010793,-0.010362,-0.002199114857512855,-0.005811946409141067,-3.092828049569317
158.39598997493732,0.6097192984698542,0.5734355022170198,-10.071128,-2.054602,-7.2e-05,0.018985,0.003316125578789226,-0.0055501470213419335,-3.0905068314773345
159.3984962406015,0.6097192998661176,0.5734351782839108,-10.090663,-2.054757,-0.025549,0.005377,0.0024783675378319482,-0.004380776422505672,-3.088552080168393
160.40100250626566,0.6097192963754592,0.5734348562706637,-10.08219,-2.052127,-0.015616,-0.025798,0.0009773843811168243,-0.0029845130209102955,-3.0898612865468995
161.4035087719298,0.6097192958518604,0.5734345332102192,-10.054955,-2.056832,0.009347,-0.026343,-0.0027925268031909283,-0.0020420352248333717,-3.0909606345361453
162.406015037594,0.6097192981207883,0.5734342085789783,-10.043079,-2.059565,0.010605,-0.001558,-0.0032637657012293967,-0.0016231562043547143,-3.0887265083738376
163.40852130325814,0.6097193009133153,0.5734338858675996,-10.053468,-2.060458,-0.011064,0.012522,0.0017278759594743863,-0.0009948376736366171,-3.085009271226355
164.4110275689223,0.6097193007387823,0.5734335636798197,-10.067178,-2.052022,-0.031533,0.008561,0.0061959188445798695,6.981317007981325e-05,-3.0845727818337236
165.41353383458645,0.6097192921866689,0.5734332427137703,-10.072213,-2.045853,-0.04513,-0.005134,0.0027052603405912103,8.726646259971105e-05,-3.0858468372810948
166.41604010025063,0.6097192820637592,0.5734329219222537,-10.059476,-2.047581,-0.037477,-0.02691,-0.001954768762233649,0.000279252680319253,-3.088238077982667
167.41854636591478,0.6097192759551069,0.5734326016543361,-10.029769,-2.05618,-0.00683,-0.03452,-0.00301941960595019,0.0002967059728391508,-3.0917111086612103
168.42105263157893,0.609719278049502,0.5734322789429573,-10.003957,-2.067675,0.015858,-0.018518,-0.0005410520681182421,0.0008901179185172303,-3.0935438963620223
169.4235588972431,0.6097192852053519,0.5734319539626506,-9.99816,-2.067885,0.013724,-0.000216,-0.0011170107212763712,0.001937315469713763,-3.0932821144275158
170.42606516290726,0.6097192899177409,0.5734316303786073,-10.004185,-2.051062,0.002388,0.003174,-0.001221730476396031,0.0024434609527921314,-3.0937881202842537
171.42857142857142,0.6097192902668068,0.5734313099361567,-10.011599,-2.038842,-0.011151,0.00319,0.002740166925631098,0.0009599310885970436,-3.0937705448186863
172.43107769423557,0.6097192866016153,0.573430991762634,-10.010479,-2.044393,-0.02808,-0.009982,0.005916666164260777,0.0,-3.0922871545808315
173.43358395989975,0.6097192813656276,0.5734306716692491,-9.994672,-2.057783,-0.026379,-0.024805,-0.0011868238913561443,0.0013613568165555812,-3.092967867895694
174.4360902255639,0.6097192799693643,0.5734303486088046,-9.966496,-2.06324,-0.00037,-0.032414,-0.006562437987498679,0.0038920842319474236,-3.0963189175128156
175.43859649122805,0.6097192838090886,0.5734300236284979,-9.940967,-2.059673,0.023106,-0.020874,-0.0028972465583105875,0.0040840704496667435,-3.0979769977555027
176.44110275689223,0.6097192907904055,0.5734296991717899,-9.927851,-2.049218,0.020469,-0.010407,0.0017104226669544427,0.004572762640225214,-3.0963013420472483
177.4436090225564,0.609719296549992,0.5734293780312075,-9.924717,-2.045485,-0.004234,-0.004815,0.006736970912698111,0.0033335788713091397,-3.09335161343833
178.44611528822054,0.6097192956773274,0.5734290572396911,-9.915283,-2.050119,-0.025495,-0.022687,-0.001308996938995747,0.002094395102393287,-3.0912048410050845
179.4486215538847,0.6097192909649385,0.5734287360991087,-9.885963,-2.053199,-0.013193,-0.035316,-0.004904375198104066,-0.00026179938779913314,-3.0909606345361453
180.45112781954887,0.6097192888705434,0.5734284123405324,-9.86097,-2.060994,0.006594,-0.016384,-0.0030368728984701333,-0.0030717794835100065,-3.09033240327189
181.45363408521303,0.6097192907904055,0.5734280882328904,-9.860316,-2.063177,0.001837,0.00872,0.0043982297150257105,-0.004276056667386063,-3.088412523641404
182.45614035087718,0.6097192925357348,0.5734277656960446,-9.873843,-2.055995,-0.027285,0.00893,0.0032812189937493396,-0.004660029102824703,-3.087260431802162
183.45864661654133,0.6097192883469446,0.5734274464753244,-9.876469,-2.045763,-0.04056,-0.00763,0.0006108652381980153,-0.005934119456780573,-3.0884823019048984
184.4611528822055,0.6097192815401604,0.5734271263819396,-9.868823,-2.042927,-0.028266,-0.007724,0.002408554367752175,-0.008272860654453096,-3.0908559671409037
185.46365914786966,0.6097192757805739,0.5734268052413571,-9.872671,-2.051679,-0.015427,0.010903,0.002932153143350474,-0.010000736613927419,-3.0928980896321994
186.46616541353382,0.609719275606041,0.5734264823554455,-9.891022,-2.061237,-0.01378,0.018441,-0.002111848394913138,-0.01038470904936628,-3.094939932870815
187.468671679198,0.6097192764787057,0.5734261568515401,-9.904852,-2.069652,-0.019024,-0.000627,0.00041887902047863906,-0.00909316540289029,-3.097034502506133
188.47117794486215,0.6097192775259032,0.5734258309985687,-9.891469,-2.061309,0.00787,-0.023954,0.0006632251157578452,-0.006352998477259231,-3.1008044835036115
189.4736842105263,0.6097192824128251,0.5734255070654596,-9.878078,-2.049128,0.042783,0.001573,-0.006684611035138284,-0.006230825429619724,-3.1026543056179228
190.47619047619045,0.6097192916630702,0.5734251857503443,-9.905923,-2.046346,0.028331,0.045906,0.0024434609527920616,-0.006684611035138177,-3.098867028407557
191.47869674185463,0.6097192975971897,0.5734248649588278,-9.959905,-2.050403,-0.027649,0.044923,0.006370451769779303,-0.00548033385126212,-3.0943814624167616
192.4812030075188,0.6097192914885372,0.5734245429455808,-9.980985,-2.051632,-0.057533,-0.010749,0.002949606435870417,-0.0025132741228717226,-3.0953937359296257
193.48370927318294,0.6097192810165617,0.5734242204087351,-9.940641,-2.054513,-0.017424,-0.062869,-0.004241150082346221,0.0009599310885970436,-3.100141083854928
194.48621553884712,0.609719280492963,0.5734238985700209,-9.883037,-2.061371,0.051659,-0.044885,-0.006161012259539981,0.0030543261909901087,-3.102322745419921
195.48872180451127,0.6097192949791956,0.5734235758586422,-9.86709,-2.061935,0.060785,0.004868,-0.00010471975511965977,0.00422369678982637,-3.0977847148318105
196.49122807017542,0.6097193133051528,0.5734232514019343,-9.890291,-2.050107,0.007738,0.023881,0.006824237375297828,0.004188790204786352,-3.0912399919362197
197.49373433583958,0.6097193152250151,0.5734229314830824,-9.906378,-2.038891,-0.047422,-0.003677,0.00471238898038469,0.004049163864626948,-3.0866497760034743
198.49624060150376,0.6097193044039737,0.5734226122623622,-9.8856,-2.042937,-0.057909,-0.04008,0.002303834612632515,0.0038048177693477125,-3.0863182158054734
199.4987468671679,0.6097192920121359,0.5734222914708458,-9.837019,-2.059561,-0.024957,-0.054553,-0.001658062789394613,0.003228859116189531,-3.089145422300901
200.50125313283206,0.6097192913140043,0.5734219692830659,-9.789369,-2.069662,0.013693,-0.041302,-0.003996803987067015,0.003490658503988664,-3.090803781796269
201.50375939849624,0.6097192970735908,0.5734216434300944,-9.76952,-2.056839,0.015513,0.001476,0.0011170107212763712,0.002495820830352047,-3.0895643362279652
202.5062656641604,0.6097192993425189,0.5734213198460512,-9.790442,-2.044808,-0.033787,0.027451,0.0066322511575784525,0.0006806784082777906,-3.086405290281855
203.50877192982455,0.6097192913140043,0.5734209971346724,-9.801888,-2.044969,-0.064558,-0.015556,0.0018849555921538756,0.0003141592653590486,-3.0877142348609734
204.5112781954887,0.6097192787476337,0.57342067599409,-9.760716,-2.048638,-0.030104,-0.060462,0.0022165681500327986,0.00043633231299855524,-3.0932296498302008
205.51378446115288,0.6097192724644485,0.5734203522355138,-9.706753,-2.058266,0.012505,-0.039814,-0.00466002910282486,-0.0013089969389956657,-3.096842219582441
206.51629072681703,0.6097192763041728,0.5734200277788059,-9.691169,-2.063087,0.019691,0.003446,0.0005585053606381856,-0.0027925268031909756,-3.098256093356189
207.51879699248119,0.6097192834600227,0.5734197010531699,-9.708613,-2.060101,0.005099,0.019289,0.0024085543677521753,-0.0037175513067477794,-3.0979245331581877
208.52130325814534,0.6097192869506812,0.5734193753747314,-9.723765,-2.053921,-0.011198,0.002094,-0.0013962634015954641,-0.003857177646907406,-3.097732529487176
209.52380952380952,0.6097192841581545,0.573419052139754,-9.711467,-2.054456,-0.011618,-0.031807,0.004276056667386106,-0.003682644721707984,-3.0979769977555027
210.52631578947367,0.609719285030819,0.5734187297774411,-9.673117,-2.046064,0.026673,-0.031425,-0.003473205211468716,-0.0037873644768275927,-3.0998793019204216
211.52882205513782,0.6097192923612018,0.5734184096840562,-9.671327,-2.046225,0.027851,0.026538,5.2359877559829855e-05,-0.006143558967020013,-3.0969295733115034
212.531328320802,0.6097192948046628,0.5734180887180069,-9.713744,-2.056765,-0.020717,0.039579,0.008063421144213804,-0.006667157742618279,-3.0924442865733885
213.53383458646616,0.6097192916630702,0.5734177646103648,-9.726108,-2.057955,-0.035148,-0.021107,-2.710547442114853e-20,-0.005567600313861831,-3.0925662501815174
214.5363408521303,0.6097192853798848,0.5734174408517886,-9.685012,-2.054028,0.012115,-0.052097,-0.006248278722139699,-0.005777039824101271,-3.0957252961276276
215.53884711779446,0.6097192876488128,0.5734171197112061,-9.649155,-2.050619,0.051018,-0.011787,-0.000541052068118242,-0.006510078109938755,-3.0946435236039487
216.54135338345864,0.609719296724525,0.5734167969998274,-9.6696,-2.056346,0.0201,0.042704,0.0016057029118347833,-0.007312929565856274,-3.0883254317117292
217.5438596491228,0.6097193019605127,0.5734164735903171,-9.715529,-2.054432,-0.028789,0.035868,0.0036826447217080346,-0.005759586531581151,-3.0837525294451638
218.54636591478695,0.6097192963754592,0.5734161498317408,-9.73397,-2.047229,-0.036621,-0.004669,0.0007853981633974483,-0.0055501470213419335,-3.084747471838556
219.54887218045113,0.6097192883469446,0.5734158281675598,-9.720283,-2.041212,-0.014933,-0.016346,-0.0020594885173533086,-0.007173303225696648,-3.087225821923095
220.55137844611528,0.6097192853798848,0.5734155077251091,-9.709489,-2.051149,-0.007627,-0.007324,0.000767944870877505,-0.008115781021773572,-3.0882729671144142
221.55388471177943,0.6097192874742801,0.5734151841410657,-9.701564,-2.057996,0.001016,-0.013691,-0.0006981317007977317,-0.007208209810736443,-3.089442372619836
222.55639097744358,0.6097192914885372,0.5734148605570223,-9.690997,-2.052559,0.022815,-0.004843,-0.004886921905584124,-0.007243116395776461,-3.0892500896961432
223.55889724310777,0.6097192963754592,0.5734145362748474,-9.705231,-2.050496,0.013001,0.030538,0.002670353755551324,-0.010594148559605499,-3.085969080141904
224.56140350877192,0.6097192979462556,0.573414210421876,-9.749002,-2.055617,-0.028393,0.044827,0.003944444109507186,-0.012688543661998786,-3.082338655671416
225.56390977443607,0.6097192928848006,0.5734138852670364,-9.781837,-2.057607,-0.043147,0.013561,0.00010471975511965983,-0.011798425743481555,-3.0834206899944823
226.56641604010025,0.6097192839836215,0.573413564126454,-9.7793,-2.049696,-0.015823,-0.015068,-0.0004363323129985825,-0.010314895879286468,-3.087731810326541
227.5689223057644,0.609719282761891,0.573413242113207,-9.76483,-2.044665,0.019199,-0.008654,-0.0016755160819145562,-0.009983283321407521,-3.090471942345587
228.57142857142856,0.6097192862525495,0.5734129190527625,-9.771331,-2.045341,0.023116,0.021943,0.0027227136331111545,-0.010786134777324818,-3.0890061450265924
229.5739348370927,0.6097192913140043,0.5734125966904496,-9.809861,-2.051932,-0.008179,0.045908,0.005288347633542819,-0.0105766952670856,-3.085026584892535
230.5764411027569,0.6097192890450762,0.5734122739790709,-9.850614,-2.058511,-0.040216,0.02496,-0.0015533430342749533,-0.007609635538695203,-3.08425851784861
231.57894736842104,0.6097192818892263,0.5734119502204946,-9.852224,-2.054918,-0.03067,-0.025183,-0.005445427266222308,-0.002949606435870278,-3.0880111851799077
232.5814536340852,0.6097192801438971,0.5734116276836488,-9.813808,-2.050054,0.017853,-0.043026,-0.0036651914291880917,-0.0008726646259971105,-3.092042668859212
233.58395989974937,0.6097192876488128,0.5734113051468032,-9.783139,-2.051206,0.049464,-0.014171,0.0005235987755982989,-0.0018849555921538474,-3.091536680455766
234.58646616541353,0.6097193007387823,0.5734109815627598,-9.794235,-2.050062,0.029272,0.027765,0.0019024088846738196,-0.0018675022996339496,-3.0868242216622113
235.58897243107768,0.6097193071965005,0.5734106585023153,-9.834804,-2.045909,-0.03022,0.039449,0.00546288055874225,-0.0011693705988360392,-3.081465938685541
236.59147869674183,0.6097192962009262,0.5734103345692061,-9.85733,-2.05058,-0.069975,-0.007416,0.004468042885105484,0.0010471975511967546,-3.0814313113531817
237.593984962406,0.6097192817146934,0.5734100118578274,-9.818173,-2.054909,-0.034474,-0.063212,-0.001029744258676654,0.0035081117965085618,-3.0867022406007893
238.59649122807016,0.609719275606041,0.5734096856557902,-9.752332,-2.061852,0.033421,-0.057127,-0.007190756518216636,0.004939281783143956,-3.0906466498037117
239.59899749373432,0.6097192841581545,0.5734093606754835,-9.717699,-2.058257,0.051591,-0.014186,-0.0019722220547535915,0.005864306286700982,-3.089145422300901
240.6015037593985,0.6097193010878481,0.5734090355206439,-9.72451,-2.045726,0.019664,0.0158,0.006143558967020039,0.0051836278784231915,-3.08497412029522
241.60401002506265,0.6097193068474347,0.5734087133328639,-9.745448,-2.039261,-0.024694,0.012866,0.004921828490624009,0.003560471674068477,-3.0812566038950573
242.6065162907268,0.6097192996915847,0.5734083946357424,-9.748046,-2.044131,-0.040238,-0.011358,0.0026529004630313807,0.0030543261909901087,-3.0803663114436146
243.60902255639095,0.6097192885214775,0.5734080729715614,-9.723602,-2.059779,-0.033371,-0.03775,-0.0024260076602721182,0.003979350694547135,-3.0815532924146036
244.61152882205513,0.6097192825873581,0.5734077474676559,-9.677378,-2.065303,-0.013556,-0.053783,-0.0023212879051524586,0.006597344572538688,-3.0837525294451638
245.6140350877193,0.6097192818892263,0.5734074210910858,-9.6275,-2.057498,0.017222,-0.044535,-0.005305800926062761,0.007312929565856274,-3.0862308620764107
246.61654135338344,0.6097192881724116,0.5734070966343777,-9.603905,-2.042982,0.036562,-0.003835,-0.003717551306747922,0.004049163864626948,-3.0863182158054734
247.6190476190476,0.6097192949791956,0.5734067761919271,-9.622904,-2.039936,0.006205,0.029199,0.006649704450098396,-0.0007679448708775016,-3.0821817854782467
248.62155388471177,0.6097192970735908,0.5734064555749435,-9.650039,-2.051112,-0.042816,0.012251,0.007801621756414652,-0.003193952531149513,-3.0785164893293033
249.62406015037593,0.6097192883469446,0.5734061314673015,-9.638996,-2.060938,-0.047669,-0.032201,-0.0036128315516282617,-0.0026354471705114513,-3.0801745695719904
250.62656641604008,0.6097192782240349,0.5734058056143302,-9.598837,-2.06225,-0.008742,-0.042647,-0.005375614096142535,-0.0017104226669544254,-3.0853930342222835
251.62907268170426,0.6097192782240349,0.5734054781905624,-9.56547,-2.051475,0.04191,-0.01593,-0.00752236907609556,-0.00146607657167519,-3.0886743055759105
252.6315789473684,0.6097192890450762,0.5734051554791838,-9.580306,-2.042482,0.038455,0.041025,0.007661995416255108,-0.003595378259108273,-3.0853056804932213
253.63408521303256,0.6097192972481238,0.5734048348622001,-9.63657,-2.047019,-0.027611,0.056429,0.009669124056048589,-0.0049043751981039385,-3.080139680440243
254.63659147869672,0.6097192892196092,0.5734045118017557,-9.667927,-2.055584,-0.075753,-0.003281,0.003577924966588376,-0.002827433388230771,-3.0799652347815063
255.6390977443609,0.609719273686179,0.573404186472383,-9.62851,-2.057536,-0.036407,-0.065231,-0.0045204027626653135,0.0008203047484374171,-3.08740025012854
256.64160401002505,0.6097192679265924,0.5734038613175434,-9.566933,-2.05821,0.040702,-0.043494,-0.0065275314024587925,0.0009424777960769237,-3.0932296498302008
257.64411027568923,0.6097192768277716,0.5734035375589671,-9.557104,-2.054009,0.061359,0.021003,0.0030019663134302466,0.0001396263401596265,-3.0910828773969548
258.64661654135335,0.6097192921866689,0.5734032139749239,-9.605469,-2.04435,0.0034,0.059287,0.005899212871740833,-0.0017278759594743232,-3.085969080141904
259.64912280701753,0.6097192948046628,0.573402891612611,-9.650527,-2.043238,-0.06488,0.013211,0.0028623399732707008,-0.0026878070480711447,-3.084136292441092
260.6516290726817,0.6097192818892263,0.573402569424831,-9.622273,-2.047275,-0.03758,-0.063064,-0.00036651914291880916,-0.002007128639793354,-3.0904370532138397
261.65413533834584,0.6097192761296398,0.5734022458407878,-9.55206,-2.054996,0.048407,-0.056846,-0.009843656981248016,-0.00165806278939451,-3.0946608372701285
262.65664160401,0.6097192867761483,0.5734019215586127,-9.5372,-2.060125,0.05488,0.025936,0.0029146998508305304,-0.001378810109075479,-3.089704154554342
263.65914786967414,0.6097192970735908,0.5734015962292401,-9.587153,-2.056381,-0.030223,0.052585,0.004712388980384691,-0.00027925268031903094,-3.0817104069538677
264.6616541353383,0.6097192932338665,0.5734012738669273,-9.617331,-2.044635,-0.06728,-0.003843,0.0015009831567151233,0.0005061454830783685,-3.0834731545917973
265.6641604010025,0.6097192783985679,0.5734009577877998,-9.580603,-1.930913,-0.003397,-0.065935,0.01059414855960558,0.0009599310885970436,3.109216603979081
266.66666666666663,0.6097193051021055,0.5734006661432818,-9.521915,-1.748622,0.392248,-0.046339,0.060021872976085,-0.004852015320544245,2.8405409330863387
267.6691729323308,0.609719378405934,0.5734004184810609,-9.505716,-1.498669,0.795319,0.007275,-0.003560471674068432,0.0005585053606382839,2.5568375759081983
268.671679197995,0.6097195225701303,0.5734002151502031,-9.531956,-1.237116,1.091565,0.047103,0.01171115928088195,-0.0006632251157578928,2.3117932093018543
269.6741854636591,0.6097197396890892,0.5734000517873851,-9.565472,-0.952719,1.319631,0.013382,0.022759093446006056,-0.0016755160819144077,2.0960531826358824
270.6766917293233,0.6097200110877878,0.5733999318832655,-9.566458,-0.660756,1.530967,-0.011289,-0.045902159327450856,-0.016510814723866396,1.9065453150010456
271.6791979949875,0.6097203177421374,0.5733998524707845,-9.550941,-0.379556,1.730274,-0.017404,0.02614503219487506,-0.02146754979953025,1.737614879247222
272.6817042606516,0.6097206666334548,0.573399818611397,-9.522923,-0.100405,1.906913,-0.025553,0.0014311699866353476,-0.01813397092822111,1.5798196441211223
273.6842105263158,0.6097210460680342,0.5733998264653787,-9.518025,0.188161,2.01298,0.014076,0.0070336768855371505,-0.015009831567151188,1.4316237896941613
274.68671679197996,0.6097214403379123,0.5733998756836636,-9.560806,0.4733,2.035144,0.061214,0.019460421159736778,-0.012287117934040026,1.2938998758725813
275.6892230576441,0.6097218309425989,0.5733999690587785,-9.633663,0.736762,1.988249,0.078845,0.012060225131280817,-0.013980087308474554,1.1707843329836087
276.69172932330827,0.6097222009524004,0.5734000990858078,-9.701832,0.9478,1.87673,0.055307,-0.0004363323129985832,-0.0180467044656214,1.0716670673095583
277.6942355889724,0.6097225479238556,0.5734002607032965,-9.740252,1.119386,1.796986,0.01639,0.005986479334340552,-0.01921607506445744,0.9954310855824458
278.69674185463657,0.6097228774420184,0.5734004490243229,-9.73452,1.234358,1.750243,-0.023559,-0.0002967059728390366,-0.015550883635269352,0.9366483440153993
279.69924812030075,0.6097231987571337,0.5734006535769112,-9.706664,1.308593,1.701435,-0.022321,-0.0036477381366681488,-0.010559241974565703,0.8887565791538451
280.7017543859649,0.6097235137890636,0.5734008649362835,-9.704261,1.361748,1.630285,0.016846,-0.0010471975511965976,-0.006300638599699537,0.8509177886107305
281.70426065162906,0.609723813985695,0.5734010801353804,-9.74237,1.402649,1.5438,0.049222,-0.00132645023151569,-0.004869468613064143,0.8239350332814831
282.70676691729324,0.6097240944601058,0.5734013010940636,-9.795782,1.439785,1.475038,0.044484,0.006632251157578452,-0.005497787143782018,0.8072322148866049
283.70927318295736,0.6097243614954814,0.5734015285104651,-9.829033,1.469771,1.447793,0.015792,0.011239920382843483,-0.006632251157578484,0.7986801539117101
284.71177944862154,0.6097246262619289,0.5734017583703277,-9.832086,1.493915,1.44803,-0.008408,0.0095120444233691,-0.005724679946541356,0.7951196298777641
285.7142857142857,0.6097248950426336,0.5734019939897768,-9.814459,1.517332,1.449992,-0.024538,0.0014660765716752364,-0.001553343034274901,0.7938979168546608
286.71679197994985,0.6097251666158653,0.5734022318781538,-9.787566,1.525998,1.447837,-0.026715,0.001727875959474386,0.002583087292951758,0.794281871836807
287.719298245614,0.6097254395853603,0.5734024697665308,-9.768775,1.513465,1.451371,-0.011921,0.004852015320544237,0.004398229715025792,0.7965508173176921
288.72180451127815,0.6097257137765858,0.5734027025934529,-9.764446,1.491587,1.450899,-0.000545,0.005916666164260779,0.004433136300065588,0.798435738003261
289.72431077694233,0.609725983953554,0.5734029324533155,-9.77004,1.483903,1.437148,0.006992,0.00635299847725936,0.002373647782712318,0.7993083851759654
290.7268170426065,0.6097262527342587,0.5734031612659805,-9.78183,1.499938,1.421216,0.011386,0.007888888219014371,-0.0002268928027591155,0.799936756066561
291.72932330827064,0.6097265175007064,0.5734033953146331,-9.790318,1.519713,1.418679,-0.001375,0.0030717794835100204,-0.0006632251157578928,0.8024151585109782
292.7318295739348,0.6097267834888843,0.5734036326794114,-9.779853,1.519705,1.425234,-0.022144,-0.00041887902047863917,0.0004712388980385729,0.8058883288158617
293.734335839599,0.6097270517459903,0.5734038710913871,-9.754228,1.50594,1.439376,-0.025972,0.00773180858633488,0.0004712388980385729,0.8099025686421562
294.7368421052631,0.6097273245409525,0.5734041046164412,-9.736957,1.494234,1.459089,-0.009637,0.007836528341454542,0.00040142572795875964,0.8131140093724107
295.7393483709273,0.609727601001106,0.5734043343017706,-9.737189,1.488669,1.463897,0.004583,0.0013788101090755204,0.0016929693744345276,0.8144579128964462
296.7418546365915,0.6097278758904631,0.5734045643361662,-9.74277,1.486666,1.444252,0.002561,0.0030194196059501904,0.002844886680750891,0.8136899156656915
297.7443609022556,0.6097281460674313,0.573404793148831,-9.743676,1.48771,1.429273,-0.001739,0.0033684854563490563,-0.00031415926535882654,0.813079067880786
298.7468671679198,0.6097284139754715,0.5734050226596277,-9.743406,1.493969,1.436728,-0.002013,0.004782202150464463,-0.004153883619746335,0.8138645009507682
299.74937343358397,0.6097286846760386,0.573405255312017,-9.741655,1.498595,1.450323,-0.005355,0.0030019663134302475,-0.0033335788713091397,0.8150862139738718
300.7518796992481,0.60972895921633,0.5734054876153404,-9.735178,1.493611,1.456734,-0.008941,0.0015533430342749535,-0.0008901179185170083,0.8159763144390965
301.7543859649123,0.6097292362000822,0.5734057181733346,-9.728546,1.485306,1.455793,-0.005737,0.006579891280018623,-0.00010471975511960885,0.8161508124577108
302.7568922305764,0.6097295116130381,0.5734059475095983,-9.728216,1.481055,1.449952,0.003879,0.005375614096142534,-0.001012290966156737,0.8156970792120696
303.7593984962406,0.6097297852806648,0.5734061761477304,-9.737511,1.48805,1.442951,0.011488,0.0012915436464758037,-0.002286381320112607,0.8140913937535276
304.76190476190476,0.6097300570284294,0.573406408101988,-9.745206,1.500474,1.437687,-0.000367,0.003246312408709453,-0.0014486232791552922,0.8125030917743351
305.7644110275689,0.6097303294743256,0.5734066414525089,-9.734454,1.500173,1.441396,-0.019559,0.0011344640137963143,6.981317007981325e-05,0.8116129913091106
306.76691729323306,0.6097306031419524,0.573406874628497,-9.71294,1.488078,1.452669,-0.021376,0.006073745796940267,0.002199114857512896,0.8110370850158299
307.76942355889724,0.6097308794275729,0.5734071062336887,-9.701368,1.478609,1.453861,-0.001154,0.005794493116621174,0.003490658503988664,0.8100073058505683
308.77192982456137,0.6097311551895946,0.573407334173689,-9.709927,1.485819,1.439651,0.01403,0.001256637061435917,0.003124139361069922,0.8073893468791618
309.77443609022555,0.6097314271118922,0.5734075656043479,-9.722863,1.50312,1.423647,0.005061,0.001867502299633932,0.0025481807079117402,0.8043000791965468
310.77694235588973,0.6097316944963337,0.5734077991294018,-9.71521,1.516371,1.418613,-0.023197,0.005864306286700946,0.002862339973270789,0.8025547150379676
311.77944862155385,0.6097319632770384,0.5734080333525873,-9.682912,1.512476,1.433692,-0.037605,0.006387905062299245,0.003979350694547135,0.8034623211555896
312.78195488721803,0.6097322369446652,0.573408267575773,-9.650465,1.5018,1.449398,-0.022566,0.0024958208303518907,0.005567600313862053,0.8041604703096797
313.7844611528822,0.6097325104377589,0.5734085000536293,-9.640984,1.497432,1.445202,0.000549,0.0016406094968746694,0.0072954762733363765,0.8025198259062201
314.78696741854634,0.6097327835817868,0.5734087311352223,-9.646063,1.495637,1.422394,0.002495,0.0019024088846738183,0.007278022980816479,0.8006000160889037
315.7894736842105,0.6097330493954319,0.5734089608205519,-9.645678,1.497921,1.405102,-0.008554,0.003368485456349056,0.004345869837465877,0.7984008488715135
316.79197994987464,0.6097333141618795,0.5734091932984083,-9.631539,1.508425,1.415652,-0.022209,0.006824237375297829,0.00146607657167519,0.7963064712224129
317.7944862155388,0.609733581546321,0.5734094262998634,-9.601107,1.506458,1.411605,-0.038629,0.015114551322270896,0.0050963614158234805,0.7455697847735229
318.796992481203,0.6097338456146366,0.5734096704714258,-9.562817,1.633066,1.356351,-0.031702,0.0065100781099388496,0.008115781021773794,0.665110036443414
319.79949874686713,0.6097341109046829,0.5734099090579344,-9.542797,1.678483,1.262909,-0.008348,-0.0124965574442794,0.008587019919812144,0.6161710565773707
320.8020050125313,0.6097343519346528,0.5734101741734479,-9.540717,1.709242,1.182773,-0.002903,-0.003787364476827695,0.006894050545377617,0.5899387928264808
321.8045112781955,0.6097345692281446,0.5734104433032186,-9.532579,1.721994,1.142414,-0.019418,-0.0019024088846738194,0.005410520681182529,0.5861339226972556
322.8070175438596,0.6097347776204572,0.5734107124329891,-9.508348,1.718857,1.141819,-0.028912,0.0005585053606381856,0.004764748857944534,0.5981243346584568
323.8095238095238,0.6097349889798297,0.5734109794683647,-9.48051,1.71332,1.162177,-0.025171,0.007644542123735163,0.0030543261909901087,0.6196616627214818
324.812030075188,0.6097352064478545,0.573411247027339,-9.458777,1.703831,1.191077,-0.019855,0.0033684854563490567,0.0012566370614359723,0.6441661377793597
325.8145363408521,0.6097354303735975,0.57341151319005,-9.445378,1.690911,1.213568,-0.009659,0.0051661745859032165,0.0005934119456780795,0.664708628168748
326.8170426065163,0.6097356611061245,0.5734117756875695,-9.440138,1.680467,1.221158,-0.005809,0.0015533430342749537,0.0013439035240356834,0.6761405173160182
327.8195488721804,0.609735893583981,0.5734120355670951,-9.431823,1.664962,1.226154,-0.014626,0.007278022980816353,0.0014486232791552922,0.6735924064212766
328.8220551378446,0.6097361274581008,0.5734122923050281,-9.414172,1.654715,1.226451,-0.019832,0.00820304748437335,-0.0013439035240354613,0.649000699807384
329.82456140350877,0.6097363608086217,0.5734125485193623,-9.401386,1.680925,1.201969,-0.005576,0.008098327729253691,-0.005113814708343378,0.5980021092509396
330.8270676691729,0.6097365890976879,0.5734128089224867,-9.40559,1.758653,1.123295,0.013047,0.01000073661392751,-0.007784168463894625,0.5208411728334402
331.8295739348371,0.6097367999334615,0.5734130836373109,-9.418904,1.860176,0.990878,0.010659,0.0091106186954104,-0.008237954069413078,0.4231899837310651
332.83208020050125,0.6097369845892964,0.5734133761544936,-9.415821,1.939182,0.836824,-0.015428,0.004660029102824859,-0.007452555906015679,0.3097086932196863
333.8345864661654,0.6097371374801388,0.5734136789691189,-9.393967,1.98428,0.6804,-0.018064,0.01064650843716541,-0.00832522053201279,0.18463838156848014
334.83709273182956,0.6097372596531866,0.5734139877178634,-9.389673,2.032926,0.488097,0.018231,0.010855947947404732,-0.011519173063162524,0.04972443038931846
335.83959899749374,0.6097373383675357,0.5734143034479251,-9.418168,2.094395,0.219447,0.036422,0.008150687606813518,-0.012025318546240893,-0.09433502861700063
336.84210526315786,0.6097373655946721,0.5734146280791661,-9.442813,2.109834,-0.06321,0.009788,0.006754424205218056,-0.008901179185170971,-0.2392493324376555
337.84461152882204,0.609737340461931,0.573414952361341,-9.448671,2.068208,-0.311844,0.002474,0.0027401669256310974,-0.0073827427359358655,-0.3827681582548766
338.8471177944862,0.6097372662854377,0.5734152689640674,-9.463997,1.99661,-0.565148,0.024033,0.007504915783575617,-0.008080874436733776,-0.5274385174059797
339.84962406015035,0.6097371451595875,0.5734155717786926,-9.494914,1.895138,-0.83566,0.032111,0.002740166925631098,-0.00694641042293731,-0.67189955921989
340.8521303258145,0.6097369749899856,0.5734158552201631,-9.512048,1.755762,-1.080073,0.003267,-0.001466076571675237,-0.004642575810304805,-0.8112292283131819
341.85463659147865,0.6097367604890205,0.5734161170195509,-9.514142,1.595051,-1.288161,0.004341,0.0008726646259971649,-0.003769911184307695,-0.9465098208083103
342.85714285714283,0.6097365061945483,0.5734163503700719,-9.522889,1.417416,-1.475209,0.017961,-0.0011344640137963147,-0.003839724354387508,-1.0722429910561317
343.859649122807,0.6097362197860181,0.5734165563189236,-9.548916,1.233093,-1.639342,0.035813,0.0006981317007977317,-0.004066617157146624,-1.18340280167614
344.86215538847114,0.609735905103154,0.5734167336443756,-9.577577,1.038703,-1.764837,0.01348,-0.0045204027626653135,-0.0002268928027591155,-1.2801985874588209
345.8646616541353,0.609735569301806,0.5734168767613743,-9.575087,0.843118,-1.83104,-0.015088,0.0005235987755982985,0.004345869837465877,-1.3638005393077575
346.8671679197995,0.6097352245992786,0.5734169914295062,-9.562803,0.692036,-1.878424,-0.003758,0.015673056682909078,0.003682644721707984,-1.4359695373585792
347.8696741854636,0.6097348697738417,0.5734170832338248,-9.574385,0.552856,-1.946787,0.01919,0.01509709802975095,0.0034557519189488684,-1.5048228985228038
348.8721804511278,0.6097345067453573,0.5734171535705938,-9.590034,0.406776,-2.005393,0.005797,0.0049567350756638965,0.006387905062299248,-1.5671659023244084
349.874686716792,0.6097341309759694,0.5734172057559384,-9.577694,0.285935,-2.026117,-0.034771,0.0008726646259971653,0.012130038301360724,-1.6187406784268135
350.8771929824561,0.6097337545084497,0.5734172380445295,-9.521273,0.164056,-2.006488,-0.067692,0.00036651914291880954,0.015515977050229557,-1.6640144145037914
351.8796992481203,0.6097333824042532,0.5734172493891696,-9.468321,0.054734,-2.008325,-0.030329,0.0009773843811168245,0.012304571226560146,-1.6983446918246692
352.88220551378447,0.6097330104745896,0.5734172488655709,-9.464041,-0.008953,-2.04644,0.010587,-0.0005061454830783553,0.009878563566287912,-1.7191844641455492
353.8847117794486,0.6097326308654774,0.573417236822799,-9.468006,-0.048734,-2.061327,-0.016918,-0.0035604716740684325,0.01176351915844176,-1.73389736284706
354.8872180451128,0.6097322482893053,0.573417220591237,-9.432487,-0.083143,-2.0345,-0.049004,-0.006003932626860493,0.01185078562104147,-1.743444261495591
355.8897243107769,0.6097318714727198,0.573417204010609,-9.388834,-0.114522,-2.025527,-0.035556,0.0001570796326794891,0.007312929565856274,-1.7462017071808165
356.8922305764411,0.6097314984958585,0.5734171816703947,-9.359402,-0.140866,-2.033265,-0.026596,0.0005410520681182417,0.004694935687864721,-1.743182741360471
357.89473684210526,0.6097311235991353,0.5734171549668571,-9.338421,-0.128433,-2.038483,-0.015035,0.001029744258676654,0.0021467549799529806,-1.7327633875254542
358.8972431077694,0.6097307431173583,0.5734171341974389,-9.333619,-0.092013,-2.059102,0.000386,0.004345869837465879,-0.0014835298641950878,-1.7176483475109912
359.89974937343356,0.6097303586213242,0.5734171169186794,-9.331507,-0.088856,-2.067981,-0.007762,-0.003368485456349057,-0.0020594885173532695,-1.7065131468832688
360.90225563909775,0.6097299758706192,0.5734171041777758,-9.319586,-0.075233,-2.05255,-0.010636,-0.004258603374866164,-0.002094395102393065,-1.693946758815616
361.90476190476187,0.6097295938180459,0.5734170963237942,-9.320539,-0.0266,-2.050939,0.01185,0.00986111027376796,-0.004468042885105383,-1.6783784393411196
362.90726817042605,0.609729211067341,0.573417092135004,-9.328949,0.00891,-2.05206,-0.006259,0.012356931104119855,-0.0055501470213419335,-1.6679761373728932
363.90977443609023,0.6097288349488872,0.5734170951020637,-9.313389,0.023261,-2.020964,-0.014537,0.01884955592153876,-0.011885692206081266,-1.6619898849313552
364.91228070175436,0.6097284591794991,0.5734170999889856,-9.319154,0.021674,-2.027246,0.02982,0.008726646259971653,-0.021921335405048703,-1.6589006172487406
365.91478696741854,0.6097280846318417,0.5734171036541771,-9.366699,0.02993,-2.055432,0.061607,0.007173303225696694,-0.026616271092913424,-1.6551306537045551
366.91729323308266,0.6097277029283343,0.5734171092392306,-9.427208,0.046449,-2.067713,0.050569,0.005445427266222304,-0.026406831582674206,-1.6526001182753802
367.91979949874684,0.6097273189558988,0.5734171165696135,-9.465134,0.062415,-2.045425,0.028328,0.009564404300928926,-0.025464353786597282,-1.6531753613435456
368.922305764411,0.6097269410921158,0.5734171256453257,-9.492352,0.042076,-2.022405,0.028852,0.008255407361933177,-0.026825710603152864,-1.6597560205684356
369.92481203007515,0.609726564973662,0.5734171305322475,-9.525466,0.022957,-2.016247,0.038173,0.010419615634406148,-0.027680921936630076,-1.6640666173017187
370.9273182957393,0.6097261878080107,0.5734171345465048,-9.581459,0.029967,-2.037334,0.073878,0.014381513036433277,-0.02892010570554593,-1.664451183149103
371.9298245614035,0.6097258069771678,0.5734171355937024,-9.659244,0.036132,-2.072019,0.07284,-0.0006632251157578418,-0.024836035255879185,-1.665898881403755
372.93233082706763,0.6097254219575349,0.5734171392588938,-9.707752,0.031558,-2.066474,0.022711,0.0034732052114687167,-0.016406094968746565,-1.6690584509486401
373.9348370927318,0.6097250413012251,0.5734171424004865,-9.704123,0.009657,-2.0178,-0.015787,0.00710349005561692,-0.011152653920243782,-1.6735613131523224
374.937343358396,0.6097246700696931,0.5734171430986182,-9.706411,-0.003959,-2.00594,0.029063,0.011955505376161154,-0.014206980111233669,-1.6776455406816226
375.9398496240601,0.6097242983145624,0.5734171417023547,-9.757477,0.000325,-2.048348,0.05749,0.011327186845443203,-0.014556045961632735,-1.6788492942667228
376.9423558897243,0.609723918879983,0.5734171424004865,-9.801086,0.014434,-2.064285,0.027497,0.0025132741228718366,-0.010855947947404632,-1.6790415771904157
