Time [s],Longitude [rad],Latitude [rad],Altitude [m],V North [m/s],V East [m/s],V Down [m/s],Roll [rad],Pitch [rad],Yaw [rad]
0.0,0.5734839021170399,0.6097300519669746,-6.111891,-1.13986,-0.099866,0.526628,-0.02118829711921116,0.34040901730897405,3.41976329958582
1.0025062656641603,0.5734837286313121,0.6097300186311859,-6.58656,-1.060675,-0.288946,0.439063,0.06462954220135002,0.3446327140988003,3.5781694523099947
2.0050125313283207,0.5734835708535478,0.6097299551012011,-6.999248,-0.958091,-0.421653,0.4085,-0.05005604294719737,0.35473818792114,3.743277442469026
3.007518796992481,0.5734834317508064,0.609729866613008,-7.409154,-0.82556,-0.529422,0.429158,-0.018727382873899155,0.32930872326629007,3.9014391094715823
4.010025062656641,0.573483313766549,0.6097297578789956,-7.835239,-0.702043,-0.653715,0.40326,-0.07785913793146705,0.2097013096271187,3.9767501190550147
5.012531328320802,0.5734832071269317,0.6097296275029005,-8.175602,-0.679313,-0.744877,0.253539,-0.10573204608581648,0.09707521299592461,3.9148782319784012
6.015037593984962,0.5734831032798413,0.60972949084362,-8.368189,-0.719222,-0.695153,0.136613,-0.000890117918517108,0.07044148861049113,3.7695098458462555
7.017543859649122,0.5734829907061045,0.6097293665761773,-8.47162,-0.789528,-0.576377,0.079769,0.06270968002415626,0.06042329870404369,3.6159905975743722
8.020050125313283,0.5734828622498714,0.6097292711066673,-8.538614,-0.888788,-0.425847,0.065811,-0.01567305668290908,0.04300491276914028,3.4684754390089814
9.022556390977442,0.5734827170384778,0.6097292065294849,-8.614151,-1.032624,-0.289299,0.086906,-0.07531095722355532,0.03340560188317147,3.357943859653228
10.025062656641603,0.5734825416328879,0.609729159580128,-8.711001,-1.169316,-0.253527,0.098983,0.019774580425095754,0.050160762702317035,3.375362263041424
11.027568922305765,0.5734823540099933,0.6097291087910468,-8.80182,-1.202333,-0.354016,0.076557,0.08724900930719653,0.06640977803838424,3.5158959475192044
12.030075187969924,0.5734821594057817,0.6097290332182901,-8.867803,-1.229193,-0.562395,0.076129,0.03427826650916863,0.08646361114379908,3.6637951308799113
13.032581453634084,0.5734819599146482,0.6097289197718888,-8.96297,-1.281389,-0.730324,0.118225,0.05789257128865191,0.09414305985257414,3.726365044937568
14.035087719298245,0.5734817506496709,0.6097287710698365,-9.103214,-1.371467,-0.853801,0.164144,0.0341037335839692,0.08920377806943018,3.7312170602581127
15.037593984962406,0.5734815265493949,0.6097285977586419,-9.275985,-1.478646,-0.947773,0.172444,0.023719024534602937,0.06995279641993273,3.7184589128655436
16.040100250626566,0.5734812860430241,0.6097284096121484,-9.431458,-1.574626,-1.023871,0.130731,0.02768092193663007,0.04944517770899936,3.7117567961780082
17.042606516290725,0.5734810315740191,0.6097282106446137,-9.533189,-1.644406,-1.079527,0.074851,0.021537362969610025,0.03700098014227979,3.7120185955658074
18.045112781954884,0.5734807662839728,0.6097280059174924,-9.594903,-1.709965,-1.105843,0.056149,0.02129301687433082,0.033876840781209935,3.7124199340273036
19.047619047619047,0.573480490696484,0.6097277973506469,-9.655323,-1.778898,-1.127202,0.071841,0.009407324668249437,0.03452261260444784,3.711669442448946
20.050125313283207,0.5734802044624866,0.6097275840714123,-9.738612,-1.842659,-1.169741,0.090711,0.01541125729510993,0.03155555287605748,3.710168494198816
21.052631578947366,0.5734799095018429,0.6097273620655314,-9.823184,-1.892008,-1.22365,0.073387,0.011763519158441782,0.023719024534602937,3.710011362206259
22.05513784461153,0.573479608258014,0.6097271287150104,-9.883005,-1.929875,-1.272012,0.044327,0.00874409955249159,0.017994344588061536,3.711826574441503
23.05764411027569,0.5734793017781975,0.6097268880341065,-9.913194,-1.957867,-1.296763,0.018614,0.006387905062299246,0.01583013631558857,3.71348465468419
24.06015037593985,0.5734789912841235,0.609726646655071,-9.932266,-1.988593,-1.287402,0.025218,0.006021385919380436,0.018779742751458987,3.7115125897090695
25.062656641604008,0.5734786753795289,0.6097264073704305,-9.974678,-2.028331,-1.289765,0.054991,0.003351032163829113,0.018622663118779494,3.7099066948110164
26.065162907268167,0.5734783537153477,0.6097261647696645,-10.030821,-2.062031,-1.325649,0.047735,0.009546951008408983,0.01096066770252439,3.7089466415493724
27.06766917293233,0.5734780282114423,0.609725916234779,-10.059255,-2.078476,-1.357164,0.014326,0.0027576202181510408,0.0048520153205442364,3.7093831309420033
28.07017543859649,0.5734777000895428,0.6097256626384387,-10.059829,-2.094964,-1.365241,-0.006223,0.0026354471705114374,0.003979350694547071,3.709243574415014
29.07268170426065,0.5734773690005838,0.6097254086930325,-10.053238,-2.113537,-1.356245,0.004618,-0.00012217304763960306,0.004747295565424576,3.7096100237447627
30.075187969924812,0.5734770356426967,0.6097251550966922,-10.071733,-2.134174,-1.371596,0.027844,0.004223696789826277,0.004782202150464463,3.709976752327192
31.07769423558897,0.5734766998413486,0.609724899056891,-10.096665,-2.14522,-1.394413,0.013292,0.003682644721708035,-0.0008552113334772215,3.709365555476436
32.08020050125313,0.5734763631673359,0.6097246393518982,-10.094581,-2.151195,-1.39771,-0.014773,-0.00010471975511965978,-0.003787364476827695,3.7092960390123286
33.08270676691729,0.5734760254461256,0.6097243805195701,-10.072702,-2.154801,-1.38696,-0.016685,-0.0021642082724729686,-0.0024609142453120045,3.7087548822244556
34.08521303258145,0.5734756872013165,0.609724122036308,-10.065295,-2.161566,-1.403173,0.006158,0.0017976891295541594,0.000296705972839036,3.710255847927878
35.08771929824561,0.5734753484329087,0.6097238605859859,-10.060824,-2.169015,-1.419803,-0.018692,0.005166174585903215,-0.0034557519189487725,3.7109538574556282
36.09022556390977,0.5734750065229084,0.6097235991356641,-10.033229,-2.176872,-1.400126,-0.027207,-0.0050789081233034985,-0.0008726646259971648,3.7094355955393183
37.092731829573935,0.5734746644383749,0.6097233394306714,-10.024377,-2.185882,-1.395391,0.010251,-0.0014835298641951802,0.004136430327226561,3.7089817924805075
38.095238095238095,0.5734743216557099,0.6097230786784811,-10.038789,-2.192397,-1.421496,0.00922,0.0004014257279586958,0.0002617993877991494,3.709627337410942
39.097744360902254,0.5734739774767813,0.6097228158318957,-10.031045,-2.189756,-1.419224,-0.016439,-0.00015707963267948965,-0.0029670597283903604,3.7095226700157005
40.100250626566414,0.5734736348686492,0.6097225531598434,-10.015676,-2.18045,-1.410961,-0.008058,0.001762782544514273,0.00027925268031909274,3.709854230213702
41.10275689223057,0.5734732945294451,0.6097222887424617,-10.013307,-2.175904,-1.427453,-0.002446,-0.00481710873550435,0.0026878070480712674,3.7115821061731764
42.10526315789473,0.573472954015708,0.6097220238014812,-9.99754,-2.182926,-1.430473,-0.029595,0.0013962634015954637,0.0007504915783575617,3.713362429276673
43.10776942355889,0.5734726112330429,0.6097217616530276,-9.966201,-2.195793,-1.394958,-0.015112,0.0014311699866353504,0.005462880558742251,3.7096624883420777
44.11027568922306,0.5734722663559827,0.6097215036933642,-9.98135,-2.197607,-1.403249,0.043309,-0.004276056667386108,0.008970992355250854,3.7093831309420033
45.11278195488722,0.573471922700653,0.6097212406722459,-10.016181,-2.189885,-1.447248,0.008502,0.004084070449666731,0.0005410520681182421,3.7129959624936317
46.11528822055138,0.5734715806161195,0.6097209732878045,-9.997239,-2.177734,-1.432657,-0.035253,-0.001239183768915974,-0.0002443460952792061,3.71514275238017
47.11779448621554,0.5734712395787838,0.6097207095685545,-9.977131,-2.176719,-1.408651,0.008855,-0.0033161255787892262,0.007504915783575617,3.7150207713187475
48.1203007518797,0.5734708981923821,0.6097204458493045,-10.001057,-2.191962,-1.428991,0.026563,0.004276056667386108,0.004258603374866164,3.7144969281970543
49.122807017543856,0.5734705548861182,0.609720180908324,-10.005371,-2.192588,-1.438148,-0.015482,-0.0028099800957108708,-0.0006283185307179586,3.7146191710578638
50.125313283208015,0.5734702131506506,0.6097199154437449,-9.988756,-2.1796,-1.427334,-0.011457,0.0021467549799530253,0.004223696789826277,3.716556608700625
51.127819548872175,0.5734698729859794,0.6097196503282314,-9.991993,-2.169494,-1.436483,0.017984,0.0003665191429188092,0.006876597252857658,3.7195233717230427
52.130325814536334,0.5734695338685057,0.6097193841655205,-10.003816,-2.174426,-1.450576,0.001885,-0.0030543261909900766,0.002234021442552742,3.7211817312184103
53.1328320802005,0.5734691947510321,0.6097191185264084,-9.990672,-2.155877,-1.421441,-0.015829,0.010262536001726658,0.0003141592653589793,3.7205010179035476
54.13533834586466,0.5734688744831143,0.6097188701660559,-9.978151,-1.976983,-1.19853,-0.009461,-0.011868238913561441,0.0008028514559173916,3.61354713662158
55.13784461152882,0.5734685561350588,0.6097186823686283,-9.996627,-2.071893,-0.866567,0.041789,-0.0029146998508305304,0.020525072003453316,3.4355584944097832
56.14035087719298,0.5734682529713676,0.6097185333175102,-10.031375,-2.112096,-0.534916,0.032409,0.0056199601914217415,0.028326693759867967,3.2792293533086507
57.14285714285714,0.5734679267693304,0.6097184706601899,-10.066241,-2.134154,-0.188865,0.046829,-0.0012217304763960308,0.0364424747816416,3.145554638258283
58.1453634085213,0.5734675982983652,0.609718466122334,-10.121523,-2.113715,0.100492,0.070276,0.0006283185307179586,0.039496800972631675,3.04320828657524
59.14786967418546,0.5734672719217951,0.6097185130716908,-10.203298,-2.069252,0.303355,0.091856,-0.005759586531581287,0.04115486376202629,2.9712834949933566
60.150375939849624,0.5734669535737396,0.6097185921351059,-10.29411,-2.018594,0.435639,0.087558,0.012985249634837812,0.04064871827894794,2.9251367801311163
61.152882205513784,0.573466642207001,0.6097186895244782,-10.374321,-1.987793,0.518216,0.074777,0.005602506898901798,0.03830997708127553,2.9035995218812616
62.15538847117794,0.5734663345054538,0.6097187961640955,-10.441871,-1.982561,0.560296,0.062439,0.006265732014659643,0.034033920413889425,2.9024301338291325
63.1578947368421,0.573466026105775,0.60971890681797,-10.493917,-1.984725,0.56588,0.045262,0.0031066860685499066,0.02675589743307307,2.915834087951524
64.16040100250626,0.5734657163098329,0.6097190174718448,-10.535041,-1.98758,0.548024,0.040699,0.008063421144213804,0.019617500792416268,2.9401642046171275
65.16290726817043,0.573465405466693,0.6097191235878632,-10.572384,-1.990228,0.510042,0.033006,0.010768681484805013,0.012042771838760872,2.9742329443495947
66.16541353383458,0.5734650956707509,0.6097192188828403,-10.60128,-1.994291,0.448112,0.024469,0.007766715171374766,0.005899212871740834,3.0154054184837733
67.16791979949875,0.5734647834313477,0.6097192995170517,-10.622087,-2.012431,0.356871,0.016164,0.009983283321407565,0.0012566370614359172,3.0603475943627494
68.1704260651629,0.5734644671776872,0.6097193592073122,-10.62983,-2.038917,0.253017,-0.005432,0.016004669240788003,-0.003961897402027128,3.1027938621449116
69.17293233082707,0.5734641469097694,0.609719401618813,-10.606639,-2.04969,0.171594,-0.040376,0.008133234314293577,-0.009651670763528642,3.1392711736984227
70.17543859649122,0.57346382594372,0.6097194304167457,-10.556034,-2.046657,0.124163,-0.055186,0.010506882097005864,-0.01382300767579509,3.17091406285025
71.17794486215539,0.5734635056758023,0.6097194503134992,-10.510887,-2.045121,0.074197,-0.032114,0.014503686084072877,-0.013962634015954637,3.1997470417195366
72.18045112781954,0.5734631852333516,0.60971945991281,-10.497552,-2.051243,-0.010581,-0.002907,0.014974924982111348,-0.011100294042683936,3.2266249900272017
73.1829573934837,0.5734628651399668,0.60971945275696,-10.492826,-2.056793,-0.089374,-0.015811,0.015027284859671176,-0.009896016858807848,3.2445147719397767
74.18546365914787,0.5734625439993843,0.6097194311148775,-10.463043,-2.05493,-0.131403,-0.044886,0.011030480872604163,-0.009093165402890457,3.2533285101294225
75.18796992481202,0.5734622228588021,0.6097194042368069,-10.40535,-2.052399,-0.135672,-0.066295,0.00736528944341607,-0.007051130178057092,3.255719750830995
76.19047619047619,0.5734619018927526,0.6097193791040656,-10.343021,-2.054938,-0.114596,-0.052801,0.005672320068981571,-0.0031764992386296795,3.2548470338451203
77.19298245614034,0.5734615800540386,0.6097193588582464,-10.314893,-2.06398,-0.104017,-0.004839,0.004136430327226561,0.0016231562043547264,3.2520195655503046
78.19548872180451,0.5734612582153245,0.6097193391360258,-10.332035,-2.068702,-0.129971,0.028197,0.009494591130849153,0.005148721293383272,3.2493667872603207
79.19799498746866,0.5734609358530116,0.6097193152250151,-10.360285,-2.056461,-0.155176,0.022402,0.0069638637154573755,0.006614797865058509,3.2419317719132876
80.20050125313283,0.5734606145378964,0.6097192881724116,-10.370508,-2.045865,-0.139113,-0.002285,0.007016223593017205,0.008237954069413234,3.2283877376651313
81.203007518797,0.5734602953171762,0.6097192658321973,-10.361099,-2.054062,-0.094702,-0.013289,0.002234021442552742,0.010471975511965976,3.213133682175748
82.20551378446115,0.5734599722567316,0.6097192522186291,-10.347446,-2.071837,-0.05255,-0.011478,0.000890117918517108,0.009878563566287904,3.200724408647361
83.20802005012531,0.5734596465782933,0.6097192468081084,-10.343059,-2.082308,-0.023095,0.001384,0.00015707963267948965,0.007906341511534314,3.190496814137259
84.21052631578947,0.5734593196781244,0.6097192489025035,-10.355122,-2.079194,-0.014526,0.015377,0.0015009831567151233,0.006073745796940267,3.18266046032873
85.21303258145363,0.5734589945232847,0.6097192499497011,-10.369821,-2.065367,-0.001416,0.006772,0.0028797932657906437,0.004886921905584123,3.1752076077167413
86.21553884711778,0.5734586723355047,0.6097192553602218,-10.376056,-2.051493,0.034526,0.00616,-0.0005759586531581288,0.005009094953223725,3.169395783480648
87.21804511278195,0.5734583527657187,0.6097192658321973,-10.393556,-2.052344,0.043935,0.025243,0.012217304763960306,0.00481710873550435,3.169134001546141
88.22055137844612,0.5734580335449986,0.609719273511646,-10.420544,-2.058077,0.016951,0.021816,0.011449359893082803,0.0029321531433504737,3.1716472233091357
89.22305764411027,0.5734577113572186,0.6097192782240349,-10.429992,-2.064965,-0.003289,-0.009189,0.003525565089028546,-3.490658503988659e-05,3.1727817396828093
90.22556390977444,0.573457388122241,0.6097192811910946,-10.401209,-2.070057,0.013012,-0.046802,0.0015009831567151233,-0.004433136300065597,3.1727644260166294
91.22807017543859,0.5734570647127307,0.6097192874742801,-10.350019,-2.072406,0.043243,-0.05186,-0.0021642082724729686,-0.007871434926494426,3.1745268944018785
92.23057644110276,0.5734567407796215,0.6097193009133153,-10.312311,-2.064526,0.060467,-0.022641,0.0024609142453120045,-0.009512044423369097,3.1787506784581674
93.23308270676691,0.5734564182427758,0.6097193145268833,-10.311448,-2.054278,0.030699,0.012978,0.0032812189937493396,-0.009215338450530061,3.1870584107910753
94.23558897243107,0.5734560969276605,0.609719320111937,-10.326758,-2.053088,-0.028775,0.002088,0.014102260356114183,-0.010157816246606997,3.195558408594383
95.23809523809523,0.5734557749144136,0.6097193150504822,-10.307899,-2.055929,-0.049836,-0.042646,0.004031710572106902,-0.012566370614359171,3.19796671861604
96.2406015037594,0.5734554548210287,0.6097193051021055,-10.250449,-2.060253,-0.031913,-0.0664,-0.0038746309394274117,-0.014294246573833559,3.1971989308247952
97.24310776942356,0.5734551335059134,0.6097193002151835,-10.187023,-2.063565,-0.011726,-0.057783,0.0016755160819145565,-0.014276793281313614,3.1970242233666704
98.24561403508771,0.5734548104454689,0.6097193007387823,-10.141159,-2.067606,-0.010729,-0.038254,0.0037699111843077517,-0.013055062804917585,3.1973208944329246
99.24812030075188,0.5734544875595573,0.6097193026586444,-10.112738,-2.066772,-0.022325,-0.026856,0.005445427266222308,-0.012322024519079966,3.1972511161694297
100.25062656641603,0.5734541651972445,0.6097193003897164,-10.089897,-2.057285,-0.03601,-0.025784,0.006003932626860493,-0.01090830782496456,3.1967275523004166
101.2531328320802,0.5734538444057279,0.6097192941065311,-10.066199,-2.049838,-0.045859,-0.025998,0.002286381320112572,-0.0076270888312152205,3.1959072999118567
102.25563909774435,0.5734535246614089,0.6097192879978787,-10.039699,-2.056801,-0.034254,-0.030676,0.0045029494701453706,-0.003944444109507185,3.1928356076948092
103.25814536340852,0.5734532021245631,0.6097192845072201,-10.012118,-2.07043,-0.010977,-0.028413,-0.0006981317007977319,-0.0016057029118347831,3.1901303648075103
104.26065162907267,0.5734528790641186,0.6097192853798848,-9.987198,-2.069031,-0.000968,-0.024441,0.00017453292519943296,-0.0013788101090755204,3.1883324662384465
105.26315789473684,0.573452555829141,0.6097192899177409,-9.96843,-2.051644,0.003722,-0.014174,0.004468042885105484,3.490658503988659e-05,3.1866048695316525
106.265664160401,0.5734522331177625,0.6097192951537286,-9.968588,-2.046835,-0.003803,0.009812,0.00614355896702004,0.004084070449666731,3.1868315005350234
107.26817042606515,0.5734519133734435,0.6097192948046628,-9.985184,-2.059772,-0.030851,0.011842,0.0057421332390613445,0.0053058009260627615,3.1894147623609004
108.27067669172932,0.5734515925819269,0.6097192911394713,-9.983006,-2.064444,-0.031616,-0.017955,0.0005585053606381855,0.003926990816987242,3.18875138016551
109.27318295739347,0.5734512702196141,0.6097192911394713,-9.96039,-2.057639,0.003745,-0.022508,0.00017453292519943296,0.003944444109507185,3.1852434603552187
110.27568922305764,0.5734509490790317,0.6097192935829323,-9.948522,-2.057612,0.019767,-0.003498,0.00019198621771937625,0.005235987755982988,3.1858016690098845
111.27819548872179,0.5734506275893835,0.6097192995170517,-9.952681,-2.057119,0.015591,0.004636,0.001361356816555577,0.005654866776461628,3.18875138016551
112.28070175438596,0.5734503069724,0.609719305800237,-9.960752,-2.051704,0.003929,0.005787,0.0003839724354387525,0.0061959188445798695,3.1919104261116193
113.28320802005013,0.5734499879262127,0.6097193092908956,-9.974779,-2.052377,-0.021418,0.014792,0.005689773361501515,0.0072082098107365804,3.195680389655805
114.28571428571428,0.5734496662620314,0.6097193049275725,-9.987096,-2.059093,-0.040444,0.004743,0.008866272600131194,0.006946410422937432,3.1978095866234826
115.28822055137844,0.573449343201587,0.6097192996915847,-9.985009,-2.059143,-0.027609,-0.010986,-0.0005759586531581288,0.006544984694978736,3.1967275523004166
116.2907268170426,0.5734490201411424,0.6097192963754592,-9.975599,-2.053487,-0.002029,-0.008329,-0.0004363323129985824,0.00815068760681352,3.195174121999679
117.29323308270676,0.5734486983024283,0.609719298993453,-9.976941,-2.054746,0.003605,0.006365,-6.981317007977319e-05,0.010367255756846317,3.195994636187627
118.29573934837092,0.5734483768127802,0.6097193030077103,-9.996167,-2.058918,-0.017464,0.023928,0.0031066860685499066,0.012164944886400476,3.197739808359988
119.29824561403508,0.5734480544504673,0.6097192996915847,-10.023881,-2.058285,-0.046592,0.024155,0.005777039824101231,0.012182398178920419,3.1986301008114304
120.30075187969925,0.5734477315645556,0.6097192904413398,-10.042578,-2.057328,-0.053677,0.00873,0.0057246799465414016,0.011274826967883369,3.196832481495046
121.3032581453634,0.5734474104239733,0.609719282761891,-10.043728,-2.058032,-0.024353,-0.007202,0.0020594885173533086,0.01007054978400728,3.1924515654462007
122.30576441102757,0.573447088934325,0.609719280492963,-10.038431,-2.056923,0.017179,-0.001278,-0.0017278759594743863,0.00947713783832921,3.188891198491887
123.30827067669172,0.5734467669210781,0.6097192857289507,-10.05313,-2.0539,0.018058,0.028011,0.005427973973702365,0.009808750396208134,3.1903221066791345
124.31077694235589,0.5734464449078311,0.6097192899177409,-10.093459,-2.058393,-0.025823,0.040185,0.006806784082777886,0.009546951008408983,3.192887793039444
125.31328320802004,0.5734461225455183,0.6097192862525495,-10.124107,-2.059926,-0.052061,0.01388,0.00312413936106985,0.006946410422937432,3.1916486267238207
126.3157894736842,0.573445801404936,0.6097192759551069,-10.124248,-2.058383,-0.037389,-0.016612,0.0028623399732707008,0.003961897402027128,3.187093299922823
127.31829573934836,0.5734454786935572,0.6097192681011252,-10.101214,-2.055762,0.002656,-0.030291,-0.0024260076602721182,0.0018675022996339325,3.181700127814405
128.32080200501252,0.5734451568548431,0.6097192729880472,-10.078903,-2.057238,0.033252,-0.014598,0.0005061454830783556,0.0021991148575128553,3.1795014143826204
129.32330827067668,0.5734448343179973,0.6097192824128251,-10.081592,-2.063358,0.023762,0.013434,0.0013439035240356337,0.0038048177693476384,3.1821190417414686
130.32581453634086,0.5734445119556845,0.6097192900922739,-10.104548,-2.062902,-0.001077,0.020893,0.003246312408709453,0.004206243497306334,3.184946527489577
131.328320802005,0.5734441904660363,0.6097192914885372,-10.122749,-2.055812,-0.012101,0.00649,-0.0005759586531581288,0.0034557519189487725,3.1854179060139556
132.33082706766916,0.5734438701981185,0.6097192881724116,-10.119446,-2.046792,-0.007729,-0.014547,0.008290313946973065,0.002617993877991494,3.184859173760515
133.33333333333331,0.573443549581135,0.6097192860780165,-10.103092,-2.048357,0.000123,-0.016744,0.004153883619746504,0.003193952531149623,3.184998992086892
134.3358395989975,0.5734432287896184,0.6097192878233457,-10.093109,-2.060887,0.001754,-0.007245,0.00047123889803846896,0.003926990816987242,3.1857494662119574
135.33834586466165,0.573442905554641,0.6097192888705434,-10.088233,-2.066579,0.001754,-0.008594,0.002530727415391778,0.0026529004630313807,3.186657072329579
136.3408521303258,0.5734425826687293,0.6097192920121359,-10.082037,-2.056946,0.003241,-0.004797,0.00614355896702004,0.002373647782712288,3.1872853035938347
137.34335839598998,0.5734422610045482,0.6097192937574653,-10.089135,-2.050414,-0.010046,0.011081,0.0033335788713091696,0.0033859387488689996,3.188507173696571
138.34586466165413,0.5734419412602292,0.6097192918376031,-10.102578,-2.051812,-0.02979,0.005192,0.0045553093477052,0.003665191429188092,3.189798525356829
139.34837092731829,0.5734416202941799,0.6097192886960104,-10.094458,-2.05525,-0.024285,-0.025044,0.0021642082724729686,0.002548180707911721,3.1886291373047007
140.35087719298244,0.5734412970592023,0.6097192859034837,-10.063784,-2.057126,0.001703,-0.033922,-8.726646259971648e-05,0.0028099800957108708,3.1866394968640117
141.35338345864662,0.5734409724279615,0.6097192874742801,-10.044497,-2.062908,0.020735,-0.010731,1.7453292519943296e-05,0.0033161255787892262,3.1872853035938347
142.35588972431077,0.573440649192984,0.6097192970735908,-10.051608,-2.057977,0.019611,0.018272,-0.00047123889803846896,0.0038746309394274117,3.1883673553701937
143.35839598997492,0.5734403266561383,0.6097193040549078,-10.082684,-2.047393,-0.016037,0.031939,0.003543018381548489,0.0054105206811824215,3.1910028199939977
144.36090225563908,0.5734400072608852,0.6097192982953212,-10.107232,-2.044638,-0.058373,0.00499,0.005567600313861911,0.005986479334340551,3.1927831430974942
145.36340852130326,0.5734396894364283,0.6097192869506812,-10.088235,-2.05028,-0.038716,-0.042739,0.0019024088846738192,0.005829399701661061,3.1887862692972573
146.3659147869674,0.5734393674231814,0.6097192843326873,-10.043152,-2.058693,0.02921,-0.038117,-0.005026548245743669,0.0065100781099388496,3.1846674144355984
147.36842105263156,0.5734390448863356,0.6097192918376031,-10.031799,-2.069741,0.047669,0.009685,-0.0022689280275926286,0.006352998477259359,3.1876171430445166
148.37092731829574,0.5734387204296276,0.6097193035313091,-10.06009,-2.063321,0.002379,0.033555,0.00481710873550435,0.004223696789826277,3.1931671678928106
149.3734335839599,0.5734383975437161,0.6097193054511713,-10.088501,-2.048022,-0.04661,0.013292,0.002234021442552742,0.003560471674068432,3.1954359039341855
150.37593984962405,0.5734380767521995,0.6097192979462556,-10.086694,-2.044501,-0.050414,-0.022886,0.002670353755551324,0.0043982297150257105,3.1932894107536205
151.3784461152882,0.5734377568333475,0.609719289743208,-10.055343,-2.051792,-0.012705,-0.0377,0.0004188790204786391,0.005393067388662479,3.1899905464811336
152.38095238095238,0.5734374355182323,0.6097192899177409,-10.030598,-2.059763,0.022278,-0.012536,-0.0016406094968746698,0.005969026041820607,3.189100515829079
153.38345864661653,0.5734371122832548,0.609719298993453,-10.039459,-2.058887,0.015898,0.021254,0.0010995574287564276,0.006894050545377602,3.191229712796757
154.38596491228068,0.5734367902700078,0.6097193044039737,-10.070226,-2.051722,-0.015876,0.028317,0.003909537524467298,0.008360127117052838,3.1929927222340737
155.38847117794487,0.5734364668604974,0.6097193007387823,-10.091641,-2.051975,-0.03649,0.003502,0.004590215932745087,0.008499753457212385,3.1932894107536205
156.39097744360902,0.5734361453708492,0.6097192956773274,-10.082154,-2.055547,-0.01633,-0.024094,-0.0014660765716752368,0.006579891280018622,3.1910028199939977
157.39348370927317,0.5734358244047999,0.6097192951537286,-10.062636,-2.053429,0.010793,-0.010362,-0.0021991148575128553,0.005811946409141118,3.1903572576102697
158.39598997493732,0.5734355022170198,0.6097192984698542,-10.071128,-2.054602,-7.2e-05,0.018985,0.0033161255787892262,0.005550147021341968,3.192678475702252
159.3984962406015,0.5734351782839108,0.6097192998661176,-10.090663,-2.054757,-0.025549,0.005377,0.002478367537831948,0.004380776422505767,3.1946332270111935
160.40100250626566,0.5734348562706637,0.6097192963754592,-10.08219,-2.052127,-0.015616,-0.025798,0.0009773843811168245,0.0029845130209103037,3.193324020632687
161.4035087719298,0.5734345332102192,0.6097192958518604,-10.054955,-2.056832,0.009347,-0.026343,-0.0027925268031909274,0.0020420352248333657,3.1922246726434413
162.406015037594,0.5734342085789783,0.6097192981207883,-10.043079,-2.059565,0.010605,-0.001558,-0.0032637657012293962,0.0016231562043547264,3.194458798805749
163.40852130325814,0.5734338858675996,0.6097193009133153,-10.053468,-2.060458,-0.011064,0.012522,0.0017278759594743863,0.0009948376736367678,3.1981760359532316
164.4110275689223,0.5734335636798197,0.6097193007387823,-10.067178,-2.052022,-0.031533,0.008561,0.0061959188445798695,-6.981317007977319e-05,3.198612525345863
165.41353383458645,0.5734332427137703,0.6097192921866689,-10.072213,-2.045853,-0.04513,-0.005134,0.0027052603405912107,-8.726646259971648e-05,3.197338469898492
166.41604010025063,0.5734329219222537,0.6097192820637592,-10.059476,-2.047581,-0.037477,-0.02691,-0.001954768762233649,-0.00027925268031909274,3.1949472291969196
167.41854636591478,0.5734326016543361,0.6097192759551069,-10.029769,-2.05618,-0.00683,-0.03452,-0.00301941960595019,-0.000296705972839036,3.1914741985183763
168.42105263157893,0.5734322789429573,0.609719278049502,-10.003957,-2.067675,0.015858,-0.018518,-0.0005410520681182421,-0.000890117918517108,3.1896414108175644
169.4235588972431,0.5734319539626506,0.6097192852053519,-9.99816,-2.067885,0.013724,-0.000216,-0.001117010721276371,-0.0019373154697137059,3.189903192752071
170.42606516290726,0.5734316303786073,0.6097192899177409,-10.004185,-2.051062,0.002388,0.003174,-0.0012217304763960308,-0.0024434609527920616,3.189397186895333
171.42857142857142,0.5734313099361567,0.6097192902668068,-10.011599,-2.038842,-0.011151,0.00319,0.0027401669256310974,-0.0009599310885968813,3.1894147623609004
172.43107769423557,0.573430991762634,0.6097192866016153,-10.010479,-2.044393,-0.02808,-0.009982,0.005916666164260778,0.0,3.190898152598755
173.43358395989975,0.5734306716692491,0.6097192813656276,-9.994672,-2.057783,-0.026379,-0.024805,-0.001186823891356144,-0.001361356816555577,3.190217439283893
174.4360902255639,0.5734303486088046,0.6097192799693643,-9.966496,-2.06324,-0.00037,-0.032414,-0.006562437987498679,-0.003892084231947355,3.186866389666771
175.43859649122805,0.5734300236284979,0.6097192838090886,-9.940967,-2.059673,0.023106,-0.020874,-0.002897246558310587,-0.004084070449666731,3.185208309424084
176.44110275689223,0.5734296991717899,0.6097192907904055,-9.927851,-2.049218,0.020469,-0.010407,0.001710422666954443,-0.004572762640225144,3.1868839651323384
177.4436090225564,0.5734293780312075,0.609719296549992,-9.924717,-2.045485,-0.004234,-0.004815,0.0067369709126981125,-0.0033335788713091696,3.1898336937412566
178.44611528822054,0.5734290572396911,0.6097192956773274,-9.915283,-2.050119,-0.025495,-0.022687,-0.001308996938995747,-0.0020943951023931952,3.191980466174502
179.4486215538847,0.5734287360991087,0.6097192909649385,-9.885963,-2.053199,-0.013193,-0.035316,-0.004904375198104067,0.0002617993877991494,3.1922246726434413
180.45112781954887,0.5734284123405324,0.6097192888705434,-9.86097,-2.060994,0.006594,-0.016384,-0.0030368728984701333,0.00307177948351002,3.1928529039076965
181.45363408521303,0.5734280882328904,0.6097192907904055,-9.860316,-2.063177,0.001837,0.00872,0.0043982297150257105,0.004276056667386108,3.1947727835381827
182.45614035087718,0.5734277656960446,0.6097192925357348,-9.873843,-2.055995,-0.027285,0.00893,0.0032812189937493396,0.00466002910282486,3.1959248753774245
183.45864661654133,0.5734274464753244,0.6097192883469446,-9.876469,-2.045763,-0.04056,-0.00763,0.0006108652381980154,0.005934119456780721,3.1947030052746883
184.4611528822055,0.5734271263819396,0.6097192815401604,-9.868823,-2.042927,-0.028266,-0.007724,0.002408554367752175,0.008272860654453122,3.192329340038683
185.46365914786966,0.5734268052413571,0.6097192757805739,-9.872671,-2.051679,-0.015427,0.010903,0.0029321531433504737,0.010000736613927507,3.1902872175473873
186.46616541353382,0.5734264823554455,0.609719275606041,-9.891022,-2.061237,-0.01378,0.018441,-0.0021118483949131386,0.01038470904936626,3.1882453743087718
187.468671679198,0.5734261568515401,0.6097192764787057,-9.904852,-2.069652,-0.019024,-0.000627,0.0004188790204786391,0.009093165402890457,3.1861508046734537
188.47117794486215,0.5734258309985687,0.6097192775259032,-9.891469,-2.061309,0.00787,-0.023954,0.0006632251157578452,0.006352998477259359,3.182380823675975
189.4736842105263,0.5734255070654596,0.6097192824128251,-9.878078,-2.049128,0.042783,0.001573,-0.006684611035138282,0.006230825429619756,3.180531001561664
190.47619047619045,0.5734251857503443,0.6097192916630702,-9.905923,-2.046346,0.028331,0.045906,0.0024434609527920616,0.006684611035138282,3.1843182787720297
191.47869674185463,0.5734248649588278,0.6097192975971897,-9.959905,-2.050403,-0.027649,0.044923,0.006370451769779303,0.005480333851262195,3.188803844762825
192.4812030075188,0.5734245429455808,0.6097192914885372,-9.980985,-2.051632,-0.057533,-0.010749,0.002949606435870417,0.0025132741228718345,3.187791571249961
193.48370927318294,0.5734242204087351,0.6097192810165617,-9.940641,-2.054513,-0.017424,-0.062869,-0.004241150082346221,-0.0009599310885968813,3.1830442233246585
194.48621553884712,0.5734238985700209,0.609719280492963,-9.883037,-2.061371,0.051659,-0.044885,-0.006161012259539983,-0.0030543261909900766,3.1808625617596658
195.48872180451127,0.5734235758586422,0.6097192949791956,-9.86709,-2.061935,0.060785,0.004868,-0.00010471975511965978,-0.004223696789826277,3.185400592347776
196.49122807017542,0.5734232514019343,0.6097193133051528,-9.890291,-2.050107,0.007738,0.023881,0.006824237375297829,-0.0041887902047863905,3.191945315243367
197.49373433583958,0.5734229314830824,0.6097193152250151,-9.906378,-2.038891,-0.047422,-0.003677,0.00471238898038469,-0.004049163864626845,3.1965355311761123
198.49624060150376,0.5734226122623622,0.6097193044039737,-9.8856,-2.042937,-0.057909,-0.04008,0.0023038346126325153,-0.0038048177693476384,3.1968670913741133
199.4987468671679,0.5734222914708458,0.6097192920121359,-9.837019,-2.059561,-0.024957,-0.054553,-0.0016580627893946131,-0.0032288591161895096,3.1940398848786855
200.50125313283206,0.5734219692830659,0.6097192913140043,-9.789369,-2.069662,0.013693,-0.041302,-0.003996803987067015,-0.003490658503988659,3.192381525383318
201.50375939849624,0.5734216434300944,0.6097192970735908,-9.76952,-2.056839,0.015513,0.001476,0.001117010721276371,-0.002495820830351891,3.1936209709516215
202.5062656641604,0.5734213198460512,0.6097192993425189,-9.790442,-2.044808,-0.033787,0.027451,0.0066322511575784525,-0.0006806784082777885,3.1967800168977316
203.50877192982455,0.5734209971346724,0.6097192913140043,-9.801888,-2.044969,-0.064558,-0.015556,0.0018849555921538759,-0.0003141592653589793,3.1954710723186133
204.5112781954887,0.57342067599409,0.6097192787476337,-9.760716,-2.048638,-0.030104,-0.060462,0.0022165681500327986,-0.0004363323129985824,3.189955657349386
205.51378446115288,0.5734203522355138,0.6097192724644485,-9.706753,-2.058266,0.012505,-0.039814,-0.00466002910282486,0.001308996938995747,3.1863430875971455
206.51629072681703,0.5734200277788059,0.6097192763041728,-9.691169,-2.063087,0.019691,0.003446,0.0005585053606381855,0.0027925268031909274,3.1849292138233976
207.51879699248119,0.5734197010531699,0.6097192834600227,-9.708613,-2.060101,0.005099,0.019289,0.002408554367752175,0.0037175513067479217,3.185260774021399
208.52130325814534,0.5734193753747314,0.6097192869506812,-9.723765,-2.053921,-0.011198,0.002094,-0.0013962634015954637,0.0038571776469074684,3.1854527776924106
209.52380952380952,0.573419052139754,0.6097192841581545,-9.711467,-2.054456,-0.011618,-0.031807,0.004276056667386108,0.003682644721708035,3.185208309424084
210.52631578947367,0.5734187297774411,0.609719285030819,-9.673117,-2.046064,0.026673,-0.031425,-0.003473205211468716,0.003787364476827695,3.183306005259165
211.52882205513782,0.5734184096840562,0.6097192923612018,-9.671327,-2.046225,0.027851,0.026538,5.235987755982989e-05,0.00614355896702004,3.1862557338680833
212.531328320802,0.5734180887180069,0.6097192948046628,-9.713744,-2.056765,-0.020717,0.039579,0.008063421144213804,0.006667157742618339,3.190741020606198
213.53383458646616,0.5734177646103648,0.6097192916630702,-9.726108,-2.057955,-0.035148,-0.021107,0.0,0.005567600313861911,3.1906190569980692
214.5363408521303,0.5734174408517886,0.6097192853798848,-9.685012,-2.054028,0.012115,-0.052097,-0.0062482787221397,0.005777039824101231,3.187460011051959
215.53884711779446,0.5734171197112061,0.6097192876488128,-9.649155,-2.050619,0.051018,-0.011787,-0.0005410520681182421,0.0065100781099388496,3.188541783575638
216.54135338345864,0.5734167969998274,0.609719296724525,-9.6696,-2.056346,0.0201,0.042704,0.0016057029118347831,0.0073129295658562405,3.1948598754678574
217.5438596491228,0.5734164735903171,0.6097193019605127,-9.715529,-2.054432,-0.028789,0.035868,0.003682644721708035,0.005759586531581287,3.199432777734423
218.54636591478695,0.5734161498317408,0.6097192963754592,-9.73397,-2.047229,-0.036621,-0.004669,0.0007853981633974482,0.005550147021341968,3.1984378353410308
219.54887218045113,0.5734158281675598,0.6097192883469446,-9.720283,-2.041212,-0.014933,-0.016346,-0.0020594885173533086,0.007173303225696694,3.1959594852564917
220.55137844611528,0.5734155077251091,0.6097192853798848,-9.709489,-2.051149,-0.007627,-0.007324,0.000767944870877505,0.008115781021773632,3.1949123400651724
221.55388471177943,0.5734151841410657,0.6097192874742801,-9.701564,-2.057996,0.001016,-0.013691,-0.0006981317007977319,0.0072082098107365804,3.193742934559751
222.55639097744358,0.5734148605570223,0.6097192914885372,-9.690997,-2.052559,0.022815,-0.004843,-0.004886921905584123,0.007243116395776467,3.1939352174834434
223.55889724310777,0.5734145362748474,0.6097192963754592,-9.705231,-2.050496,0.013001,0.030538,0.002670353755551324,0.01059414855960558,3.1972162270376825
224.56140350877192,0.573414210421876,0.6097192979462556,-9.749002,-2.055617,-0.028393,0.044827,0.003944444109507185,0.012688543661998775,3.200846651508171
225.56390977443607,0.5734138852670364,0.6097192928848006,-9.781837,-2.057607,-0.043147,0.013561,0.00010471975511965978,0.011798425743481668,3.1997646171851044
226.56641604010025,0.573413564126454,0.6097192839836215,-9.7793,-2.049696,-0.015823,-0.015068,-0.0004363323129985824,0.010314895879286487,3.1954534968530455
227.5689223057644,0.573413242113207,0.609719282761891,-9.76483,-2.044665,0.019199,-0.008654,-0.0016755160819145565,0.009983283321407565,3.192713364834
228.57142857142856,0.5734129190527625,0.6097192862525495,-9.771331,-2.045341,0.023116,0.021943,0.002722713633111154,0.010786134777324957,3.1941791621529942
229.5739348370927,0.5734125966904496,0.6097192913140043,-9.809861,-2.051932,-0.008179,0.045908,0.005288347633542819,0.010576695267085637,3.198158722287052
230.5764411027569,0.5734122739790709,0.6097192890450762,-9.850614,-2.058511,-0.040216,0.02496,-0.0015533430342749533,0.007609635538695277,3.1989267893309767
231.57894736842104,0.5734119502204946,0.6097192818892263,-9.852224,-2.054918,-0.03067,-0.025183,-0.005445427266222308,0.002949606435870417,3.195174121999679
232.5814536340852,0.5734116276836488,0.6097192801438971,-9.813808,-2.050054,0.017853,-0.043026,-0.003665191429188092,0.0008726646259971648,3.1911426383203745
233.58395989974937,0.5734113051468032,0.6097192876488128,-9.783139,-2.051206,0.049464,-0.014171,0.0005235987755982988,0.0018849555921538759,3.1916486267238207
234.58646616541353,0.5734109815627598,0.6097193007387823,-9.794235,-2.050062,0.029272,0.027765,0.0019024088846738192,0.0018675022996339325,3.1963610855173754
235.58897243107768,0.5734106585023153,0.6097193071965005,-9.834804,-2.045909,-0.03022,0.039449,0.005462880558742251,0.0011693705988362008,3.2017193684940457
236.59147869674183,0.5734103345692061,0.6097192962009262,-9.85733,-2.05058,-0.069975,-0.007416,0.004468042885105484,-0.0010471975511965976,3.201753995826405
237.593984962406,0.5734100118578274,0.6097192817146934,-9.818173,-2.054909,-0.034474,-0.063212,-0.0010297442586766543,-0.0035081117965086025,3.1964830665787973
238.59649122807016,0.5734096856557902,0.609719275606041,-9.752332,-2.061852,0.033421,-0.057127,-0.0071907565182166375,-0.004939281783143952,3.192538657375875
239.59899749373432,0.5734093606754835,0.6097192841581545,-9.717699,-2.058257,0.051591,-0.014186,-0.0019722220547535923,-0.005864306286700947,3.1940398848786855
240.6015037593985,0.5734090355206439,0.6097193010878481,-9.72451,-2.045726,0.019664,0.0158,0.00614355896702004,-0.0051836278784231585,3.198211186884367
241.60401002506265,0.5734087133328639,0.6097193068474347,-9.745448,-2.039261,-0.024694,0.012866,0.004921828490624009,-0.003560471674068432,3.2019287032845294
242.6065162907268,0.5734083946357424,0.6097192996915847,-9.748046,-2.044131,-0.040238,-0.011358,0.0026529004630313807,-0.0030543261909900766,3.202818995735972
243.60902255639095,0.5734080729715614,0.6097192885214775,-9.723602,-2.059779,-0.033371,-0.03775,-0.0024260076602721182,-0.003979350694547071,3.201632014764983
244.61152882205513,0.5734077474676559,0.6097192825873581,-9.677378,-2.065303,-0.013556,-0.053783,-0.0023212879051524586,-0.006597344572538566,3.199432777734423
245.6140350877193,0.5734074210910858,0.6097192818892263,-9.6275,-2.057498,0.017222,-0.044535,-0.0053058009260627615,-0.0073129295658562405,3.196954445103176
246.61654135338344,0.5734070966343777,0.6097192881724116,-9.603905,-2.042982,0.036562,-0.003835,-0.0037175513067479217,-0.004049163864626845,3.1968670913741133
247.6190476190476,0.5734067761919271,0.6097192949791956,-9.622904,-2.039936,0.006205,0.029199,0.006649704450098395,0.000767944870877505,3.20100352170134
248.62155388471177,0.5734064555749435,0.6097192970735908,-9.650039,-2.051112,-0.042816,0.012251,0.007801621756414653,0.003193952531149623,3.2046688178502833
249.62406015037593,0.5734061314673015,0.6097192883469446,-9.638996,-2.060938,-0.047669,-0.032201,-0.003612831551628262,0.0026354471705114374,3.2030107376075962
250.62656641604008,0.5734058056143302,0.6097192782240349,-9.598837,-2.06225,-0.008742,-0.042647,-0.005375614096142535,0.001710422666954443,3.197792272957303
251.62907268170426,0.5734054781905624,0.6097192782240349,-9.56547,-2.051475,0.04191,-0.01593,-0.0075223690760955605,0.0014660765716752368,3.194511001603676
252.6315789473684,0.5734051554791838,0.6097192890450762,-9.580306,-2.042482,0.038455,0.041025,0.007661995416255106,0.0035953782591083188,3.1978796266863654
253.63408521303256,0.5734048348622001,0.6097192972481238,-9.63657,-2.047019,-0.027611,0.056429,0.009669124056048587,0.004904375198104067,3.2030456267393435
254.63659147869672,0.5734045118017557,0.6097192892196092,-9.667927,-2.055584,-0.075753,-0.003281,0.0035779249665883754,0.002827433388230814,3.2032200723980804
255.6390977443609,0.573404186472383,0.609719273686179,-9.62851,-2.057536,-0.036407,-0.065231,-0.0045204027626653135,-0.0008203047484373349,3.195785057051047
256.64160401002505,0.5734038613175434,0.6097192679265924,-9.566933,-2.05821,0.040702,-0.043494,-0.0065275314024587925,-0.0009424777960769379,3.189955657349386
257.64411027568923,0.5734035375589671,0.6097192768277716,-9.557104,-2.054009,0.061359,0.021003,0.0030019663134302466,-0.00013962634015954637,3.192102429782632
258.64661654135335,0.5734032139749239,0.6097192921866689,-9.605469,-2.04435,0.0034,0.059287,0.005899212871740834,0.0017278759594743863,3.1972162270376825
259.64912280701753,0.573402891612611,0.6097192948046628,-9.650527,-2.043238,-0.06488,0.013211,0.0028623399732707008,0.0026878070480712674,3.1990490147384945
260.6516290726817,0.573402569424831,0.6097192818892263,-9.622273,-2.047275,-0.03758,-0.063064,-0.0003665191429188092,0.002007128639793479,3.192748253965747
261.65413533834584,0.5734022458407878,0.6097192761296398,-9.55206,-2.054996,0.048407,-0.056846,-0.009843656981248018,0.0016580627893946131,3.188524469909458
262.65664160401,0.5734019215586127,0.6097192867761483,-9.5372,-2.060125,0.05488,0.025936,0.0029146998508305304,0.0013788101090755204,3.1934811526252447
263.65914786967414,0.5734015962292401,0.6097192970735908,-9.587153,-2.056381,-0.030223,0.052585,0.00471238898038469,0.00027925268031909274,3.201474900225719
264.6616541353383,0.5734012738669273,0.6097192932338665,-9.617331,-2.044635,-0.06728,-0.003843,0.0015009831567151233,-0.0005061454830783556,3.1997121525877894
265.6641604010025,0.5734009577877998,0.6097192783985679,-9.580603,-1.930913,-0.003397,-0.065935,0.01059414855960558,-0.0009599310885968813,3.109216603979081
266.66666666666663,0.5734006661432818,0.6097193051021055,-9.521915,-1.748622,0.392248,-0.046339,0.060021872976084994,0.0048520153205442364,2.8405409330863387
267.6691729323308,0.5734004184810609,0.609719378405934,-9.505716,-1.498669,0.795319,0.007275,-0.003560471674068432,-0.0005585053606381855,2.5568375759081983
268.671679197995,0.5734002151502031,0.6097195225701303,-9.531956,-1.237116,1.091565,0.047103,0.011711159280881952,0.0006632251157578452,2.3117932093018543
269.6741854636591,0.5734000517873851,0.6097197396890892,-9.565472,-0.952719,1.319631,0.013382,0.02275909344600606,0.0016755160819145565,2.0960531826358824
270.6766917293233,0.5733999318832655,0.6097200110877878,-9.566458,-0.660756,1.530967,-0.011289,-0.04590215932745086,0.016510814723866358,1.9065453150010456
271.6791979949875,0.5733998524707845,0.6097203177421374,-9.550941,-0.379556,1.730274,-0.017404,0.026145032194875056,0.021467549799530253,1.737614879247222
272.6817042606516,0.573399818611397,0.6097206666334548,-9.522923,-0.100405,1.906913,-0.025553,0.0014311699866353504,0.018133970928221083,1.5798196441211223
273.6842105263158,0.5733998264653787,0.6097210460680342,-9.518025,0.188161,2.01298,0.014076,0.007033676885537149,0.015009831567151233,1.4316237896941613
274.68671679197996,0.5733998756836636,0.6097214403379123,-9.560806,0.4733,2.035144,0.061214,0.019460421159736774,0.01228711793404008,1.2938998758725813
275.6892230576441,0.5733999690587785,0.6097218309425989,-9.633663,0.736762,1.988249,0.078845,0.012060225131280817,0.01398008730847458,1.1707843329836087
276.69172932330827,0.5734000990858078,0.6097222009524004,-9.701832,0.9478,1.87673,0.055307,-0.0004363323129985824,0.018046704465621368,1.0716670673095583
277.6942355889724,0.5734002607032965,0.6097225479238556,-9.740252,1.119386,1.796986,0.01639,0.005986479334340551,0.019216075064457567,0.9954310855824459
278.69674185463657,0.5734004490243229,0.6097228774420184,-9.73452,1.234358,1.750243,-0.023559,-0.000296705972839036,0.015550883635269477,0.9366483440153993
279.69924812030075,0.5734006535769112,0.6097231987571337,-9.706664,1.308593,1.701435,-0.022321,-0.0036477381366681488,0.010559241974565694,0.8887565791538451
280.7017543859649,0.5734008649362835,0.6097235137890636,-9.704261,1.361748,1.630285,0.016846,-0.0010471975511965976,0.0063006385996995295,0.8509177886107304
281.70426065162906,0.5734010801353804,0.609723813985695,-9.74237,1.402649,1.5438,0.049222,-0.0013264502315156904,0.00486946861306418,0.8239350332814831
282.70676691729324,0.5734013010940636,0.6097240944601058,-9.795782,1.439785,1.475038,0.044484,0.0066322511575784525,0.005497787143782138,0.8072322148866048
283.70927318295736,0.5734015285104651,0.6097243614954814,-9.829033,1.469771,1.447793,0.015792,0.011239920382843483,0.0066322511575784525,0.7986801539117101
284.71177944862154,0.5734017583703277,0.6097246262619289,-9.832086,1.493915,1.44803,-0.008408,0.009512044423369097,0.0057246799465414016,0.7951196298777642
285.7142857142857,0.5734019939897768,0.6097248950426336,-9.814459,1.517332,1.449992,-0.024538,0.0014660765716752368,0.0015533430342749533,0.7938979168546607
286.71679197994985,0.5734022318781538,0.6097251666158653,-9.787566,1.525998,1.447837,-0.026715,0.0017278759594743863,-0.0025830872929516074,0.794281871836807
287.719298245614,0.5734024697665308,0.6097254395853603,-9.768775,1.513465,1.451371,-0.011921,0.0048520153205442364,-0.0043982297150257105,0.7965508173176921
288.72180451127815,0.5734027025934529,0.6097257137765858,-9.764446,1.491587,1.450899,-0.000545,0.005916666164260778,-0.004433136300065597,0.7984357380032608
289.72431077694233,0.5734029324533155,0.609725983953554,-9.77004,1.483903,1.437148,0.006992,0.006352998477259359,-0.002373647782712288,0.7993083851759655
290.7268170426065,0.5734031612659805,0.6097262527342587,-9.78183,1.499938,1.421216,0.011386,0.00788888821901437,0.00022689280275926284,0.799936756066561
291.72932330827064,0.5734033953146331,0.6097265175007064,-9.790318,1.519713,1.418679,-0.001375,0.00307177948351002,0.0006632251157578452,0.8024151585109781
292.7318295739348,0.5734036326794114,0.6097267834888843,-9.779853,1.519705,1.425234,-0.022144,-0.0004188790204786391,-0.00047123889803846896,0.8058883288158617
293.734335839599,0.5734038710913871,0.6097270517459903,-9.754228,1.50594,1.439376,-0.025972,0.00773180858633488,-0.00047123889803846896,0.8099025686421562
294.7368421052631,0.5734041046164412,0.6097273245409525,-9.736957,1.494234,1.459089,-0.009637,0.00783652834145454,-0.0004014257279586958,0.8131140093724107
295.7393483709273,0.5734043343017706,0.609727601001106,-9.737189,1.488669,1.463897,0.004583,0.0013788101090755204,-0.0016929693744344998,0.8144579128964463
296.7418546365915,0.5734045643361662,0.6097278758904631,-9.74277,1.486666,1.444252,0.002561,0.00301941960595019,-0.0028448866807507574,0.8136899156656914
297.7443609022556,0.573404793148831,0.6097281460674313,-9.743676,1.48771,1.429273,-0.001739,0.0033684854563490563,0.0003141592653589793,0.8130790678807859
298.7468671679198,0.5734050226596277,0.6097284139754715,-9.743406,1.493969,1.436728,-0.002013,0.004782202150464463,0.004153883619746504,0.8138645009507683
299.74937343358397,0.573405255312017,0.6097286846760386,-9.741655,1.498595,1.450323,-0.005355,0.0030019663134302466,0.0033335788713091696,0.8150862139738718
300.7518796992481,0.5734054876153404,0.60972895921633,-9.735178,1.493611,1.456734,-0.008941,0.0015533430342749533,0.000890117918517108,0.8159763144390964
301.7543859649123,0.5734057181733346,0.6097292362000822,-9.728546,1.485306,1.455793,-0.005737,0.006579891280018622,0.00010471975511965978,0.8161508124577108
302.7568922305764,0.5734059475095983,0.6097295116130381,-9.728216,1.481055,1.449952,0.003879,0.005375614096142535,0.0010122909661567112,0.8156970792120698
303.7593984962406,0.5734061761477304,0.6097297852806648,-9.737511,1.48805,1.442951,0.011488,0.0012915436464758037,0.002286381320112572,0.8140913937535277
304.76190476190476,0.573406408101988,0.6097300570284294,-9.745206,1.500474,1.437687,-0.000367,0.003246312408709453,0.0014486232791552935,0.8125030917743352
305.7644110275689,0.5734066414525089,0.6097303294743256,-9.734454,1.500173,1.441396,-0.019559,0.0011344640137963143,-6.981317007977319e-05,0.8116129913091106
306.76691729323306,0.573406874628497,0.6097306031419524,-9.71294,1.488078,1.452669,-0.021376,0.006073745796940267,-0.0021991148575128553,0.81103708501583
307.76942355889724,0.5734071062336887,0.6097308794275729,-9.701368,1.478609,1.453861,-0.001154,0.005794493116621174,-0.003490658503988659,0.8100073058505682
308.77192982456137,0.573407334173689,0.6097311551895946,-9.709927,1.485819,1.439651,0.01403,0.0012566370614359172,-0.00312413936106985,0.8073893468791619
309.77443609022555,0.5734075656043479,0.6097314271118922,-9.722863,1.50312,1.423647,0.005061,0.0018675022996339325,-0.002548180707911721,0.8043000791965469
310.77694235588973,0.5734077991294018,0.6097316944963337,-9.71521,1.516371,1.418613,-0.023197,0.005864306286700947,-0.0028623399732707008,0.8025547150379676
311.77944862155385,0.5734080333525873,0.6097319632770384,-9.682912,1.512476,1.433692,-0.037605,0.006387905062299246,-0.003979350694547071,0.8034623211555896
312.78195488721803,0.573408267575773,0.6097322369446652,-9.650465,1.5018,1.449398,-0.022566,0.002495820830351891,-0.005567600313861911,0.8041604703096799
313.7844611528822,0.5734085000536293,0.6097325104377589,-9.640984,1.497432,1.445202,0.000549,0.0016406094968746698,-0.0072954762733362976,0.8025198259062201
314.78696741854634,0.5734087311352223,0.6097327835817868,-9.646063,1.495637,1.422394,0.002495,0.0019024088846738192,-0.007278022980816354,0.8006000160889039
315.7894736842105,0.5734089608205519,0.6097330493954319,-9.645678,1.497921,1.405102,-0.008554,0.0033684854563490563,-0.004345869837465881,0.7984008488715135
316.79197994987464,0.5734091932984083,0.6097333141618795,-9.631539,1.508425,1.415652,-0.022209,0.006824237375297829,-0.0014660765716752368,0.7963064712224128
317.7944862155388,0.5734094262998634,0.609733581546321,-9.601107,1.506458,1.411605,-0.038629,0.015114551322270894,-0.005096361415823442,0.7455697847735228
318.796992481203,0.5734096704714258,0.6097338456146366,-9.562817,1.633066,1.356351,-0.031702,0.0065100781099388496,-0.008115781021773632,0.6651100364434142
319.79949874686713,0.5734099090579344,0.6097341109046829,-9.542797,1.678483,1.262909,-0.008348,-0.0124965574442794,-0.008587019919812101,0.6161710565773706
320.8020050125313,0.5734101741734479,0.6097343519346528,-9.540717,1.709242,1.182773,-0.002903,-0.003787364476827695,-0.006894050545377602,0.5899387928264809
321.8045112781955,0.5734104433032186,0.6097345692281446,-9.532579,1.721994,1.142414,-0.019418,-0.0019024088846738192,-0.0054105206811824215,0.5861339226972556
322.8070175438596,0.5734107124329891,0.6097347776204572,-9.508348,1.718857,1.141819,-0.028912,0.0005585053606381855,-0.00476474885794452,0.5981243346584568
323.8095238095238,0.5734109794683647,0.6097349889798297,-9.48051,1.71332,1.162177,-0.025171,0.0076445421237351634,-0.0030543261909900766,0.6196616627214818
324.812030075188,0.573411247027339,0.6097352064478545,-9.458777,1.703831,1.191077,-0.019855,0.0033684854563490563,-0.0012566370614359172,0.6441661377793596
325.8145363408521,0.57341151319005,0.6097354303735975,-9.445378,1.690911,1.213568,-0.009659,0.005166174585903215,-0.000593411945678072,0.664708628168748
326.8170426065163,0.5734117756875695,0.6097356611061245,-9.440138,1.680467,1.221158,-0.005809,0.0015533430342749533,-0.0013439035240356337,0.6761405173160182
327.8195488721804,0.5734120355670951,0.609735893583981,-9.431823,1.664962,1.226154,-0.014626,0.007278022980816354,-0.0014486232791552935,0.6735924064212766
328.8220551378446,0.5734122923050281,0.6097361274581008,-9.414172,1.654715,1.226451,-0.019832,0.008203047484373348,0.0013439035240356337,0.649000699807384
329.82456140350877,0.5734125485193623,0.6097363608086217,-9.401386,1.680925,1.201969,-0.005576,0.00809832772925369,0.005113814708343385,0.5980021092509396
330.8270676691729,0.5734128089224867,0.6097365890976879,-9.40559,1.758653,1.123295,0.013047,0.010000736613927507,0.00778416846389471,0.5208411728334403
331.8295739348371,0.5734130836373109,0.6097367999334615,-9.418904,1.860176,0.990878,0.010659,0.0091106186954104,0.008237954069413234,0.4231899837310651
332.83208020050125,0.5734133761544936,0.6097369845892964,-9.415821,1.939182,0.836824,-0.015428,0.00466002910282486,0.007452555906015787,0.30970869321968625
333.8345864661654,0.5734136789691189,0.6097371374801388,-9.393967,1.98428,0.6804,-0.018064,0.01064650843716541,0.008325220532012952,0.18463838156848014
334.83709273182956,0.5734139877178634,0.6097372596531866,-9.389673,2.032926,0.488097,0.018231,0.01085594794740473,0.011519173063162575,0.04972443038931845
335.83959899749374,0.5734143034479251,0.6097373383675357,-9.418168,2.094395,0.219447,0.036422,0.00815068760681352,0.01202531854624093,6.188850278562586
336.84210526315786,0.5734146280791661,0.6097373655946721,-9.442813,2.109834,-0.06321,0.009788,0.006754424205218055,0.00890117918517108,6.043935974741931
337.84461152882204,0.573414952361341,0.609737340461931,-9.448671,2.068208,-0.311844,0.002474,0.0027401669256310974,0.007382742735936014,5.90041714892471
338.8471177944862,0.5734152689640674,0.6097372662854377,-9.463997,1.99661,-0.565148,0.024033,0.007504915783575617,0.008080874436733746,5.755746789773607
339.84962406015035,0.5734155717786926,0.6097371451595875,-9.494914,1.895138,-0.83566,0.032111,0.0027401669256310974,0.006946410422937432,5.6112857479596965
340.8521303258145,0.5734158552201631,0.6097369749899856,-9.512048,1.755762,-1.080073,0.003267,-0.0014660765716752368,0.004642575810304917,5.471956078866405
341.85463659147865,0.5734161170195509,0.6097367604890205,-9.514142,1.595051,-1.288161,0.004341,0.0008726646259971648,0.0037699111843077517,5.336675486371276
342.85714285714283,0.5734163503700719,0.6097365061945483,-9.522889,1.417416,-1.475209,0.017961,-0.0011344640137963143,0.003839724354387525,5.210942316123455
343.859649122807,0.5734165563189236,0.6097362197860181,-9.548916,1.233093,-1.639342,0.035813,0.0006981317007977319,0.0040666171571467884,5.0997825055034465
344.86215538847114,0.5734167336443756,0.609735905103154,-9.577577,1.038703,-1.764837,0.01348,-0.0045204027626653135,0.00022689280275926284,5.002986719720766
345.8646616541353,0.5734168767613743,0.609735569301806,-9.575087,0.843118,-1.83104,-0.015088,0.0005235987755982988,-0.004345869837465881,4.919384767871829
346.8671679197995,0.5734169914295062,0.6097352245992786,-9.562803,0.692036,-1.878424,-0.003758,0.01567305668290908,-0.003682644721708035,4.847215769821007
347.8696741854636,0.5734170832338248,0.6097348697738417,-9.574385,0.552856,-1.946787,0.01919,0.01509709802975095,-0.0034557519189487725,4.778362408656783
348.8721804511278,0.5734171535705938,0.6097345067453573,-9.590034,0.406776,-2.005393,0.005797,0.004956735075663896,-0.006387905062299246,4.716019404855178
349.874686716792,0.5734172057559384,0.6097341309759694,-9.577694,0.285935,-2.026117,-0.034771,0.0008726646259971648,-0.01213003830136059,4.664444628752773
350.8771929824561,0.5734172380445295,0.6097337545084497,-9.521273,0.164056,-2.006488,-0.067692,0.0003665191429188092,-0.01551597705022959,4.619170892675795
351.8796992481203,0.5734172493891696,0.6097333824042532,-9.468321,0.054734,-2.008325,-0.030329,0.0009773843811168245,-0.012304571226560023,4.584840615354917
352.88220551378447,0.5734172488655709,0.6097330104745896,-9.464041,-0.008953,-2.04644,0.010587,-0.0005061454830783556,-0.009878563566287904,4.564000843034037
353.8847117794486,0.573417236822799,0.6097326308654774,-9.468006,-0.048734,-2.061327,-0.016918,-0.003560471674068432,-0.011763519158441782,4.5492879443325265
354.8872180451128,0.573417220591237,0.6097322482893053,-9.432487,-0.083143,-2.0345,-0.049004,-0.006003932626860493,-0.011850785621041499,4.5397410456839955
355.8897243107769,0.573417204010609,0.6097318714727198,-9.388834,-0.114522,-2.025527,-0.035556,0.00015707963267948965,-0.0073129295658562405,4.53698359999877
356.8922305764411,0.5734171816703947,0.6097314984958585,-9.359402,-0.140866,-2.033265,-0.026596,0.0005410520681182421,-0.004694935687864747,4.540002565819115
357.89473684210526,0.5734171549668571,0.6097311235991353,-9.338421,-0.128433,-2.038483,-0.015035,0.0010297442586766543,-0.0021467549799530253,4.5504219196541325
358.8972431077694,0.5734171341974389,0.6097307431173583,-9.333619,-0.092013,-2.059102,0.000386,0.004345869837465881,0.0014835298641951802,4.565536959668595
359.89974937343356,0.5734171169186794,0.6097303586213242,-9.331507,-0.088856,-2.067981,-0.007762,-0.0033684854563490563,0.0020594885173533086,4.576672160296318
360.90225563909775,0.5734171041777758,0.6097299758706192,-9.319586,-0.075233,-2.05255,-0.010636,-0.004258603374866164,0.0020943951023931952,4.58923854836397
361.90476190476187,0.5734170963237942,0.6097295938180459,-9.320539,-0.0266,-2.050939,0.01185,0.00986111027376796,0.004468042885105484,4.604806867838467
362.90726817042605,0.573417092135004,0.609729211067341,-9.328949,0.00891,-2.05206,-0.006259,0.012356931104119853,0.005550147021341968,4.615209169806693
363.90977443609023,0.5734170951020637,0.6097288349488872,-9.313389,0.023261,-2.020964,-0.014537,0.01884955592153876,0.011885692206081384,4.621195422248231
364.91228070175436,0.5734170999889856,0.6097284591794991,-9.319154,0.021674,-2.027246,0.02982,0.008726646259971648,0.02192133540504878,4.624284689930846
365.91478696741854,0.5734171036541771,0.6097280846318417,-9.366699,0.02993,-2.055432,0.061607,0.007173303225696694,0.026616271092913524,4.628054653475031
366.91729323308266,0.5734171092392306,0.6097277029283343,-9.427208,0.046449,-2.067713,0.050569,0.005445427266222308,0.026406831582674203,4.630585188904206
367.91979949874684,0.5734171165696135,0.6097273189558988,-9.465134,0.062415,-2.045425,0.028328,0.009564404300928926,0.02546435378659727,4.630009945836041
368.922305764411,0.5734171256453257,0.6097269410921158,-9.492352,0.042076,-2.022405,0.028852,0.008255407361933179,0.026825710603152843,4.623429286611151
369.92481203007515,0.5734171305322475,0.609726564973662,-9.525466,0.022957,-2.016247,0.038173,0.010419615634406148,0.02768092193663007,4.619118689877868
370.9273182957393,0.5734171345465048,0.6097261878080107,-9.581459,0.029967,-2.037334,0.073878,0.014381513036433275,0.02892010570554604,4.618734124030484
371.9298245614035,0.5734171355937024,0.6097258069771678,-9.659244,0.036132,-2.072019,0.07284,-0.0006632251157578452,0.02483603525587931,4.6172864257758315
372.93233082706763,0.5734171392588938,0.6097254219575349,-9.707752,0.031558,-2.066474,0.022711,0.003473205211468716,0.016406094968746697,4.614126856230946
373.9348370927318,0.5734171424004865,0.6097250413012251,-9.704123,0.009657,-2.0178,-0.015787,0.00710349005561692,0.011152653920243767,4.609623994027264
374.937343358396,0.5734171430986182,0.6097246700696931,-9.706411,-0.003959,-2.00594,0.029063,0.011955505376161158,0.01420698011123384,4.605539766497964
375.9398496240601,0.5734171417023547,0.6097242983145624,-9.757477,0.000325,-2.048348,0.05749,0.0113271868454432,0.014556045961632708,4.604336012912864
376.9423558897243,0.5734171424004865,0.609723918879983,-9.801086,0.014434,-2.064285,0.027497,0.0025132741228718345,0.01085594794740473,4.604143729989171
377.9448621553885,0.5734171448439473,0.6097235343839489,-9.809198,0.004585,-2.051754,-0.008766,0.0053058009260627615,0.008185594191853406,4.602241164024865
378.9473684210526,0.5734171457166121,0.6097231544257707,-9.790761,-0.020327,-2.027936,-0.021027,0.00747000919853573,0.007504915783575617,4.5998326096571125
379.9498746867168,0.573417141004223,0.6097227814489095,-9.786325,-0.03008,-2.024082,0.017046,0.004747295565424576,0.011100294042683936,4.600495730053116
