Time [s],Longitude [rad],Latitude [rad],Altitude [m],V North [m/s],V East [m/s],V Down [m/s],Roll [rad],Pitch [rad],Yaw [rad]
0.0,0.5733255319879115,0.609022677526057,-14.965237,-0.113278,-1.5036,-0.015156,0.02715732316103177,0.001308996938995747,4.505811827571933
1.0025062656641603,0.5733255147091518,0.609022397575245,-14.960248,-0.096535,-1.513918,0.007412,0.025953045977155684,0.004590215932745087,4.515759802882573
2.0050125313283207,0.5733254998738532,0.6090221158791038,-14.970488,-0.078404,-1.518859,0.011795,0.0226543736908864,0.003403392041388943,4.525516559920365
3.007518796992481,0.5733254887037459,0.6090218338338966,-14.97616,-0.066775,-1.509207,0.002352,0.02473131550075965,0.0014311699866353504,4.5338069785870925
4.010025062656641,0.573325479278968,0.6090215526613542,-14.976945,-0.052753,-1.502492,0.004699,0.02796017461694916,0.0019896753472735357,4.542760535103116
5.012531328320802,0.5733254721231181,0.6090212735832068,-14.987248,-0.035362,-1.510222,0.01654,0.029845130209103034,0.0030543261909900766,4.551714074165847
6.015037593984962,0.5733254675852621,0.6090209915379996,-15.00188,-0.019593,-1.521881,0.010776,0.024696408915719763,0.001308996938995747,4.559184240444015
7.017543859649122,0.5733254654908669,0.6090207079219961,-14.999354,-0.009982,-1.517982,-0.013171,0.02181661564992912,-0.0015882496193148398,4.5657638524713535
8.020050125313283,0.5733254649672681,0.609020425702256,-14.977769,-0.004544,-1.502117,-0.018911,0.028239427297268253,3.490658503988659e-05,4.572378615429828
9.022556390977442,0.5733254647927352,0.609020145925977,-14.968408,0.005614,-1.504536,0.006933,0.028693212902786775,0.004485496177625427,4.580145452774249
10.025062656641603,0.5733254668871304,0.609019865800632,-14.982142,0.0258,-1.521096,0.016926,0.024661502330679878,0.0037524578917878084,4.588505126105696
11.027568922305765,0.5733254721231181,0.6090195821846286,-14.990502,0.04322,-1.51938,0.000121,0.021781709064889233,8.726646259971648e-05,4.595155563594082
12.030075187969924,0.5733254796280339,0.6090192997903557,-14.985023,0.049415,-1.503851,-0.003928,0.021729349187329404,0.0007853981633974482,4.600478695639616
13.032581453634084,0.5733254885292132,0.6090190187923461,-14.988314,0.053405,-1.504076,0.013597,0.02350958502436362,0.0032114058236695662,4.606116074216972
14.035087719298245,0.573325498128524,0.6090187386670012,-15.003877,0.067635,-1.516155,0.016366,0.02181661564992912,0.001762782544514273,4.613585699443074
15.037593984962406,0.5733255098222299,0.609018456447261,-15.009744,0.083582,-1.516659,-0.004454,0.022130774915288098,-0.0020420352248333657,4.620287816130609
16.040100250626566,0.5733255239593968,0.6090181745765868,-14.992584,0.092787,-1.499768,-0.022601,0.024748768793279592,-0.0023212879051524586,4.625785638180976
17.042606516290725,0.5733255387946955,0.6090178974183016,-14.974202,0.094963,-1.490856,-0.007069,0.026022859147235455,0.0023212879051524586,4.63109171835972
18.045112781954884,0.5733255545026589,0.6090176202600164,-14.98043,0.101855,-1.502336,0.019546,0.024382249650360784,0.005131268000863329,4.637392234786371
19.047619047619047,0.5733255721304843,0.6090173406582703,-15.005327,0.12098,-1.517566,0.026472,0.022671826983406338,0.0024260076602721182,4.644705269071983
20.050125313283207,0.5733255925508365,0.609017056518668,-15.023818,0.135842,-1.518343,0.00858,0.019285888234537342,-0.0027052603405912107,4.650621760703318
21.052631578947366,0.5733256148910508,0.6090167732517304,-15.017469,0.14031,-1.502265,-0.016482,0.02129301687433082,-0.004642575810304917,4.655857521566499
22.05513784461153,0.5733256389765946,0.6090164938245173,-14.996727,0.143483,-1.48811,-0.017148,0.025865779514555962,-0.0012566370614359172,4.6614251393336525
23.05764411027569,0.5733256621894737,0.6090162182370283,-14.988646,0.148292,-1.492756,0.002292,0.02494075501099897,0.0028099800957108708,4.668075053223261
24.06015037593985,0.5733256855768856,0.6090159417768748,-14.995121,0.158867,-1.50272,0.008564,0.022165681500327987,0.002181661564992912,4.675684234976351
25.062656641604008,0.5733257112332256,0.6090156621751287,-14.998347,0.174167,-1.500104,0.000895,0.022741640153486113,-0.0003316125578789226,4.68394002631072
26.065162907268167,0.5733257402056913,0.6090153825733825,-14.999577,0.190394,-1.497528,0.006607,0.02415535684760152,-1.7453292519943296e-05,4.692178242179521
27.06766917293233,0.5733257717961507,0.6090151031461692,-15.007377,0.205574,-1.506122,0.007681,0.020490165418413427,0.00027925268031909274,4.699718186721184
28.07017543859649,0.5733258054810052,0.6090148228462914,-15.001662,0.216514,-1.498966,-0.019432,0.019896753472735354,-0.0020943951023931952,4.70692576821339
29.07268170426065,0.5733258407366562,0.6090145455134732,-14.972239,0.224065,-1.475834,-0.029744,0.02675589743307307,6.981317007977319e-05,4.7140816879597365
30.075187969924812,0.5733258772140375,0.609014270973182,-14.954742,0.228593,-1.473439,-0.000395,0.029426251188624394,0.006021385919380436,4.720731601849345
31.07769423558897,0.5733259136914188,0.609013997480088,-14.968463,0.238826,-1.488704,0.023639,0.022183134792847926,0.007016223593017205,4.7282369190586495
32.08020050125313,0.5733259527867941,0.6090137194491383,-14.994272,0.260847,-1.499167,0.023575,0.019390607989657,0.00312413936106985,4.736788857860495
33.08270676691729,0.5733259955473607,0.6090134391492604,-15.007955,0.281466,-1.498677,0.004168,0.021537362969610025,-0.0007330382858376184,4.744450242411513
34.08521303258145,0.5733260407513884,0.6090131595475141,-14.993689,0.290741,-1.482154,-0.027397,0.019128808601857852,-0.002478367537831948,4.750803485234867
35.08771929824561,0.5733260880498112,0.6090128855308217,-14.958989,0.290133,-1.457932,-0.031301,0.02684316389567279,0.0019896753472735357,4.756388661014297
36.09022556390977,0.5733261346501021,0.6090126153538534,-14.943324,0.290104,-1.459371,0.004996,0.030787608005179972,0.009005898940290741,4.76296879664041
37.092731829573935,0.5733261807267944,0.6090123439551548,-14.964643,0.3036,-1.483646,0.031866,0.022392574303087248,0.009128071987930343,4.770752685851625
38.095238095238095,0.5733262297705464,0.6090120666223366,-14.989747,0.327255,-1.493336,0.01438,0.01754055898254301,0.0028448866807507574,4.779897984239272
39.097744360902254,0.5733262830030886,0.6090117877187222,-14.986523,0.34541,-1.474118,-0.014926,0.020001473227855015,-0.0007155849933176752,4.787979085568809
40.100250626566414,0.5733263392026905,0.609011512480299,-14.966877,0.351043,-1.453716,-0.015619,0.027419122548830915,0.002548180707911721,4.794559221194923
41.10275689223057,0.5733263961004241,0.6090112430014626,-14.958023,0.356353,-1.453657,0.001305,0.0273318560862312,0.006684611035138282,4.8015926188277795
42.10526315789473,0.5733264531726906,0.6090109742207578,-14.962423,0.366796,-1.461896,0.007522,0.023177972466484696,0.007661995416255106,4.809167190701802
43.10776942355889,0.5733265123393524,0.6090107026475262,-14.965701,0.383017,-1.463827,0.000824,0.021642082724729686,0.0064053583548191895,4.817265867496907
44.11027568922306,0.5733265730768102,0.6090104302016299,-14.960368,0.398233,-1.457262,-0.007209,0.023230332344044525,0.006440264939859076,4.824735492723007
45.11278195488722,0.5733266367813279,0.6090101591519971,-14.951184,0.409605,-1.44627,-0.006887,0.024242623310201238,0.008063421144213804,4.831542538605173
46.11528822055138,0.5733267024057078,0.6090098901967594,-14.949724,0.420096,-1.43981,0.009451,0.02590068609959585,0.011152653920243767,4.837930391307594
47.11779448621554,0.5733267694263511,0.6090096212415216,-14.967608,0.429578,-1.449115,0.025712,0.02199114857512855,0.011780972450961725,4.843899609335633
48.1203007518797,0.5733268378432578,0.6090093514136192,-14.985818,0.433167,-1.455756,0.007865,0.01876228945893904,0.0075223690760955605,4.850305037503622
49.122807017543856,0.5733269071328291,0.6090090814111839,-14.977863,0.443075,-1.439618,-0.017589,0.0216071761396898,0.004886921905584123,4.8581235540471965
50.125313283208015,0.5733269778186638,0.6090088143758083,-14.960362,0.462502,-1.423428,-0.010134,0.02811725424962865,0.008237954069413234,4.865576668458573
51.127819548872175,0.5733270521696899,0.6090085497838938,-14.962897,0.477263,-1.424588,0.015204,0.025167647813758232,0.011431906600562858,4.871510718102183
52.130325814536334,0.573327128964177,0.6090082846683805,-14.9838,0.47849,-1.430086,0.023812,0.01858775653373961,0.010035643198967395,4.876764612936291
53.1328320802005,0.5733272055841312,0.6090080183311367,-15.002748,0.476436,-1.429407,0.013717,0.021223203704251046,0.0066322511575784525,4.883273905648067
54.13533834586466,0.5733272809823549,0.6090077518193597,-15.008589,0.48782,-1.423899,0.001968,0.023858650874762483,0.004485496177625427,4.892175259366163
55.13784461152882,0.5733273591731054,0.6090074872274452,-15.005397,0.509531,-1.418807,-0.002989,0.027087509990951997,0.004345869837465881,4.901198576692389
56.14035087719298,0.5733274401563826,0.6090072233336623,-15.000713,0.526046,-1.417003,-0.002415,0.022095868330248212,0.00481710873550435,4.909087936150301
57.14285714285714,0.5733275249793843,0.6090069592653464,-14.995294,0.533933,-1.41106,-0.004641,0.01965240737745615,0.004991641660703782,4.915824662716904
58.1453634085213,0.573327609627853,0.6090066971168928,-14.990149,0.535364,-1.400705,-0.000838,0.021973695282608608,0.0059515727493006645,4.922160312621398
59.14786967418546,0.5733276942763218,0.609006437586433,-14.993022,0.538209,-1.395864,0.0098,0.022916173078685546,0.007278022980816354,4.929699733564286
60.150375939849624,0.573327779971988,0.6090061759615782,-15.008114,0.553057,-1.400087,0.019224,0.022741640153486113,0.006841690667817772,4.938758201821647
61.152882205513784,0.5733278668893848,0.6090059141621903,-15.024658,0.5739,-1.403607,0.012442,0.021851522234969004,0.003473205211468716,4.947729333803238
62.15538847117794,0.5733279586937035,0.6090056525373355,-15.027269,0.589848,-1.397796,-0.004802,0.020298179200694055,0.00020943951023931956,4.956141716078095
63.1578947368421,0.573328053116016,0.6090053933559416,-15.013707,0.595279,-1.383842,-0.01631,0.02192133540504878,-0.0003316125578789226,4.963611358757488
64.16040100250626,0.5733281480619272,0.6090051371416074,-14.995337,0.599226,-1.368709,-0.0135,0.02303834612632515,0.002356194490192345,4.971360620636343
65.16290726817043,0.5733282435314373,0.6090048830216682,-14.988559,0.61099,-1.364336,0.003722,0.026406831582674203,0.006021385919380436,4.979511500229375
66.16541353383458,0.5733283403972108,0.6090046290762622,-14.99946,0.625879,-1.370803,0.017949,0.022689280275926284,0.006806784082777886,4.987417894100786
67.16791979949875,0.5733284395319124,0.6090043733855267,-15.016152,0.637559,-1.375965,0.014487,0.016807520696705394,0.004118977034706617,4.995534128908165
68.1704260651629,0.5733285416336736,0.6090041169966596,-15.021748,0.649126,-1.370198,-0.00265,0.02087413785385218,0.0008726646259971648,5.004120695042372
69.17293233082707,0.5733286446080995,0.6090038616549901,-15.008056,0.66071,-1.352304,-0.018474,0.022444934180647077,5.235987755982989e-05,5.012498467438162
70.17543859649122,0.5733287502005191,0.6090036108511765,-14.989245,0.670804,-1.335405,-0.010539,0.027035150113392165,0.003490658503988659,5.019654387184509
71.17794486215539,0.5733288570146694,0.6090033628398899,-14.992225,0.676426,-1.338157,0.018017,0.02349213173184368,0.006754424205218055,5.025902159761166
72.18045112781954,0.5733289641778855,0.6090031141304715,-15.014181,0.679891,-1.350066,0.021347,0.015341444125030157,0.0046251225177849735,5.032831169251461
73.1829573934837,0.5733290718647004,0.6090028628030592,-15.022315,0.691082,-1.344763,-0.006261,0.01785471824790199,0.00027925268031909274,5.041889654962115
74.18546365914787,0.5733291828676408,0.6090026128719103,-15.005548,0.713215,-1.321901,-0.019618,0.027209683038591597,0.0005061454830783556,5.051576092684343
75.18796992481202,0.5733292963140422,0.6090023664314198,-14.992408,0.727835,-1.309963,0.000635,0.027593655474030348,0.004380776422505767,5.058540270559066
76.19047619047619,0.5733294113312398,0.6090021233070552,-15.004228,0.728074,-1.315766,0.022369,0.019250981649497456,0.00486946861306418,5.06409029540736
77.19298245614034,0.5733295268720363,0.609001878437361,-15.027149,0.728747,-1.322817,0.020935,0.01884955592153876,0.0013962634015954637,5.071368178761836
78.19548872180451,0.5733296434600303,0.609001631298739,-15.036668,0.739997,-1.317597,-0.001685,0.020612338466053034,-0.002897246558310587,5.080653557275249
79.19799498746866,0.573329760746156,0.6090013857309132,-15.021081,0.755548,-1.298958,-0.023796,0.024190263432641405,-0.003839724354387525,5.089693926468266
80.20050125313283,0.5733298806502757,0.6090011450500092,-14.995352,0.770495,-1.278516,-0.020135,0.026040312439755398,-0.00047123889803846896,5.097967293268202
81.203007518797,0.573330003695988,0.6090009087324286,-14.988338,0.780713,-1.276135,0.008131,0.025743606466916362,0.003735004599267865,5.104145305034657
82.20551378446115,0.5733301283124965,0.6090006715421832,-15.007852,0.783352,-1.288121,0.027084,0.018622663118779494,0.0037524578917878084,5.110394142262157
83.20802005012531,0.5733302527544722,0.6090004315594111,-15.03336,0.785387,-1.295485,0.020595,0.014817845349431858,-0.0006981317007977319,5.118457127074057
84.21052631578947,0.5733303766728491,0.6090001886095792,-15.040309,0.793419,-1.287878,-0.006039,0.02012364627549462,-0.0051836278784231585,5.128108954917219
85.21303258145363,0.5733305016384236,0.6089999482777413,-15.018667,0.808141,-1.263276,-0.030342,0.02537708732399755,-0.0057246799465414016,5.138336566880613
86.21553884711778,0.5733306299201235,0.6089997145781544,-14.985775,0.823838,-1.240054,-0.025665,0.029007372168145754,-0.0007504915783575617,5.147097823019653
87.21804511278195,0.5733307615179492,0.6089994854164237,-14.974047,0.838781,-1.236588,0.006011,0.02658136450787364,0.005026548245743669,5.154428450224124
88.22055137844612,0.5733308959083017,0.6089992567782916,-14.992826,0.848986,-1.250297,0.027506,0.018360863730980347,0.005061454830783556,5.160938807586743
89.22305764411027,0.5733310311713187,0.6089990237768365,-15.016016,0.847223,-1.26121,0.014892,0.010821041362364843,0.0002443460952792061,5.168042000936387
90.22556390977444,0.5733311652126052,0.6089987888555191,-15.013802,0.84435,-1.249048,-0.016185,0.018465583486100008,-0.0028448866807507574,5.177571847718126
91.22807017543859,0.5733312989048259,0.6089985563776628,-14.987372,0.856538,-1.221545,-0.028278,0.02818706741970842,-0.000767944870877505,5.18874167567821
92.23057644110276,0.5733314348659746,0.6089983296593929,-14.965195,0.880921,-1.204192,-0.010114,0.030700341542580254,0.004799655442984407,5.1978699396523576
93.23308270676691,0.5733315750159136,0.6089981067808474,-14.968769,0.898178,-1.205354,0.016165,0.022602013813326566,0.007539822368615503,5.204431958760836
94.23558897243107,0.5733317174347805,0.6089978832041704,-14.990874,0.902606,-1.213714,0.024366,0.013351768777756621,0.005427973973702365,5.211047245318085
95.23809523809523,0.5733318610753779,0.608997657358565,-15.009263,0.900029,-1.212548,0.011182,0.01642354826126664,0.0010122909661567112,5.218970691056288
96.2406015037594,0.573332003494245,0.6089974320365587,-15.009269,0.902336,-1.198348,-0.007373,0.023177972466484696,-0.0007504915783575617,5.2286917561108766
97.24310776942356,0.5733321459131119,0.6089972093325461,-14.995311,0.915391,-1.182274,-0.015854,0.02764601535159018,0.0004886921905584122,5.238902316207479
98.24561403508771,0.5733322909499727,0.6089969916899883,-14.978266,0.935641,-1.16801,-0.013934,0.026808257310632903,0.0030892327760299633,5.248588771383
99.24812030075188,0.5733324400010908,0.6089967761418257,-14.972033,0.953585,-1.159651,0.004349,0.024556782575560217,0.005427973973702365,5.255954008466539
100.25062656641603,0.5733325918447357,0.608996560942729,-14.989002,0.959103,-1.164074,0.028411,0.0165282680163863,0.005532693728822024,5.261905633575717
101.2531328320802,0.5733327447355782,0.6089963457436322,-15.019783,0.9552,-1.17055,0.028072,0.011205013797803596,0.0016929693744344998,5.269026925989704
102.25563909774435,0.5733328967537561,0.6089961287992062,-15.033672,0.955048,-1.1612,-0.0019,0.02035053907825388,-0.0028623399732707008,5.278382082766611
103.25814536340852,0.5733330487719339,0.6089959134255765,-15.014942,0.969195,-1.136741,-0.02944,0.02907718533822553,-0.0031764992386296795,5.288539375414443
104.26065162907267,0.5733332032335727,0.6089957031134016,-14.985749,0.987248,-1.118621,-0.022074,0.030438542154781107,0.001308996938995747,5.296777608736536
105.26315789473684,0.5733333604877383,0.6089954966409511,-14.977015,1.000322,-1.117237,0.007058,0.023282692221604357,0.005497787143782138,5.302729233845715
106.265664160401,0.573333519661766,0.6089952899939677,-14.993938,1.006863,-1.123006,0.024199,0.01684242728174528,0.005166174585903215,5.308959972008871
107.26817042606515,0.5733336802320573,0.6089950826488525,-15.016809,1.006233,-1.124325,0.019117,0.015166911199830723,0.0019373154697137059,5.315819203235672
108.27067669172932,0.5733338399296839,0.6089948735584082,-15.025616,1.006147,-1.116431,-0.000446,0.02022836603061428,-0.0012217304763960308,5.324231602963821
109.27318295739347,0.5733339992782446,0.6089946660387601,-15.015772,1.01514,-1.101561,-0.014407,0.024975661596038857,-0.0019024088846738192,5.3337960770779205
110.27568922305764,0.5733341605466675,0.6089944613116388,-14.999328,1.031756,-1.084,-0.01337,0.026476644752753978,-0.0004188790204786391,5.343151233854829
111.27819548872179,0.5733343244330842,0.6089942605987749,-14.991514,1.044872,-1.072108,0.00075,0.024591689160600103,0.0022689280275926286,5.350708212809991
112.28070175438596,0.5733344904138962,0.6089940612821743,-14.999507,1.04993,-1.071026,0.014797,0.020263272615654165,0.0031764992386296795,5.357287824837329
113.28320802005013,0.5733346570928396,0.6089938621401065,-15.015801,1.050224,-1.074929,0.016176,0.015690509975429024,0.0011519173063162576,5.364618434588508
114.28571428571428,0.5733348223755198,0.6089936624744402,-15.025059,1.052865,-1.070512,0.002896,0.018814649336498873,-0.002007128639793479,5.3740082186977745
115.28822055137844,0.5733349890544633,0.6089934640305043,-15.02156,1.064616,-1.056603,-0.006964,0.023806290997202658,-0.003246312408709453,5.384218761341085
116.2907268170426,0.5733351581768679,0.6089932673318975,-15.013735,1.082531,-1.045744,-0.006084,0.026738444140553128,-0.002478367537831948,5.393957419314533
117.29323308270676,0.5733353302663321,0.6089930727276859,-15.008805,1.095845,-1.039777,-0.003155,0.02696533694331239,-0.0014311699866353504,5.402858773032629
118.29573934837092,0.5733355049737903,0.6089928791706718,-15.004763,1.104691,-1.035253,-0.003211,0.024661502330679878,-0.0008203047484373349,5.411323358105414
119.29824561403508,0.5733356821247094,0.6089926863117896,-15.002924,1.118333,-1.032805,0.001842,0.027838001569309555,-0.00015707963267948965,5.420154933560015
120.30075187969925,0.5733358611954906,0.6089924941510388,-15.008067,1.133287,-1.036647,0.010048,0.026511551337793864,0.00022689280275926284,5.4290035434281165
121.3032581453634,0.5733360413134694,0.6089922995468273,-15.018292,1.143974,-1.044713,0.010411,0.02106612407157156,-0.0012915436464758037,5.438253771010395
122.30576441102757,0.5733362231767776,0.608992104069951,-15.02147,1.155529,-1.045218,-0.004036,0.022287854547967587,-0.003420845333908886,5.449197229766494
123.30827067669172,0.5733364074835465,0.6089919098148053,-15.007544,1.176628,-1.025584,-0.019478,0.030089476304382242,-0.003961897402027128,5.461641130627241
124.31077694235589,0.573336594931908,0.6089917202720485,-14.987328,1.201805,-0.999466,-0.01306,0.03260275042725408,-0.0010297442586766543,5.472497235654278
125.31328320802004,0.5733367860454612,0.6089915347435491,-14.986347,1.213099,-0.996669,0.011356,0.027209683038591597,0.0019024088846738192,5.479513598873635
126.3157894736842,0.5733369792534094,0.6089913495641155,-15.00583,1.21282,-1.014668,0.021474,0.021432643214490368,0.0005061454830783556,5.487140897144361
127.31829573934836,0.5733371728104235,0.6089911617666879,-15.021067,1.222766,-1.023952,0.007194,0.023177972466484696,-0.002897246558310587,5.497978885653763
128.32080200501252,0.5733373677637009,0.6089909701295361,-15.016652,1.249999,-1.012015,-0.013797,0.0317649923862968,-0.004904375198104067,5.510894688637664
129.32330827067668,0.5733375658585711,0.6089907800631805,-14.995864,1.275715,-0.991501,-0.024635,0.031223940318178555,-0.003996803987067015,5.522483168725422
130.32581453634086,0.573337768840363,0.6089905966290761,-14.971777,1.289673,-0.973158,-0.020498,0.02829178717482808,-0.000593411945678072,5.5320476428395216
131.328320802005,0.5733379751382807,0.608990417558295,-14.961745,1.298313,-0.96505,0.002544,0.030857421175259747,0.004101523742186674,5.540111692302267
132.33082706766916,0.57333818213433,0.6089902384875137,-14.977688,1.307822,-0.975998,0.026482,0.026668630970473357,0.0055152404363020815,5.54800051070811
133.33333333333331,0.5733383900030439,0.6089900564496726,-15.004853,1.319673,-0.993566,0.020667,0.022078415037728265,0.0017278759594743863,5.557582036689001
134.3358395989975,0.573338599617087,0.6089898705721073,-15.009158,1.33534,-0.986949,-0.012783,0.026738444140553128,-0.0025830872929516074,5.569956141832961
135.33834586466165,0.5733388127217887,0.6089896876616018,-14.983886,1.356807,-0.956181,-0.030872,0.033719761148530446,-0.0016755160819145565,5.582679661893169
136.3408521303258,0.5733390286190172,0.6089895106852156,-14.957371,1.379363,-0.93148,-0.01669,0.03536037064540511,0.003996803987067015,5.59259300987145
137.34335839598998,0.5733392490541017,0.6089893387702842,-14.955158,1.39479,-0.930526,0.010394,0.027820548276789616,0.007871434926494426,5.599923637075921
138.34586466165413,0.5733394712345153,0.6089891652845566,-14.972089,1.400566,-0.945362,0.017454,0.02129301687433082,0.006928957130417489,5.607655323489208
139.34837092731829,0.573339694113061,0.6089889883081704,-14.985026,1.408437,-0.949799,0.004488,0.024015730507441973,0.004118977034706617,5.618895453311562
140.35087719298244,0.5733399176897381,0.6089888116808501,-14.98081,1.427122,-0.933213,-0.010818,0.032934362985133,0.0035779249665883754,5.631898610024525
141.35338345864662,0.5733401447570737,0.6089886380205896,-14.968219,1.453806,-0.909731,-0.009756,0.03666936758440086,0.0059515727493006645,5.643836487575242
142.35588972431077,0.5733403765367984,0.6089884692472509,-14.964379,1.477289,-0.89906,0.00254,0.03167772592369708,0.008307767239493008,5.653069139691951
143.35839598997492,0.5733406112835828,0.6089883039645707,-14.970553,1.489086,-0.898068,0.005949,0.023212879051524585,0.008587019919812101,5.66196995235798
144.36090225563908,0.5733408481247624,0.6089881381582917,-14.97267,1.496429,-0.888638,-0.002536,0.027785641691749727,0.007801621756414653,5.672058007794384
145.36340852130326,0.5733410858386064,0.608987974271875,-14.968985,1.507111,-0.874743,-0.002353,0.03488913174736665,0.0091106186954104,5.681675225758478
146.3659147869674,0.5733413245996481,0.60898781108359,-14.970226,1.522752,-0.870819,0.005562,0.032882003107573166,0.010925761117484502,5.6905414110921475
147.36842105263156,0.5733415670258812,0.608987647546239,-14.978267,1.543198,-0.871013,0.008609,0.031276300195738384,0.010629055144645466,5.69975648774329
148.37092731829574,0.5733418134663716,0.6089874852306186,-14.985414,1.566868,-0.863132,0.004573,0.029949849964222695,0.00890117918517108,5.709966506787824
149.3734335839599,0.5733420630484546,0.6089873257075249,-14.986984,1.585353,-0.847205,0.000455,0.030211649352021846,0.00773180858633488,5.7210495220709126
150.37593984962405,0.5733423155975974,0.6089871688024252,-14.986049,1.593581,-0.832221,-0.000303,0.028623399732707003,0.00747000919853573,5.731608956031696
151.3784461152882,0.5733425677976742,0.608987015387984,-14.984792,1.596681,-0.825778,-0.001518,0.03066543495754037,0.00815068760681352,5.741452543199774
152.38095238095238,0.5733428212194817,0.6089868630207402,-14.982648,1.610491,-0.823818,-0.00325,0.03431317309420852,0.009564404300928926,5.7514010421091895
153.38345864661653,0.5733430776083488,0.6089867106534966,-14.979049,1.636435,-0.812239,-0.004271,0.03652974124424132,0.009913470151327791,5.76272800206183
154.38596491228068,0.5733433385350719,0.6089865614278455,-14.977543,1.662543,-0.792935,0.002515,0.037192966359999156,0.010489428804485921,5.774002759216542
155.38847117794487,0.5733436041741842,0.608986415867386,-14.986029,1.679132,-0.781972,0.012212,0.034400439556808236,0.011030480872604163,5.783707313456407
156.39097744360902,0.5733438713840927,0.6089862713541239,-14.997758,1.687394,-0.781208,0.006309,0.03094468763785946,0.009808750396208134,5.792765258114993
157.39348370927317,0.5733441394666657,0.6089861280625923,-14.993622,1.693519,-0.771885,-0.013636,0.03204424506661589,0.00916297857297023,5.803673565939957
158.39598997493732,0.5733444087709693,0.6089859859927911,-14.977961,1.706197,-0.753767,-0.012192,0.04064871827894794,0.011571532940722405,5.815489479882544
159.3984962406015,0.5733446796460692,0.6089858460173851,-14.975309,1.726764,-0.745187,0.008221,0.03986332011555049,0.015114551322270894,5.8262055047838155
160.40100250626566,0.5733449548844923,0.6089857081363742,-14.989271,1.752842,-0.738411,0.016149,0.030211649352021846,0.014416419621473161,5.838143923386601
161.4035087719298,0.5733452344862384,0.6089855735714889,-14.999561,1.775525,-0.716497,0.004671,0.03495894491744642,0.0113271868454432,5.850745462385387
162.406015037594,0.5733455161823796,0.6089854414500645,-15.000251,1.786058,-0.691362,-0.000346,0.042167154728183,0.010367255756846317,5.862334483525214
163.40852130325814,0.5733457997983832,0.6089853136919633,-15.00303,1.791081,-0.680304,0.006633,0.03986332011555049,0.011362093430483085,5.8732422502981105
164.4110275689223,0.5733460830653208,0.6089851875046584,-15.013268,1.803569,-0.677303,0.012369,0.036931166972200016,0.011711159280881952,5.884499431987257
165.41353383458645,0.573346369299318,0.6089850618409522,-15.023986,1.826703,-0.668662,0.00724,0.03544763710800484,0.00958185759344887,5.89690922911442
166.41604010025063,0.5733466598966385,0.6089849380971082,-15.026208,1.849264,-0.65154,-0.003591,0.038467056713955027,0.0079412480965742,5.910278311558356
167.41854636591478,0.5733469539846175,0.6089848181929886,-15.019008,1.864076,-0.628215,-0.01095,0.039968039870670144,0.00799360797413403,5.923280927219251
168.42105263157893,0.5733472494688598,0.6089847036993897,-15.010243,1.875208,-0.605456,-0.006189,0.04038691889114879,0.00952949771588904,5.936196189151084
169.4235588972431,0.5733475472220302,0.6089845923473834,-15.01072,1.890275,-0.588355,0.006377,0.042743113381341125,0.011362093430483085,5.948326349625491
170.42606516290726,0.5733478474186616,0.6089844841369697,-15.021752,1.907295,-0.577563,0.01319,0.04298745947662034,0.010611601852125523,5.959112693842327
171.42857142857142,0.5733481516295502,0.6089843781954842,-15.034518,1.925208,-0.565864,0.011211,0.038659042931674395,0.008447393579652554,5.971295057114662
172.43107769423557,0.573348457934834,0.6089842753955913,-15.041904,1.941089,-0.551364,0.002852,0.03851941659151485,0.0075223690760955605,5.983878497049106
173.43358395989975,0.5733487654618481,0.608984173468363,-15.037687,1.952901,-0.532083,-0.010243,0.042551127163621756,0.007260569688296411,5.9968289099120735
174.4360902255639,0.5733490747341916,0.6089840771261882,-15.02426,1.965776,-0.5027,-0.012564,0.04557054676957195,0.007853981633974483,6.009657359166913
175.43859649122805,0.5733493862754631,0.6089839858454684,-15.018703,1.983976,-0.480458,0.002422,0.04529129408925286,0.010733774899765127,6.020897488989267
176.44110275689223,0.5733497021800577,0.6089838985790057,-15.03051,2.003799,-0.474164,0.015164,0.03677408733952053,0.010786134777324957,6.031753070417528
177.4436090225564,0.5733500207026462,0.6089838123597408,-15.042302,2.013822,-0.464894,0.003404,0.036023595761162965,0.007435102613495843,6.044022787418926
178.44611528822054,0.5733503395743005,0.6089837280603378,-15.040102,2.016071,-0.440919,-0.007165,0.039653880605311165,0.0062482787221397,6.057583611734486
179.4486215538847,0.5733506591440866,0.6089836463789288,-15.03291,2.021094,-0.412138,-0.005915,0.04290019301402062,0.007504915783575617,6.070848271129275
180.45112781954887,0.5733509792374714,0.6089835709807052,-15.029963,2.029447,-0.38858,-0.002498,0.042551127163621756,0.007906341511534314,6.0821230282839895
181.45363408521303,0.5733513002035208,0.6089835018656669,-15.028853,2.035472,-0.368642,-0.002224,0.039095375244672985,0.0079412480965742,6.093031877161022
182.45614035087718,0.5733516227403666,0.6089834369394186,-15.028751,2.035531,-0.349871,0.000912,0.037576938795437914,0.00809832772925369,6.1047252864434105
183.45864661654133,0.5733519449281465,0.6089833751547631,-15.034723,2.036942,-0.333652,0.008606,0.037768925013157296,0.00874409955249159,6.116698332378555
184.4611528822055,0.5733522671159264,0.6089833138937063,-15.045089,2.04149,-0.318866,0.007443,0.03155555287605748,0.007138396640656807,6.1295613915124605
185.46365914786966,0.5733525886055747,0.6089832566469068,-15.046924,2.043534,-0.29452,-0.006332,0.03876376268679406,0.0038571776469074684,6.143541391554472
186.46616541353382,0.5733529113169533,0.6089832037634306,-15.039233,2.045319,-0.262774,-0.007923,0.03900810878207326,0.0038571776469074684,6.157242295995798
187.468671679198,0.5733532347264638,0.6089831559414091,-15.037029,2.049572,-0.239837,0.001514,0.03913028182971287,0.0051836278784231585,6.169424659268133
188.47117794486215,0.5733535591831717,0.6089831130063094,-15.044247,2.055896,-0.223681,0.008428,0.03546509040052478,0.004886921905584123,6.18134550240535
189.4736842105263,0.5733538841634783,0.6089830746090659,-15.050387,2.059198,-0.206471,0.002754,0.03707079331235956,0.0032114058236695662,6.193196026227004
190.47619047619045,0.573354209492851,0.6089830388298163,-15.04987,2.058535,-0.185052,-0.003633,0.034871678454846705,0.0017453292519943296,6.206460703075085
191.47869674185463,0.5733545349967565,0.6089830072393568,-15.045085,2.055682,-0.16068,-0.007982,0.03956661414271145,0.0011693705988362008,6.219847343531296
192.4812030075188,0.5733548587553327,0.6089829812339509,-15.038873,2.052316,-0.129958,-0.006354,0.04129449010218584,0.0013788101090755204,6.233653177167253
193.48370927318294,0.5733551814667114,0.608982959766401,-15.035889,2.055487,-0.101291,0.000344,0.04183554217030407,0.0021991148575128553,6.245817423921952
194.48621553884712,0.5733555064470182,0.6089829423131086,-15.040154,2.065196,-0.085806,0.005507,0.040177479380909466,0.0024260076602721182,6.256743307212484
195.48872180451127,0.5733558324745224,0.6089829285250075,-15.046177,2.073678,-0.075253,0.002932,0.03385938748868999,0.0008203047484373349,6.267425245833465
196.49122807017542,0.5733561611200205,0.6089829170058344,-15.044589,2.071779,-0.057545,-0.009229,0.03420845333908886,-0.0016057029118347831,6.279956482969982
197.49373433583958,0.5733564887183212,0.6089829091518528,-15.032382,2.060753,-0.025896,-0.016549,0.04345869837465881,-0.0016057029118347831,0.010925761117484502
198.49624060150376,0.5733568138731608,0.6089829077555894,-15.019413,2.052073,0.009413,-0.009218,0.04389503068765739,0.0008726646259971648,0.02378883770468271
199.4987468671679,0.5733571369336053,0.6089829136897088,-15.017591,2.054671,0.03363,0.005046,0.04391248398017733,0.003298672286269283,0.03354522822333101
200.50125313283206,0.5733574608667145,0.6089829229399539,-15.028931,2.064001,0.04552,0.012606,0.041852995462824026,0.0021118483949131386,0.04194026192542374
201.50375939849624,0.573357786719686,0.6089829344591269,-15.040485,2.069039,0.055302,0.005677,0.036110862223762676,-0.001308996938995747,0.05152211951887261
202.5062656641604,0.573358113096256,0.6089829468509647,-15.040061,2.064448,0.071329,-0.007654,0.03876376268679406,-0.0032288591161895096,0.06293657282691552
203.50877192982455,0.5733584387746944,0.608982962384395,-15.02864,2.056851,0.094098,-0.014776,0.044034657027816934,-0.0025132741228718345,0.07553785002631459
204.5112781954887,0.5733587637550012,0.6089829835028789,-15.013121,2.05287,0.123018,-0.01693,0.047612581994405316,-0.0005061454830783556,0.08822639368831335
205.51378446115288,0.5733590864663798,0.6089830103809495,-14.999191,2.050533,0.156265,-0.012923,0.04468042885105484,0.0016929693744344998,0.09908234163571808
206.51629072681703,0.5733594097013573,0.608983044065804,-14.994641,2.051438,0.183327,0.002038,0.04242895411598215,0.003473205211468716,0.10758209509293047
207.51879699248119,0.5733597336344665,0.6089830822885146,-15.006341,2.054719,0.195191,0.018143,0.039322268047432246,0.003420845333908886,0.1151742773391058
208.52130325814534,0.5733600582657074,0.6089831219074886,-15.030168,2.055476,0.19136,0.023226,0.036896260387160124,-3.490658503988659e-05,0.12356931104119853
209.52380952380952,0.5733603823733494,0.6089831597811334,-15.043366,2.050644,0.191858,-0.001669,0.03600614246864302,-0.003996803987067015,0.135123390689401
210.52631578947367,0.5733607045611293,0.6089831981783769,-15.026085,2.04233,0.223627,-0.033363,0.04492477494633404,-0.004049163864626845,0.14880677202503653
211.52882205513782,0.5733610258762446,0.6089832433824045,-14.987557,2.037852,0.276145,-0.039391,0.049410271123959466,-8.726646259971648e-05,0.16118115642167632
212.531328320802,0.5733613473658928,0.6089832992329406,-14.963166,2.039428,0.312434,-0.007301,0.0415213829049451,0.004677482395344803,0.16989033193583553
213.53383458646616,0.5733616690300739,0.6089833615411948,-14.977274,2.04182,0.312391,0.027513,0.03066543495754037,0.005829399701661061,0.17723818554002416
214.5363408521303,0.5733619915669197,0.6089834233258504,-15.012767,2.038481,0.300749,0.030432,0.026738444140553128,0.001954768762233649,0.1868724030110329
215.53884711779446,0.5733623134056338,0.6089834812707815,-15.031739,2.029692,0.307632,-0.000233,0.037559485502917975,-0.0030019663134302466,0.2001543586187097
216.54135338345864,0.5733626333244857,0.6089835407865091,-15.013106,2.021154,0.342532,-0.033758,0.04616395871525002,-0.003665191429188092,0.21498965726066152
217.5438596491228,0.5733629514980084,0.6089836069344878,-14.976164,2.018441,0.386356,-0.033021,0.04860741966804208,0.000767944870877505,0.22883011822897656
218.54636591478695,0.5733632700205968,0.608983683379909,-14.956882,2.020861,0.416793,-0.005299,0.04316199240181977,0.005096361415823442,0.24036672713136653
219.54887218045113,0.5733635895903829,0.6089837654103838,-14.966518,2.02116,0.429092,0.018148,0.03214896482173555,0.006213372137099813,0.2519208242328615
220.55137844611528,0.5733639077639056,0.6089838505824513,-14.987537,2.013173,0.439766,0.015762,0.03445279943436806,0.003159045946109736,0.2650980600854187
221.55388471177943,0.5733642247156977,0.6089839352309201,-14.99635,2.000662,0.457894,-0.002302,0.041713369122664476,0.0009075712110370514,0.2781880120220837
222.55639097744358,0.5733645395730947,0.6089840228464485,-14.986382,1.990465,0.486279,-0.018194,0.0438601241026175,0.001308996938995747,0.29140015445968076
223.55889724310777,0.5733648530342285,0.6089841167451622,-14.969103,1.987099,0.518027,-0.014659,0.04412192349041665,0.004468042885105484,0.30377457376290556
224.56140350877192,0.5733651664953621,0.60898421745066,-14.96214,1.987907,0.540685,-7.1e-05,0.04160864936754481,0.006998770300497262,0.3147526773046574
225.56390977443607,0.5733654813527591,0.6089843219958824,-14.968239,1.987727,0.553173,0.00838,0.03630284844148206,0.007487462491055674,0.32592278451742107
226.56641604010025,0.5733657953374915,0.6089844279373678,-14.97747,1.981521,0.56681,0.00652,0.03452261260444784,0.006230825429619756,0.3375466773357033
227.5689223057644,0.5733661075768948,0.6089845361477816,-14.981995,1.96928,0.586105,0.001364,0.03815289744859604,0.005323254218582705,0.3501479545351024
228.57142857142856,0.5733664178964357,0.6089846476743207,-14.982062,1.956142,0.611749,-0.000778,0.03988077340807043,0.005585053606381855,0.3637266161156183
229.5739348370927,0.5733667262961145,0.608984763738716,-14.981018,1.948482,0.638819,-0.002125,0.04312708581677988,0.006230825429619756,0.37706093160085496
230.5764411027569,0.5733670334740629,0.6089848852136319,-14.979051,1.948409,0.660629,-0.004234,0.04227187448330266,0.006841690667817772,0.38842300757804554
231.57894736842104,0.5733673397793466,0.6089850119245356,-14.976177,1.949749,0.678154,-0.003078,0.03937462792499207,0.007557275661135447,0.39905208017598354
232.5814536340852,0.5733676474808939,0.6089851428242296,-14.975706,1.946438,0.69302,0.000449,0.037123153189919385,0.007923794804054257,0.4105538173999187
233.58395989974937,0.5733679539607104,0.6089852752947198,-14.981574,1.935145,0.710376,0.006894,0.03735004599267865,0.007871434926494426,0.42350412554313155
234.58646616541353,0.5733682581715991,0.6089854091614734,-14.992401,1.920436,0.727093,0.010187,0.037803831598197175,0.0074176493209759005,0.4371526352003123
235.58897243107768,0.5733685604626254,0.6089855479151489,-14.999515,1.907837,0.745415,0.001667,0.04194026192542374,0.006335545184739416,0.4506091237331885
236.59147869674183,0.5733688606592569,0.6089856889377525,-14.996829,1.900372,0.768663,-0.007942,0.042882739721500675,0.006230825429619756,0.46340235224372195
237.593984962406,0.5733691612049541,0.6089858357199426,-14.989085,1.897577,0.798511,-0.009932,0.045553093477052,0.006387905062299246,0.47661449468131895
238.59649122807016,0.5733694601798549,0.6089859882617192,-14.982029,1.893895,0.827155,-0.005622,0.03986332011555049,0.006894050545377602,0.4887096263976397
239.59899749373432,0.573369758631157,0.6089861460394836,-14.980223,1.88439,0.846203,0.000635,0.038467056713955027,0.00773180858633488,0.5008222637663579
240.6015037593985,0.573370054813531,0.608986308006038,-14.987545,1.870992,0.859261,0.010038,0.041015237421866746,0.00815068760681352,0.5129697379069459
241.60401002506265,0.5733703497741747,0.6089864708452574,-15.003397,1.861144,0.86701,0.016068,0.039409534510031964,0.0071907565182166375,0.5255012019362651
242.6065162907268,0.5733706422913573,0.6089866336844765,-15.018291,1.854489,0.876119,0.008761,0.04157374278250493,0.005148721293383272,0.5387307976663822
243.60902255639095,0.5733709346340069,0.6089867989671567,-15.018814,1.843983,0.897752,-0.009654,0.046635197613288486,0.003543018381548489,0.5530424800794432
244.61152882205513,0.5733712245331958,0.6089869693112917,-15.001377,1.829438,0.935637,-0.022621,0.047787114919604745,0.004590215932745087,0.5671796121140122
245.6140350877193,0.5733715121634565,0.6089871482075401,-14.979529,1.818521,0.976006,-0.018021,0.046129052130210124,0.00783652834145454,0.5798681732293035
246.61654135338344,0.5733717989210526,0.6089873354813687,-14.97132,1.811713,1.000827,0.001217,0.042498767286061924,0.009669124056048587,0.5903925260721218
247.6190476190476,0.5733720846314511,0.6089875253731913,-14.984848,1.806116,1.00319,0.020981,0.04068362486398782,0.009128071987930343,0.599887152109556
248.62155388471177,0.5733723689455862,0.6089877145668823,-15.012383,1.797043,0.994176,0.027908,0.03935717463247213,0.006719517620178169,0.6105684973185913
249.62406015037593,0.5733726518634581,0.6089879016661781,-15.034804,1.784775,0.998394,0.013141,0.042882739721500675,0.004049163864626845,0.6239726434272003
250.62656641604008,0.5733729328614675,0.6089880889400068,-15.034924,1.769681,1.029663,-0.014353,0.05030038904247658,0.0018849555921538759,0.6386683680888701
251.62907268170426,0.5733732115905491,0.6089882838932843,-15.010725,1.75304,1.075171,-0.029605,0.051103240498393966,0.0026354471705114374,0.6521073509693489
252.6315789473684,0.573373487003505,0.6089884896676031,-14.983134,1.740326,1.108254,-0.020735,0.04806636759992384,0.005899212871740834,0.663137831841953
253.63408521303256,0.5733737606711318,0.6089887013760414,-14.974721,1.736932,1.117957,0.002078,0.04131194339470578,0.009407324668249437,0.6723532401056532
254.63659147869672,0.5733740345132914,0.6089889132590125,-14.986776,1.734588,1.118869,0.015082,0.03340560188317147,0.008918632477691025,0.6824063365971406
255.6390977443609,0.5733743071337206,0.6089891242693192,-15.001361,1.724611,1.127067,0.008882,0.03597123588360313,0.006457718232379019,0.6940999378657473
256.64160401002505,0.5733745787069522,0.6089893358032245,-15.007211,1.706198,1.144567,-0.001014,0.043720497762457955,0.0047298422729046335,0.7060555305083711
257.64411027568923,0.5733748473131242,0.6089895508277884,-15.006863,1.684394,1.168522,-0.001494,0.04783947479716458,0.005148721293383272,0.7189709320665442
258.64661654135335,0.5733751119050386,0.6089897724846033,-15.008063,1.669216,1.192418,0.002724,0.04808382089244378,0.006230825429619756,0.7308042993016507
259.64912280701753,0.5733753744025581,0.6089899985047414,-15.010272,1.660592,1.210936,-0.000144,0.046321038347929507,0.0060911990894602095,0.7424281921199329
260.6516290726817,0.5733756360274131,0.608990228190071,-15.008078,1.654847,1.226797,-0.006655,0.04591961261997081,0.005393067388662479,0.7534062782083922
261.65413533834584,0.5733758966050704,0.6089904606679274,-15.000045,1.647428,1.243218,-0.011037,0.043580871422298405,0.0056199601914217415,0.7639131777586907
262.65664160401,0.5733761554373985,0.608990697334574,-14.989863,1.63013,1.264085,-0.009708,0.04485496177625427,0.006387905062299246,0.7746992427228455
263.65914786967414,0.5733764107790681,0.6089909369682802,-14.985373,1.60655,1.285163,0.000887,0.04665265090580843,0.007801621756414653,0.7859217447197541
264.6616541353383,0.5733766635027437,0.6089911800926451,-14.993467,1.589423,1.299749,0.012979,0.04410447019789671,0.008185594191853406,0.7953639759730434
265.6641604010025,0.5733769144810902,0.6089914253114049,-15.009849,1.582042,1.306246,0.015837,0.04365068459237818,0.006824237375297829,0.8043175324890669
266.66666666666663,0.5733771621433109,0.6089916712282966,-15.02198,1.57543,1.316195,0.005469,0.044785148606174496,0.004537856055185257,0.8138296118190209
267.6691729323308,0.5733774105036636,0.6089919209849126,-15.020985,1.561848,1.336924,-0.008414,0.04649557127312894,0.003351032163829113,0.8245807876514285
268.671679197995,0.5733776564205553,0.6089921749303187,-15.009396,1.545506,1.360766,-0.014089,0.04569271981721155,0.004014257279586958,0.8345989950111685
269.6741854636591,0.5733778998939858,0.6089924316682517,-14.997947,1.531095,1.37796,-0.009292,0.045116761164053415,0.005532693728822024,0.8439714654542556
270.6766917293233,0.5733781407494226,0.6089926913732444,-14.995,1.522787,1.387593,0.000839,0.0436157780073383,0.007260569688296411,0.8528726097328415
271.6791979949875,0.5733783803831289,0.608992953696231,-15.001166,1.515349,1.396204,0.007257,0.04043927876870862,0.006841690667817772,0.8617563181722002
272.6817042606516,0.5733786182715059,0.6089932168918821,-15.00993,1.501075,1.408431,0.007219,0.03834488366631542,0.004921828490624009,0.8720362551065692
273.6842105263158,0.5733788542400208,0.6089934814837967,-15.016831,1.482307,1.422927,0.004919,0.0415213829049451,0.0029321531433504737,0.8835031555586346
274.68671679197996,0.5733790879396077,0.6089937493918369,-15.020163,1.463663,1.438698,-0.000186,0.046966810171167404,0.0022689280275926286,0.8953189996880512
275.6892230576441,0.5733793172758714,0.6089940206160027,-15.019273,1.449187,1.454015,-0.002644,0.04731587602156627,0.0029670597283903604,0.9063844395055728
276.69172932330827,0.5733795441686741,0.6089942942836294,-15.015765,1.435782,1.470432,-0.004536,0.045867252742410984,0.003682644721708035,0.9175544769051663
277.6942355889724,0.5733797698397465,0.6089945723145793,-15.013253,1.422249,1.487982,-0.001889,0.046024332375090474,0.003420845333908886,0.9290910858075564
278.69674185463657,0.5733799937654894,0.6089948538361876,-15.01213,1.408012,1.504911,-0.002719,0.04475024202113461,0.002827433388230814,0.9408372214866484
279.69924812030075,0.5733802152477715,0.6089951388484545,-15.007957,1.391212,1.519107,-0.008727,0.04831071369520304,0.0024609142453120045,0.9525832349926927
280.7017543859649,0.573380433762994,0.6089954252569848,-14.996533,1.369238,1.535403,-0.013662,0.049340457953879695,0.0032812189937493396,0.9639104567447209
281.70426065162906,0.5733806479148932,0.6089957149816405,-14.983796,1.347011,1.551538,-0.010114,0.045867252742410984,0.005899212871740834,0.9737540962726764
282.70676691729324,0.5733808585761337,0.608996007847889,-14.983299,1.327427,1.566279,0.008648,0.042498767286061924,0.008569566627292158,0.9830916077708459
283.70927318295736,0.5733810673175124,0.6089963028085326,-14.99902,1.316313,1.576455,0.019507,0.04382521751757762,0.00809832772925369,0.9924814442399904
284.71177944862154,0.5733812748371604,0.6089965995145055,-15.017914,1.313018,1.58209,0.014386,0.041887902047863905,0.00603883921190038,1.0019411811456773
285.7142857142857,0.5733814809605451,0.6089968977912746,-15.024836,1.307063,1.590597,-0.001979,0.03981096023799066,0.0029670597283903604,1.0139839355311457
286.71679197994985,0.573381686560331,0.6089971972897742,-15.014324,1.293463,1.604247,-0.016371,0.04276056667386108,0.002478367537831948,1.0267423447231019
287.719298245614,0.5733818904147876,0.6089974992317349,-14.997148,1.268714,1.624145,-0.01558,0.04551818689201212,0.003298672286269283,1.0397624660363944
288.72180451127815,0.5733820897313882,0.6089978053624857,-14.986468,1.237315,1.645747,-0.005818,0.047490408946765705,0.005166174585903215,1.05266050156851
289.72431077694233,0.5733822831138693,0.6089981151584278,-14.989323,1.210028,1.661883,0.010118,0.045954519205010695,0.007138396640656807,1.063952694562451
290.7268170426065,0.5733824724820931,0.6089984284450286,-15.004601,1.196611,1.670072,0.019534,0.04136430327226561,0.007592182246175334,1.0739359604305658
291.72932330827064,0.5733826594068561,0.6089987433024256,-15.025842,1.190082,1.678307,0.020166,0.03803072440095644,0.005148721293383272,1.084547649549154
292.7318295739348,0.5733828468552177,0.608999059905152,-15.0407,1.181788,1.685129,0.007969,0.04375540434749784,0.0009424777960769379,1.0965379393373074
293.734335839599,0.5733830325582502,0.6089993763333453,-15.041887,1.166922,1.691168,-0.003998,0.043563418129778465,-0.0010995574287564276,1.1093835626319857
294.7368421052631,0.5733832161668874,0.6089996929360717,-15.033253,1.145978,1.699947,-0.010755,0.0466002910282486,-0.000890117918517108,1.122578321590233
295.7393483709273,0.5733833959358003,0.6090000116331932,-15.020886,1.121882,1.71833,-0.012575,0.04939281783143953,0.000890117918517108,1.1359126370754695
296.7418546365915,0.5733835706432585,0.6090003350427035,-15.00931,1.097,1.743702,-0.010662,0.047787114919604745,0.002670353755551324,1.14884561409921
297.7443609022556,0.5733837422091239,0.609000665084465,-15.000295,1.075317,1.766241,-0.007165,0.0445058959258554,0.0035081117965086025,1.1608010845687864
298.7468671679198,0.573383909935265,0.6090009982678192,-14.995586,1.056819,1.777617,-0.002748,0.04532620067429274,0.0037524578917878084,1.1716919391012308
299.74937343358397,0.5733840745198135,0.6090013318002393,-15.000422,1.041483,1.776745,0.011617,0.0454309204294124,0.0035779249665883754,1.1819718760355997
300.7518796992481,0.5733842378826316,0.6090016658562581,-15.020207,1.029002,1.771741,0.027333,0.04564035993965172,0.0030543261909900766,1.193613222146402
301.7543859649123,0.5733843988019885,0.6090019983414806,-15.047295,1.015265,1.773072,0.023462,0.047490408946765705,6.981317007977319e-05,1.2061447210823062
302.7568922305764,0.5733845583250822,0.6090023320484336,-15.059829,0.997393,1.784923,0.000574,0.047630035286925256,-0.0028448866807507574,1.219025233508732
303.7593984962406,0.5733847145320503,0.6090026687224463,-15.045811,0.973288,1.808476,-0.02453,0.05215043804959057,-0.0037175513067479217,1.2324991055209582
304.76190476190476,0.5733848663756952,0.6090030108069797,-15.014462,0.948164,1.83552,-0.031044,0.0511556003759538,-0.001413716694115407,1.2454495183839263
305.7644110275689,0.5733850143796156,0.6090033572548362,-14.986433,0.927595,1.854359,-0.022213,0.0470017167562073,0.001413716694115407,1.2574224246927297
306.76691729323306,0.5733851590674107,0.6090037064952195,-14.974804,0.906898,1.85981,-0.000831,0.04637339822548934,0.004310963252425994,1.268086386422415
307.76942355889724,0.5733852995664155,0.6090040562592016,-14.981255,0.886072,1.854753,0.013678,0.045116761164053415,0.005829399701661061,1.2786805698886057
308.77192982456137,0.5733854370983605,0.6090044044523875,-14.999454,0.866276,1.85366,0.021298,0.04838052686528281,0.005532693728822024,1.2887161607276956
309.77443609022555,0.5733855732340423,0.6090047512493098,-15.018517,0.85299,1.85982,0.015058,0.04796164784480418,0.003159045946109736,1.2988042161641002
310.77694235588973,0.5733857071007958,0.6090051001406274,-15.026612,0.839401,1.872259,0.000335,0.04539601384437251,0.0005061454830783556,1.3100266483478389
311.77944862155385,0.5733858385240885,0.6090054518244715,-15.018373,0.824599,1.886535,-0.015069,0.04834562028024293,-0.0006806784082777885,1.3220694725464772
312.78195488721803,0.573385967852986,0.6090058075225732,-14.997981,0.805673,1.901285,-0.020982,0.04344124508213886,0.0006632251157578452,1.3348104284459135
313.7844611528822,0.5733860929930935,0.6090061639188064,-14.978444,0.780206,1.915161,-0.015252,0.04691445029360758,0.0026005405854715507,1.3468182238864643
314.78696741854634,0.5733862135953447,0.6090065218858359,-14.967748,0.75258,1.923817,-0.004389,0.049410271123959466,0.00471238898038469,1.3577265317114289
315.7894736842105,0.573386329834273,0.609006883518057,-14.970797,0.725322,1.925641,0.010261,0.0486946861306418,0.005934119456780721,1.36809368274852
316.79197994987464,0.5733864413608121,0.6090072460229426,-14.987854,0.703278,1.925116,0.022797,0.04708898321880701,0.0063006385996995295,1.377867613826151
317.7944862155388,0.5733865507929562,0.6090076076551637,-15.011115,0.690366,1.927988,0.020056,0.045012041408933764,0.004136430327226561,1.387938093796988
318.796992481203,0.5733866591779028,0.6090079692873845,-15.022879,0.683713,1.935794,0.002749,0.045483280306972226,0.0016755160819145565,1.3984450631604566
319.79949874686713,0.5733867670392506,0.6090083321413361,-15.013769,0.671655,1.947652,-0.016528,0.04789183467472441,0.000593411945678072,1.410470294440235
320.8020050125313,0.5733868721080716,0.6090086976132815,-14.9911,0.644918,1.960882,-0.022892,0.04988151002199794,0.0019024088846738192,1.4228797075949622
321.8045112781955,0.5733869735117011,0.6090090669249512,-14.970997,0.612313,1.971491,-0.013876,0.050038589654677425,0.00486946861306418,1.4348351606112457
322.8070175438596,0.5733870686321454,0.6090094381564831,-14.965405,0.581291,1.980217,0.002829,0.047647488579445195,0.008028514559173916,1.4454119082382089
323.8095238095238,0.573387157993003,0.6090098093880151,-14.976158,0.560067,1.982649,0.015451,0.04422664324553631,0.00905825881785057,1.4546970249522337
324.812030075188,0.5733872445613339,0.6090101813176786,-14.993905,0.544481,1.981822,0.017431,0.04654793115068877,0.0076445421237351634,1.463982263839306
325.8145363408521,0.5733873281626052,0.6090105528982764,-15.009254,0.53031,1.981947,0.011589,0.050876347695634705,0.004747295565424576,1.474157393752093
326.8170426065163,0.5733874112402775,0.6090109244788742,-15.016119,0.515445,1.987712,0.002025,0.04989896331451788,0.0029146998508305304,1.4845770268397915
327.8195488721804,0.5733874910018243,0.6090112983283998,-15.011481,0.493477,1.997996,-0.0095,0.04888667234836117,0.0024609142453120045,1.4949443000499305
328.8220551378446,0.5733875674472455,0.6090116754940513,-14.998444,0.467439,2.010605,-0.013208,0.051033427328314195,0.0033161255787892262,1.5050323554863352
329.82456140350877,0.5733876405765411,0.6090120537069001,-14.98873,0.439538,2.018957,-0.003992,0.0506320016003555,0.0045029494701453706,1.514771275259171
330.8270676691729,0.573387708644382,0.6090124336650783,-14.989778,0.417466,2.020626,0.00658,0.04721115626644662,0.005358160803622592,1.5243704988786773
331.8295739348371,0.5733877725234326,0.6090128130996577,-15.000409,0.399654,2.017709,0.012409,0.04743804906920587,0.005480333851262195,1.5333590666994956
332.83208020050125,0.573387834657154,0.6090131913125065,-15.012177,0.384122,2.016889,0.009841,0.04698426346368736,0.005689773361501515,1.5421729445154821
333.8345864661654,0.5733878941728815,0.6090135695253556,-15.016704,0.370535,2.021643,-0.001019,0.046565384443208714,0.004049163864626845,1.5510392694754909
334.83709273182956,0.5733879522923456,0.6090139477382045,-15.012269,0.35539,2.028955,-0.005265,0.049410271123959466,0.0030368728984701333,1.5605337035267075
335.83959899749374,0.5733880077938158,0.6090143285690471,-15.009277,0.337171,2.033704,0.001825,0.05049237526019595,0.002478367537831948,1.5703425237360857
336.84210526315786,0.5733880596300946,0.6090147113197522,-15.015714,0.314129,2.033946,0.011737,0.048467793327882536,0.0024260076602721182,1.5804827819704175
337.84461152882204,0.5733881084993137,0.6090150935468583,-15.028595,0.288332,2.033723,0.013382,0.046792277245967975,0.0022689280275926286,1.5914611298582646
338.8471177944862,0.5733881528306767,0.6090154752503657,-15.036388,0.268693,2.038398,0.00113,0.05028293574995663,0.0007504915783575617,1.6014967206973545
339.84962406015035,0.5733881948931115,0.6090158576520048,-15.027561,0.255209,2.047663,-0.015073,0.04623377188532979,0.0003316125578789226,1.611724315207456
340.8521303258145,0.573388233639421,0.6090162421480391,-15.008682,0.241969,2.054776,-0.018201,0.0466002910282486,0.0015533430342749533,1.6231387685154992
341.85463659147865,0.5733882709894671,0.6090166278658037,-14.99803,0.221246,2.057415,-0.000404,0.05138249317871306,0.0037524578917878084,1.6357224702493305
342.85714285714283,0.5733883044997886,0.6090170128854367,-15.00777,0.19111,2.054129,0.020077,0.047647488579445195,0.0032114058236695662,1.6499994031569845
343.859649122807,0.5733883334722543,0.609017397381471,-15.029082,0.158396,2.047119,0.021622,0.05091125428067459,6.981317007977319e-05,1.6638921890962741
344.86215538847114,0.5733883568596662,0.6090177804812418,-15.044823,0.130486,2.043,0.009076,0.05307546255314756,-0.0016057029118347831,1.6759001067098727
345.8646616541353,0.5733883751856234,0.6090181641046113,-15.04639,0.108369,2.048226,-0.005259,0.05345943498858632,-0.001361356816555577,1.6875413131943349
346.8671679197995,0.5733883898463891,0.6090185494733101,-15.033136,0.083498,2.05964,-0.018504,0.05438445949214331,-0.0009773843811168245,1.7001950549910487
347.8696741854636,0.5733884004928975,0.6090189374600029,-15.010054,0.060418,2.069212,-0.022133,0.05120796025351363,-0.00012217304763960306,1.71138259804304
348.8721804511278,0.5733884078232804,0.6090193273665578,-14.991191,0.039331,2.073044,-0.012071,0.04808382089244378,0.001308996938995747,1.7212960856476602
349.874686716792,0.5733884116630048,0.6090197176221785,-14.987011,0.017546,2.068175,0.004104,0.04899139210348083,0.0027925268031909274,1.7300750568786065
350.8771929824561,0.5733884127102022,0.6090201052598054,-14.996143,-0.006229,2.059157,0.012537,0.052185344634630454,0.003438298626428829,1.738731802702036
351.8796992481203,0.5733884100922084,0.6090204894067738,-15.007748,-0.026558,2.053966,0.008827,0.05455899241734274,0.002775073510670984,1.7472491316248158
352.88220551378447,0.573388404158089,0.609020874077341,-15.013033,-0.042552,2.055035,0.002043,0.05443681936970314,0.0014835298641951802,1.755993213724015
353.8847117794486,0.5733883957805085,0.6090212604932373,-15.010246,-0.057753,2.061689,-0.00466,0.052412237437389715,0.00013962634015954637,1.7651736630427977
354.8872180451128,0.5733883856575989,0.6090216472581995,-15.003716,-0.073706,2.065397,-0.005291,0.05262167694762904,0.00013962634015954637,1.7749997969183555
355.8897243107769,0.5733883732657612,0.6090220350703595,-14.997595,-0.092247,2.061503,-0.004109,0.051557026103912496,0.0008377580409572782,1.784913284522976
356.8922305764411,0.5733883575577979,0.6090224228825192,-14.991633,-0.114585,2.05448,-0.005075,0.05321508889330711,0.0026878070480712674,1.7948616438060512
357.89473684210526,0.5733883374865115,0.609022808251218,-14.983927,-0.142688,2.051095,-0.007454,0.05286602304290824,0.005340707511102648,1.8053511773302922
358.8972431077694,0.5733883120047044,0.6090231922236535,-14.972455,-0.171842,2.056544,-0.014071,0.05216789134211051,0.006998770300497262,1.8160151390599775
359.89974937343356,0.5733882816359755,0.6090235791631486,-14.958616,-0.199751,2.063385,-0.011348,0.05345943498858632,0.0070685834705770355,1.8264522079869037
360.90225563909775,0.5733882479511209,0.6090239668007755,-14.951434,-0.221974,2.063321,0.00053,0.05291838292046807,0.007696902001294993,1.8360688674456374
361.90476190476187,0.5733882106010749,0.6090243523440073,-14.958132,-0.239095,2.051792,0.01329,0.05237733085234983,0.008464846872172497,1.844760642027154
362.90726817042605,0.5733881716802326,0.6090247349201793,-14.974228,-0.251109,2.034679,0.017442,0.05290092962794813,0.008709192967451705,1.8529811428040472
363.90977443609023,0.5733881304904622,0.6090251134820941,-14.989435,-0.27285,2.024222,0.011844,0.059568087370566465,0.008988445647770798,1.8616728999322716
364.91228070175436,0.5733880854609675,0.6090254913458771,-14.99404,-0.302515,2.027422,-0.000591,0.062430427343837164,0.009285151620609835,1.8702075425212314
365.91478696741854,0.5733880350209521,0.6090258702568577,-14.984721,-0.330631,2.039792,-0.012974,0.056775560567375545,0.008569566627292158,1.8784454965906445
366.91729323308266,0.5733879803921467,0.6090262547528918,-14.968864,-0.350622,2.048746,-0.013796,0.04843288674284264,0.008325220532012952,1.8857409554106885
367.91979949874684,0.5733879220981495,0.6090266394234591,-14.96006,-0.367818,2.043016,-0.001706,0.04967207051175862,0.00947713783832921,1.8920940586077026
368.922305764411,0.573387862756955,0.6090270226977628,-14.964223,-0.379599,2.027165,0.010041,0.045779986279811266,0.011728612573401895,1.897853540419529
369.92481203007515,0.5733878009722995,0.6090274030050068,-14.977947,-0.392926,2.014612,0.015542,0.047647488579445195,0.011972958668681102,1.9060391695179675
370.9273182957393,0.57338773656965,0.6090277798215923,-14.991629,-0.411099,2.014601,0.010482,0.052551863777549265,0.011135200627723822,1.915376611202967
371.9298245614035,0.5733876711198032,0.6090281578599084,-14.998733,-0.429759,2.020853,0.004008,0.05473352534254217,0.009564404300928926,1.9247490816460542
372.93233082706763,0.573387601481166,0.609028536596356,-15.001172,-0.451638,2.019652,0.003612,0.05419247327442393,0.007330382858376184,1.9341738770601158
373.9348370927318,0.5733875287009361,0.609028914634672,-15.007114,-0.472648,2.007399,0.010769,0.05291838292046807,0.005672320068981571,1.9433368730863787
374.937343358396,0.5733874522555149,0.60902929040406,-15.021618,-0.492224,1.99351,0.01806,0.052813663165348405,0.005707226654021458,1.952046083507123
375.9398496240601,0.5733873724939681,0.6090296637299869,-15.038054,-0.512008,1.988059,0.012057,0.053476888281106257,0.005358160803622592,1.9603189267082834
376.9423558897243,0.5733872911616249,0.6090300351360517,-15.03828,-0.529554,1.99332,-0.009108,0.05361651462126581,0.003926990816987242,1.9690281196757353
377.9448621553885,0.5733872066876892,0.6090304089855776,-15.016576,-0.551033,2.001644,-0.026623,0.05304055596810768,0.004031710572106902,1.9796048673026987
378.9473684210526,0.5733871168032327,0.609030783707768,-14.992008,-0.574838,2.003726,-0.015632,0.054646258879942455,0.00614355896702004,1.990984291852654
379.9498746867168,0.5733870243007823,0.6090311603498204,-14.990737,-0.595163,1.993488,0.016182,0.05227261109723017,0.007539822368615503,2.002067027883063
380.9523809523809,0.573386929354871,0.6090315338502804,-15.022411,-0.610875,1.969906,0.043079,0.049113565151120434,0.006161012259539983,2.0125391255680762
381.9548872180451,0.5733868323145647,0.6090319005439563,-15.06817,-0.631952,1.940902,0.041982,0.05146975964131278,0.0019722220547535923,2.0233950909687737
382.95739348370927,0.5733867296892046,0.6090322599072493,-15.09691,-0.661428,1.92491,0.01337,0.06323327879975456,-0.0018500490071139892,2.0351586799403854
