Time [s],Longitude [rad],Latitude [rad],Altitude [m],V North [m/s],V East [m/s],V Down [m/s],Roll [rad],Pitch [rad],Yaw [rad]
0.0,0.609022677526057,0.5733255319879115,-14.965237,-0.113278,-1.5036,-0.015156,0.02715732316103177,-0.0013089969389956657,-1.7773734796076532
1.0025062656641603,0.609022397575245,0.5733255147091518,-14.960248,-0.096535,-1.513918,0.007412,0.025953045977155684,-0.004590215932745112,-1.7674255042970133
2.0050125313283207,0.6090221158791038,0.5733254998738532,-14.970488,-0.078404,-1.518859,0.011795,0.022654373690886402,-0.003403392041388953,-1.7576687472592216
3.007518796992481,0.6090218338338966,0.5733254887037459,-14.97616,-0.066775,-1.509207,0.002352,0.02473131550075965,-0.0014311699866353944,-1.7493783285924942
4.010025062656641,0.6090215526613542,0.573325479278968,-14.976945,-0.052753,-1.502492,0.004699,0.027960174616949156,-0.0019896753472734563,-1.7404247720764705
5.012531328320802,0.6090212735832068,0.5733254721231181,-14.987248,-0.035362,-1.510222,0.01654,0.029845130209103038,-0.0030543261909901087,-1.7314712330137392
6.015037593984962,0.6090209915379996,0.5733254675852621,-15.00188,-0.019593,-1.521881,0.010776,0.024696408915719767,-0.0013089969389956657,-1.7240010667355712
7.017543859649122,0.6090207079219961,0.5733254654908669,-14.999354,-0.009982,-1.517982,-0.013171,0.021816615649929122,0.0015882496193149187,-1.7174214547082332
8.020050125313283,0.609020425702256,0.5733254649672681,-14.977769,-0.004544,-1.502117,-0.018911,0.02823942729726825,-3.49065850397956e-05,-1.7108066917497586
9.022556390977442,0.609020145925977,0.5733254647927352,-14.968408,0.005614,-1.504536,0.006933,0.028693212902786775,-0.004485496177625281,-1.7030398544053373
10.025062656641603,0.609019865800632,0.5733254668871304,-14.982142,0.0258,-1.521096,0.016926,0.02466150233067988,-0.003752457891787797,-1.6946801810738903
11.027568922305765,0.6090195821846286,0.5733254721231181,-14.990502,0.04322,-1.51938,0.000121,0.021781709064889233,-8.726646259971105e-05,-1.6880297435855047
12.030075187969924,0.6090192997903557,0.5733254796280339,-14.985023,0.049415,-1.503851,-0.003928,0.021729349187329404,-0.0007853981633973994,-1.6827066115399707
13.032581453634084,0.6090190187923461,0.5733254885292132,-14.988314,0.053405,-1.504076,0.013597,0.02350958502436362,-0.003211405823669411,-1.6770692329626142
14.035087719298245,0.6090187386670012,0.573325498128524,-15.003877,0.067635,-1.516155,0.016366,0.02181661564992912,-0.0017627825445141188,-1.669599607736513
15.037593984962406,0.609018456447261,0.5733255098222299,-15.009744,0.083582,-1.516659,-0.004454,0.022130774915288094,0.0020420352248333717,-1.6628974910489778
16.040100250626566,0.6090181745765868,0.5733255239593968,-14.992584,0.092787,-1.499768,-0.022601,0.024748768793279596,0.0023212879051526247,-1.6573996689986104
17.042606516290725,0.6090178974183016,0.5733255387946955,-14.974202,0.094963,-1.490856,-0.007069,0.026022859147235455,-0.0023212879051524027,-1.6520935888198667
18.045112781954884,0.6090176202600164,0.5733255545026589,-14.98043,0.101855,-1.502336,0.019546,0.02438224965036078,-0.005131268000863276,-1.6457930723932155
19.047619047619047,0.6090173406582703,0.5733255721304843,-15.005327,0.12098,-1.517566,0.026472,0.02267182698340634,-0.0024260076602720115,-1.638480038107604
20.050125313283207,0.609017056518668,0.5733255925508365,-15.023818,0.135842,-1.518343,0.00858,0.01928588823453734,0.0027052603405912645,-1.6325635464762682
21.052631578947366,0.6090167732517304,0.5733256148910508,-15.017469,0.14031,-1.502265,-0.016482,0.02129301687433082,0.004642575810305027,-1.6273277856130877
22.05513784461153,0.6090164938245173,0.5733256389765946,-14.996727,0.143483,-1.48811,-0.017148,0.025865779514555962,0.0012566370614359723,-1.6217601678459337
23.05764411027569,0.6090162182370283,0.5733256621894737,-14.988646,0.148292,-1.492756,0.002292,0.024940755010998975,-0.0028099800957108734,-1.6151102539563251
24.06015037593985,0.6090159417768748,0.5733256855768856,-14.995121,0.158867,-1.50272,0.008564,0.02216568150032799,-0.002181661564992776,-1.6075010722032357
25.062656641604008,0.6090156621751287,0.5733257112332256,-14.998347,0.174167,-1.500104,0.000895,0.022741640153486113,0.0003316125578789464,-1.5992452808688669
26.065162907268167,0.6090153825733825,0.5733257402056913,-14.999577,0.190394,-1.497528,0.006607,0.024155356847601523,1.74532925198978e-05,-1.5910070650000654
27.06766917293233,0.6090151031461692,0.5733257717961507,-15.007377,0.205574,-1.506122,0.007681,0.020490165418413423,-0.00027925268031903094,-1.5834671204584025
28.07017543859649,0.6090148228462914,0.5733258054810052,-15.001662,0.216514,-1.498966,-0.019432,0.01989675347273535,0.002094395102393287,-1.5762595389661966
29.07268170426065,0.6090145455134732,0.5733258407366562,-14.972239,0.224065,-1.475834,-0.029744,0.026755897433073078,-6.981317007981325e-05,-1.5691036192198498
30.075187969924812,0.609014270973182,0.5733258772140375,-14.954742,0.228593,-1.473439,-0.000395,0.0294262511886244,-0.006021385919380284,-1.5624537053302414
31.07769423558897,0.609013997480088,0.5733259136914188,-14.968463,0.238826,-1.488704,0.023639,0.022183134792847923,-0.0070162235930171235,-1.554948388120937
32.08020050125313,0.6090137194491383,0.5733259527867941,-14.994272,0.260847,-1.499167,0.023575,0.019390607989657003,-0.0031241393610697,-1.5463964493190911
33.08270676691729,0.6090134391492604,0.5733259955473607,-15.007955,0.281466,-1.498677,0.004168,0.021537362969610025,0.000733038285837706,-1.5387350647680738
34.08521303258145,0.6090131595475141,0.5733260407513884,-14.993689,0.290741,-1.482154,-0.027397,0.019128808601857856,0.002478367537831927,-1.5323818219447196
35.08771929824561,0.6090128855308217,0.5733260880498112,-14.958989,0.290133,-1.457932,-0.031301,0.026843163895672796,-0.0019896753472734563,-1.5267966461652895
36.09022556390977,0.6090126153538534,0.5733261346501021,-14.943324,0.290104,-1.459371,0.004996,0.03078760800517997,-0.00900589894029058,-1.520216510539176
37.092731829573935,0.6090123439551548,0.5733261807267944,-14.964643,0.3036,-1.483646,0.031866,0.02239257430308725,-0.009128071987930308,-1.5124326213279613
38.095238095238095,0.6090120666223366,0.5733262297705464,-14.989747,0.327255,-1.493336,0.01438,0.01754055898254301,-0.002844886680750669,-1.503287322940314
39.097744360902254,0.6090117877187222,0.5733262830030886,-14.986523,0.34541,-1.474118,-0.014926,0.02000147322785501,0.0007155849933178082,-1.4952062216107775
40.100250626566414,0.609011512480299,0.5733263392026905,-14.966877,0.351043,-1.453716,-0.015619,0.02741912254883092,-0.0025481807079117402,-1.4886260859846634
41.10275689223057,0.6090112430014626,0.5733263961004241,-14.958023,0.356353,-1.453657,0.001305,0.027331856086231197,-0.006684611035138177,-1.481592688351807
42.10526315789473,0.6090109742207578,0.5733264531726906,-14.962423,0.366796,-1.461896,0.007522,0.023177972466484693,-0.0076619954162551185,-1.4740181164777841
43.10776942355889,0.6090107026475262,0.5733265123393524,-14.965701,0.383017,-1.463827,0.000824,0.021642082724729686,-0.006405358354819146,-1.4659194396826793
44.11027568922306,0.6090104302016299,0.5733265730768102,-14.960368,0.398233,-1.457262,-0.007209,0.02323033234404452,-0.006440264939858942,-1.4584498144565798
45.11278195488722,0.6090101591519971,0.5733266367813279,-14.951184,0.409605,-1.44627,-0.006887,0.024242623310201238,-0.008063421144213656,-1.4516427685744135
46.11528822055138,0.6090098901967594,0.5733267024057078,-14.949724,0.420096,-1.43981,0.009451,0.025900686099595845,-0.011152653920243782,-1.445254915871992
47.11779448621554,0.6090096212415216,0.5733267694263511,-14.967608,0.429578,-1.449115,0.025712,0.02199114857512855,-0.011780972450961658,-1.4392856978439534
48.1203007518797,0.6090093514136192,0.5733268378432578,-14.985818,0.433167,-1.455756,0.007865,0.018762289458939044,-0.007522369076095492,-1.4328802696759646
49.122807017543856,0.6090090814111839,0.5733269071328291,-14.977863,0.443075,-1.439618,-0.017589,0.021607176139689804,-0.004886921905584041,-1.4250617531323901
50.125313283208015,0.6090088143758083,0.5733269778186638,-14.960362,0.462502,-1.423428,-0.010134,0.028117254249628645,-0.008237954069413078,-1.4176086387210136
51.127819548872175,0.6090085497838938,0.5733270521696899,-14.962897,0.477263,-1.424588,0.015204,0.025167647813758232,-0.011431906600562813,-1.4116745890774036
52.130325814536334,0.6090082846683805,0.573327128964177,-14.9838,0.47849,-1.430086,0.023812,0.018587756533739612,-0.010035643198967437,-1.406420694243296
53.1328320802005,0.6090080183311367,0.5733272055841312,-15.002748,0.476436,-1.429407,0.013717,0.021223203704251042,-0.006632251157578484,-1.3999114015315197
54.13533834586466,0.6090077518193597,0.5733272809823549,-15.008589,0.48782,-1.423899,0.001968,0.02385865087476248,-0.004485496177625281,-1.3910100478134233
55.13784461152882,0.6090074872274452,0.5733273591731054,-15.005397,0.509531,-1.418807,-0.002989,0.027087509990952,-0.004345869837465877,-1.3819867304871978
56.14035087719298,0.6090072233336623,0.5733274401563826,-15.000713,0.526046,-1.417003,-0.002415,0.02209586833024821,-0.0048171087355042275,-1.3740973710292856
57.14285714285714,0.6090069592653464,0.5733275249793843,-14.995294,0.533933,-1.41106,-0.004641,0.019652407377456153,-0.0049916416607036496,-1.367360644462682
58.1453634085213,0.6090066971168928,0.573327609627853,-14.990149,0.535364,-1.400705,-0.000838,0.021973695282608605,-0.005951572749300693,-1.3610249945581885
59.14786967418546,0.609006437586433,0.5733276942763218,-14.993022,0.538209,-1.395864,0.0098,0.022916173078685542,-0.007278022980816257,-1.3534855736153004
60.150375939849624,0.6090061759615782,0.573327779971988,-15.008114,0.553057,-1.400087,0.019224,0.022741640153486117,-0.006841690667817701,-1.3444271053579393
61.152882205513784,0.6090059141621903,0.5733278668893848,-15.024658,0.5739,-1.403607,0.012442,0.021851522234969,-0.003473205211468766,-1.3354559733763482
62.15538847117794,0.6090056525373355,0.5733279586937035,-15.027269,0.589848,-1.397796,-0.004802,0.020298179200694055,-0.0002094395102392177,-1.3270435911014913
63.1578947368421,0.6090053933559416,0.573328053116016,-15.013707,0.595279,-1.383842,-0.01631,0.02192133540504878,0.0003316125578789464,-1.3195739484220987
64.16040100250626,0.6090051371416074,0.5733281480619272,-14.995337,0.599226,-1.368709,-0.0135,0.023038346126325146,-0.0023561944901921983,-1.3118246865432435
65.16290726817043,0.6090048830216682,0.5733282435314373,-14.988559,0.61099,-1.364336,0.003722,0.026406831582674203,-0.006021385919380284,-1.3036738069502116
66.16541353383458,0.6090046290762622,0.5733283403972108,-14.99946,0.625879,-1.370803,0.017949,0.022689280275926284,-0.006806784082777906,-1.2957674130788002
67.16791979949875,0.6090043733855267,0.5733284395319124,-15.016152,0.637559,-1.375965,0.014487,0.01680752069670539,-0.004118977034706539,-1.2876511782714215
68.1704260651629,0.6090041169966596,0.5733285416336736,-15.021748,0.649126,-1.370198,-0.00265,0.020874137853852184,-0.0008726646259971105,-1.279064612137215
69.17293233082707,0.6090038616549901,0.5733286446080995,-15.008056,0.66071,-1.352304,-0.018474,0.022444934180647077,-5.23598775596934e-05,-1.2706868397414246
70.17543859649122,0.6090036108511765,0.5733287502005191,-14.989245,0.670804,-1.335405,-0.010539,0.027035150113392165,-0.003490658503988664,-1.2635309199950773
71.17794486215539,0.6090033628398899,0.5733288570146694,-14.992225,0.676426,-1.338157,0.018017,0.023492131731843682,-0.00675442420521799,-1.25728314741842
72.18045112781954,0.6090031141304715,0.5733289641778855,-15.014181,0.679891,-1.350066,0.021347,0.015341444125030154,-0.004625122517784908,-1.2503541379281258
73.1829573934837,0.6090028628030592,0.5733290718647004,-15.022315,0.691082,-1.344763,-0.006261,0.01785471824790199,-0.00027925268031903094,-1.2412956522174716
74.18546365914787,0.6090026128719103,0.5733291828676408,-15.005548,0.713215,-1.321901,-0.019618,0.0272096830385916,-0.0005061454830783685,-1.2316092144952435
75.18796992481202,0.6090023664314198,0.5733292963140422,-14.992408,0.727835,-1.309963,0.000635,0.027593655474030348,-0.004380776422505672,-1.2246450366205208
76.19047619047619,0.6090021233070552,0.5733294113312398,-15.004228,0.728074,-1.315766,0.022369,0.01925098164949746,-0.004869468613064143,-1.2190950117722263
77.19298245614034,0.609001878437361,0.5733295268720363,-15.027149,0.728747,-1.322817,0.020935,0.01884955592153876,-0.0013962634015953768,-1.2118171284177504
78.19548872180451,0.609001631298739,0.5733296434600303,-15.036668,0.739997,-1.317597,-0.001685,0.020612338466053034,0.0028972465583105844,-1.2025317499043375
79.19799498746866,0.6090013857309132,0.573329760746156,-15.021081,0.755548,-1.298958,-0.023796,0.024190263432641402,0.003839724354387508,-1.1934913807113203
80.20050125313283,0.6090011450500092,0.5733298806502757,-14.995352,0.770495,-1.278516,-0.020135,0.026040312439755395,0.0004712388980385729,-1.1852180139113841
81.203007518797,0.6090009087324286,0.573330003695988,-14.988338,0.780713,-1.276135,0.008131,0.025743606466916362,-0.0037350045992678993,-1.1790400021449297
82.20551378446115,0.6090006715421832,0.5733301283124965,-15.007852,0.783352,-1.288121,0.027084,0.018622663118779494,-0.003752457891787797,-1.1727911649174292
83.20802005012531,0.6090004315594111,0.5733302527544722,-15.03336,0.785387,-1.295485,0.020595,0.014817845349431855,0.0006981317007976884,-1.1647281801055294
84.21052631578947,0.6090001886095792,0.5733303766728491,-15.040309,0.793419,-1.287878,-0.006039,0.02012364627549462,0.0051836278784231915,-1.1550763522623673
85.21303258145363,0.6089999482777413,0.5733305016384236,-15.018667,0.808141,-1.263276,-0.030342,0.025377087323997554,0.005724679946541356,-1.144848740298973
86.21553884711778,0.6089997145781544,0.5733306299201235,-14.985775,0.823838,-1.240054,-0.025665,0.02900737216814575,0.0007504915783576038,-1.1360874841599335
87.21804511278195,0.6089994854164237,0.5733307615179492,-14.974047,0.838781,-1.236588,0.006011,0.026581364507873635,-0.005026548245743667,-1.1287568569554625
88.22055137844612,0.6089992567782916,0.5733308959083017,-14.992826,0.848986,-1.250297,0.027506,0.018360863730980347,-0.005061454830783463,-1.1222464995928434
89.22305764411027,0.6089990237768365,0.5733310311713187,-15.016016,0.847223,-1.26121,0.014892,0.010821041362364843,-0.00024434609527923534,-1.1151433062431997
90.22556390977444,0.6089987888555191,0.5733311652126052,-15.013802,0.84435,-1.249048,-0.016185,0.018465583486100005,0.002844886680750891,-1.1056134594614602
91.22807017543859,0.6089985563776628,0.5733312989048259,-14.987372,0.856538,-1.221545,-0.028278,0.028187067419708417,0.0007679448708775016,-1.0944436315013768
92.23057644110276,0.6089983296593929,0.5733314348659746,-14.965195,0.880921,-1.204192,-0.010114,0.030700341542580254,-0.00479965544298433,-1.085315367527229
93.23308270676691,0.6089981067808474,0.5733315750159136,-14.968769,0.898178,-1.205354,0.016165,0.022602013813326566,-0.00753982236861539,-1.0787533484187508
94.23558897243107,0.6089978832041704,0.5733317174347805,-14.990874,0.902606,-1.213714,0.024366,0.013351768777756621,-0.005427973973702205,-1.0721380618615017
95.23809523809523,0.608997657358565,0.5733318610753779,-15.009263,0.900029,-1.212548,0.011182,0.01642354826126664,-0.001012290966156737,-1.0642146161232982
96.2406015037594,0.6089974320365587,0.573332003494245,-15.009269,0.902336,-1.198348,-0.007373,0.023177972466484693,0.0007504915783576038,-1.0544935510687101
97.24310776942356,0.6089972093325461,0.5733321459131119,-14.995311,0.915391,-1.182274,-0.015854,0.02764601535159018,-0.0004886921905582486,-1.0442829909721072
98.24561403508771,0.6089969916899883,0.5733322909499727,-14.978266,0.935641,-1.16801,-0.013934,0.026808257310632903,-0.0030892327760299043,-1.0345965357965865
99.24812030075188,0.6089967761418257,0.5733324400010908,-14.972033,0.953585,-1.159651,0.004349,0.024556782575560217,-0.005427973973702205,-1.0272312987130479
100.25062656641603,0.608996560942729,0.5733325918447357,-14.989002,0.959103,-1.164074,0.028411,0.016528268016386297,-0.005532693728822036,-1.0212796736038696
101.2531328320802,0.6089963457436322,0.5733327447355782,-15.019783,0.9552,-1.17055,0.028072,0.011205013797803596,-0.0016929693744345276,-1.0141583811898827
102.25563909774435,0.6089961287992062,0.5733328967537561,-15.033672,0.955048,-1.1612,-0.0019,0.02035053907825388,0.002862339973270789,-1.0048032244129754
103.25814536340852,0.6089959134255765,0.5733330487719339,-15.014942,0.969195,-1.136741,-0.02944,0.029077185338225526,0.0031764992386298374,-0.9946459317651437
104.26065162907267,0.6089957031134016,0.5733332032335727,-14.985749,0.987248,-1.118621,-0.022074,0.030438542154781104,-0.0013089969389956657,-0.98640769844305
105.26315789473684,0.6089954966409511,0.5733333604877383,-14.977015,1.000322,-1.117237,0.007058,0.023282692221604357,-0.005497787143782018,-0.980456073333872
106.265664160401,0.6089952899939677,0.573333519661766,-14.993938,1.006863,-1.123006,0.024199,0.016842427281745283,-0.005166174585903072,-0.9742253351707153
107.26817042606515,0.6089950826488525,0.5733336802320573,-15.016809,1.006233,-1.124325,0.019117,0.015166911199830725,-0.0019373154697135408,-0.9673661039439143
108.27067669172932,0.6089948735584082,0.5733338399296839,-15.025616,1.006147,-1.116431,-0.000446,0.02022836603061428,0.0012217304763961767,-0.9589537042157651
109.27318295739347,0.6089946660387601,0.5733339992782446,-15.015772,1.01514,-1.101561,-0.014407,0.024975661596038853,0.0019024088846739673,-0.949389230101666
110.27568922305764,0.6089944613116388,0.5733341605466675,-14.999328,1.031756,-1.084,-0.01337,0.026476644752753978,0.00041887902047865744,-0.9400340733247577
111.27819548872179,0.6089942605987749,0.5733343244330842,-14.991514,1.044872,-1.072108,0.00075,0.024591689160600103,-0.0022689280275924872,-0.9324770943695952
112.28070175438596,0.6089940612821743,0.5733344904138962,-14.999507,1.04993,-1.071026,0.014797,0.020263272615654165,-0.0031764992386296154,-0.9258974823422579
113.28320802005013,0.6089938621401065,0.5733346570928396,-15.015801,1.050224,-1.074929,0.016176,0.01569050997542902,-0.0011519173063161414,-0.9185668725910779
114.28571428571428,0.6089936624744402,0.5733348223755198,-15.025059,1.052865,-1.070512,0.002896,0.01881464933649887,0.002007128639793576,-0.909177088481812
115.28822055137844,0.6089934640305043,0.5733349890544633,-15.02156,1.064616,-1.056603,-0.006964,0.023806290997202658,0.0032463124087094286,-0.8989665458385014
116.2907268170426,0.6089932673318975,0.5733351581768679,-15.013735,1.082531,-1.045744,-0.006084,0.02673844414055313,0.002478367537831927,-0.8892278878650537
117.29323308270676,0.6089930727276859,0.5733353302663321,-15.008805,1.095845,-1.039777,-0.003155,0.026965336943312393,0.0014311699866353944,-0.8803265341469574
118.29573934837092,0.6089928791706718,0.5733355049737903,-15.004763,1.104691,-1.035253,-0.003211,0.024661502330679874,0.0008203047484374171,-0.8718619490741722
119.29824561403508,0.6089926863117896,0.5733356821247094,-15.002924,1.118333,-1.032805,0.001842,0.027838001569309555,0.0001570796326795243,-0.8630303736195714
120.30075187969925,0.6089924941510388,0.5733358611954906,-15.008067,1.133287,-1.036647,0.010048,0.026511551337793864,-0.0002268928027591155,-0.8541817637514699
121.3032581453634,0.6089922995468273,0.5733360413134694,-15.018292,1.143974,-1.044713,0.010411,0.021066124071571563,0.001291543646475768,-0.8449315361691918
122.30576441102757,0.608992104069951,0.5733362231767776,-15.02147,1.155529,-1.045218,-0.004036,0.022287854547967587,0.0034208453339088507,-0.8339880774130928
123.30827067669172,0.6089919098148053,0.5733364074835465,-15.007544,1.176628,-1.025584,-0.019478,0.03008947630438224,0.003961897402027237,-0.8215441765523457
124.31077694235589,0.6089917202720485,0.573336594931908,-14.987328,1.201805,-0.999466,-0.01306,0.03260275042725408,0.0010297442586766348,-0.8106880715253084
125.31328320802004,0.6089915347435491,0.5733367860454612,-14.986347,1.213099,-0.996669,0.011356,0.0272096830385916,-0.0019024088846737452,-0.8036717083059515
126.3157894736842,0.6089913495641155,0.5733369792534094,-15.00583,1.21282,-1.014668,0.021474,0.021432643214490368,-0.0005061454830783685,-0.7960444100352259
127.31829573934836,0.6089911617666879,0.5733371728104235,-15.021067,1.222766,-1.023952,0.007194,0.023177972466484696,0.0028972465583105844,-0.7852064215258239
128.32080200501252,0.6089909701295361,0.5733373677637009,-15.016652,1.249999,-1.012015,-0.013797,0.031764992386296806,0.0049043751981041606,-0.7722906185419226
129.32330827067668,0.6089907800631805,0.5733375658585711,-14.995864,1.275715,-0.991501,-0.024635,0.03122394031817856,0.0039968039870670324,-0.7607021384541643
130.32581453634086,0.6089905966290761,0.573337768840363,-14.971777,1.289673,-0.973158,-0.020498,0.028291787174828078,0.0005934119456780795,-0.7511376643400651
131.328320802005,0.608990417558295,0.5733379751382807,-14.961745,1.298313,-0.96505,0.002544,0.030857421175259747,-0.004101523742186641,-0.7430736148773199
132.33082706766916,0.6089902384875137,0.57333818213433,-14.977688,1.307822,-0.975998,0.026482,0.026668630970473357,-0.005515240436301916,-0.7351847964714768
133.33333333333331,0.6089900564496726,0.5733383900030439,-15.004853,1.319673,-0.993566,0.020667,0.022078415037728265,-0.0017278759594743232,-0.7256032704905853
134.3358395989975,0.6089898705721073,0.573338599617087,-15.009158,1.33534,-0.986949,-0.012783,0.026738444140553128,0.002583087292951758,-0.7132291653466256
135.33834586466165,0.6089896876616018,0.5733388127217887,-14.983886,1.356807,-0.956181,-0.030872,0.033719761148530446,0.0016755160819146298,-0.7005056452864171
136.3408521303258,0.6089895106852156,0.5733390286190172,-14.957371,1.379363,-0.93148,-0.01669,0.03536037064540511,-0.0039968039870670324,-0.6905922973081363
137.34335839598998,0.6089893387702842,0.5733392490541017,-14.955158,1.39479,-0.930526,0.010394,0.02782054827678962,-0.007871434926494336,-0.6832616701036651
138.34586466165413,0.6089891652845566,0.5733394712345153,-14.972089,1.400566,-0.945362,0.017454,0.021293016874330828,-0.0069289571304174125,-0.6755299836903784
139.34837092731829,0.6089889883081704,0.573339694113061,-14.985026,1.408437,-0.949799,0.004488,0.02401573050744197,-0.004118977034706539,-0.6642898538680246
140.35087719298244,0.6089888116808501,0.5733399176897381,-14.98081,1.427122,-0.933213,-0.010818,0.032934362985133,-0.003577924966588375,-0.6512866971550616
141.35338345864662,0.6089886380205896,0.5733401447570737,-14.968219,1.453806,-0.909731,-0.009756,0.036669367584400855,-0.005951572749300693,-0.6393488196043448
142.35588972431077,0.6089884692472509,0.5733403765367984,-14.964379,1.477289,-0.89906,0.00254,0.031677725923697074,-0.008307767239492891,-0.6301161674876358
143.35839598997492,0.6089883039645707,0.5733406112835828,-14.970553,1.489086,-0.898068,0.005949,0.02321287905152459,-0.008587019919812144,-0.6212153548216063
144.36090225563908,0.6089881381582917,0.5733408481247624,-14.97267,1.496429,-0.888638,-0.002536,0.027785641691749727,-0.007801621756414523,-0.6111272993852028
145.36340852130326,0.608987974271875,0.5733410858386064,-14.968985,1.507111,-0.874743,-0.002353,0.034889131747366645,-0.00911061869541041,-0.6015100814211084
146.3659147869674,0.60898781108359,0.5733413245996481,-14.970226,1.522752,-0.870819,0.005562,0.03288200310757316,-0.010925761117484445,-0.592643896087439
147.36842105263156,0.608987647546239,0.5733415670258812,-14.978267,1.543198,-0.871013,0.008609,0.031276300195738384,-0.010629055144645516,-0.5834288194362963
148.37092731829574,0.6089874852306186,0.5733418134663716,-14.985414,1.566868,-0.863132,0.004573,0.029949849964222695,-0.008901179185170971,-0.5732188003917627
149.3734335839599,0.6089873257075249,0.5733420630484546,-14.986984,1.585353,-0.847205,0.000455,0.030211649352021846,-0.007731808586334932,-0.5621357851086739
150.37593984962405,0.6089871688024252,0.5733423155975974,-14.986049,1.593581,-0.832221,-0.000303,0.028623399732707003,-0.0074700091985355765,-0.5515763511478905
151.3784461152882,0.608987015387984,0.5733425677976742,-14.984792,1.596681,-0.825778,-0.001518,0.030665434957540375,-0.008150687606813367,-0.5417327639798127
152.38095238095238,0.6089868630207402,0.5733428212194817,-14.982648,1.610491,-0.823818,-0.00325,0.03431317309420851,-0.009564404300928864,-0.531784265070397
153.38345864661653,0.6089867106534966,0.5733430776083488,-14.979049,1.636435,-0.812239,-0.004271,0.036529741244241326,-0.009913470151327708,-0.5204573051177566
154.38596491228068,0.6089865614278455,0.5733433385350719,-14.977543,1.662543,-0.792935,0.002515,0.03719296635999915,-0.01048942880448589,-0.5091825479630441
155.38847117794487,0.608986415867386,0.5733436041741842,-14.986029,1.679132,-0.781972,0.012212,0.034400439556808236,-0.011030480872604054,-0.49947799372317925
156.39097744360902,0.6089862713541239,0.5733438713840927,-14.997758,1.687394,-0.781208,0.006309,0.03094468763785946,-0.009808750396208099,-0.49042004906459385
157.39348370927317,0.6089861280625923,0.5733441394666657,-14.993622,1.693519,-0.771885,-0.013636,0.0320442450666159,-0.009162978572970104,-0.4795117412396294
158.39598997493732,0.6089859859927911,0.5733444087709693,-14.977961,1.706197,-0.753767,-0.012192,0.040648718278947935,-0.01157153294072244,-0.4676958272970427
159.3984962406015,0.6089858460173851,0.5733446796460692,-14.975309,1.726764,-0.745187,0.008221,0.03986332011555049,-0.015114551322270797,-0.45697980239577096
160.40100250626566,0.6089857081363742,0.5733449548844923,-14.989271,1.752842,-0.738411,0.016149,0.030211649352021846,-0.014416419621473109,-0.4450413837929859
161.4035087719298,0.6089855735714889,0.5733452344862384,-14.999561,1.775525,-0.716497,0.004671,0.03495894491744642,-0.011327186845443205,-0.4324398447941997
162.406015037594,0.6089854414500645,0.5733455161823796,-15.000251,1.786058,-0.691362,-0.000346,0.042167154728183,-0.010367255756846161,-0.4208508236543722
163.40852130325814,0.6089853136919633,0.5733457997983832,-15.00303,1.791081,-0.680304,0.006633,0.03986332011555049,-0.011362093430483,-0.4099430568814759
164.4110275689223,0.6089851875046584,0.5733460830653208,-15.013268,1.803569,-0.677303,0.012369,0.036931166972200016,-0.011711159280881844,-0.39868587519232995
165.41353383458645,0.6089850618409522,0.573346369299318,-15.023986,1.826703,-0.668662,0.00724,0.035447637108004824,-0.009581857593448762,-0.3862760780651666
166.41604010025063,0.6089849380971082,0.5733466598966385,-15.026208,1.849264,-0.65154,-0.003591,0.038467056713955027,-0.00794124809657415,-0.37290699562123053
167.41854636591478,0.6089848181929886,0.5733469539846175,-15.019008,1.864076,-0.628215,-0.01095,0.039968039870670144,-0.007993607974134065,-0.35990437996033564
168.42105263157893,0.6089847036993897,0.5733472494688598,-15.010243,1.875208,-0.605456,-0.006189,0.04038691889114879,-0.009529497715889068,-0.34698911802850246
169.4235588972431,0.6089845923473834,0.5733475472220302,-15.01072,1.890275,-0.588355,0.006377,0.042743113381341125,-0.011362093430483,-0.33485895755409545
170.42606516290726,0.6089844841369697,0.5733478474186616,-15.021752,1.907295,-0.577563,0.01319,0.042987459476620346,-0.010611601852125396,-0.3240726133372596
171.42857142857142,0.6089843781954842,0.5733481516295502,-15.034518,1.925208,-0.565864,0.011211,0.03865904293167439,-0.008447393579652518,-0.3118902500649245
172.43107769423557,0.6089842753955913,0.573348457934834,-15.041904,1.941089,-0.551364,0.002852,0.038519416591514845,-0.007522369076095492,-0.2993068101304808
173.43358395989975,0.608984173468363,0.5733487654618481,-15.037687,1.952901,-0.532083,-0.010243,0.04255112716362176,-0.007260569688296359,-0.28635639726751294
174.4360902255639,0.6089840771261882,0.5733490747341916,-15.02426,1.965776,-0.5027,-0.012564,0.04557054676957196,-0.007853981633974438,-0.27352794801267355
175.43859649122805,0.6089839858454684,0.5733493862754631,-15.018703,1.983976,-0.480458,0.002422,0.04529129408925285,-0.010733774899765125,-0.2622878181903198
176.44110275689223,0.6089838985790057,0.5733497021800577,-15.03051,2.003799,-0.474164,0.015164,0.03677408733952053,-0.010786134777324818,-0.25143223676205856
177.4436090225564,0.6089838123597408,0.5733500207026462,-15.042302,2.013822,-0.464894,0.003404,0.036023595761162965,-0.007435102613495781,-0.23916251976066086
178.44611528822054,0.6089837280603378,0.5733503395743005,-15.040102,2.016071,-0.440919,-0.007165,0.039653880605311165,-0.006248278722139622,-0.22560169544510014
179.4486215538847,0.6089836463789288,0.5733506591440866,-15.03291,2.021094,-0.412138,-0.005915,0.04290019301402062,-0.007504915783575594,-0.2123370360503112
180.45112781954887,0.6089835709807052,0.5733509792374714,-15.029963,2.029447,-0.38858,-0.002498,0.042551127163621756,-0.007906341511534354,-0.20106227889559697
181.45363408521303,0.6089835018656669,0.5733513002035208,-15.028853,2.035472,-0.368642,-0.002224,0.03909537524467297,-0.00794124809657415,-0.19015343001856452
182.45614035087718,0.6089834369394186,0.5733516227403666,-15.028751,2.035531,-0.349871,0.000912,0.037576938795437914,-0.008098327729253674,-0.17846002073617598
183.45864661654133,0.6089833751547631,0.5733519449281465,-15.034723,2.036942,-0.333652,0.008606,0.0377689250131573,-0.008744099552491447,-0.16648697480103117
184.4611528822055,0.6089833138937063,0.5733522671159264,-15.045089,2.04149,-0.318866,0.007443,0.03155555287605748,-0.007138396640656852,-0.15362391566712597
185.46365914786966,0.6089832566469068,0.5733525886055747,-15.046924,2.043534,-0.29452,-0.006332,0.038763762686794066,-0.003857177646907406,-0.13964391562511416
186.46616541353382,0.6089832037634306,0.5733529113169533,-15.039233,2.045319,-0.262774,-0.007923,0.03900810878207326,-0.003857177646907406,-0.12594301118378873
187.468671679198,0.6089831559414091,0.5733532347264638,-15.037029,2.049572,-0.239837,0.001514,0.03913028182971287,-0.0051836278784231915,-0.11376064791145371
188.47117794486215,0.6089831130063094,0.5733535591831717,-15.044247,2.055896,-0.223681,0.008428,0.03546509040052478,-0.004886921905584041,-0.10183980477423683
189.4736842105263,0.6089830746090659,0.5733538841634783,-15.050387,2.059198,-0.206471,0.002754,0.03707079331235955,-0.003211405823669411,-0.08998928095258243
190.47619047619045,0.6089830388298163,0.573354209492851,-15.04987,2.058535,-0.185052,-0.003633,0.03487167845484671,-0.001745329251994221,-0.07672460410450135
191.47869674185463,0.6089830072393568,0.5733545349967565,-15.045085,2.055682,-0.16068,-0.007982,0.039566614142711454,-0.0011693705988360392,-0.06333796364829006
192.4812030075188,0.6089829812339509,0.5733548587553327,-15.038873,2.052316,-0.129958,-0.006354,0.04129449010218583,-0.001378810109075479,-0.049532130012333725
193.48370927318294,0.608982959766401,0.5733551814667114,-15.035889,2.055487,-0.101291,0.000344,0.04183554217030407,-0.002199114857512896,-0.03736788325763409
194.48621553884712,0.6089829423131086,0.5733555064470182,-15.040154,2.065196,-0.085806,0.005507,0.040177479380909466,-0.0024260076602720115,-0.026441999967102413
195.48872180451127,0.6089829285250075,0.5733558324745224,-15.046177,2.073678,-0.075253,0.002932,0.03385938748868998,-0.000820304748437195,-0.015760061346121537
196.49122807017542,0.6089829170058344,0.5733561611200205,-15.044589,2.071779,-0.057545,-0.009229,0.03420845333908887,0.0016057029118348165,-0.0032288242096048195
197.49373433583958,0.6089829091518528,0.5733564887183212,-15.032382,2.060753,-0.025896,-0.016549,0.04345869837465881,0.0016057029118348165,0.0109257611174845
198.49624060150376,0.6089829077555894,0.5733568138731608,-15.019413,2.052073,0.009413,-0.009218,0.04389503068765738,-0.0008726646259971105,0.02378883770468271
199.4987468671679,0.6089829136897088,0.5733571369336053,-15.017591,2.054671,0.03363,0.005046,0.04391248398017732,-0.003298672286269122,0.03354522822333101
200.50125313283206,0.6089829229399539,0.5733574608667145,-15.028931,2.064001,0.04552,0.012606,0.04185299546282402,-0.002111848394913185,0.041940261925423744
201.50375939849624,0.6089829344591269,0.573357786719686,-15.040485,2.069039,0.055302,0.005677,0.036110862223762676,0.0013089969389958878,0.05152211951887261
202.5062656641604,0.6089829468509647,0.573358113096256,-15.040061,2.064448,0.071329,-0.007654,0.03876376268679406,0.003228859116189531,0.06293657282691553
203.50877192982455,0.608982962384395,0.5733584387746944,-15.02864,2.056851,0.094098,-0.014776,0.044034657027816934,0.0025132741228719446,0.07553785002631458
204.5112781954887,0.6089829835028789,0.5733587637550012,-15.013121,2.05287,0.123018,-0.01693,0.04761258199440531,0.0005061454830783685,0.08822639368831334
205.51378446115288,0.6089830103809495,0.5733590864663798,-14.999191,2.050533,0.156265,-0.012923,0.04468042885105484,-0.0016929693744345276,0.0990823416357181
206.51629072681703,0.608983044065804,0.5733594097013573,-14.994641,2.051438,0.183327,0.002038,0.042428954115982145,-0.003473205211468544,0.10758209509293049
207.51879699248119,0.6089830822885146,0.5733597336344665,-15.006341,2.054719,0.195191,0.018143,0.03932226804743224,-0.0034208453339088507,0.1151742773391058
208.52130325814534,0.6089831219074886,0.5733600582657074,-15.030168,2.055476,0.19136,0.023226,0.03689626038716013,3.4906585040017646e-05,0.12356931104119853
209.52380952380952,0.6089831597811334,0.5733603823733494,-15.043366,2.050644,0.191858,-0.001669,0.036006142468643025,0.0039968039870670324,0.13512339068940102
210.52631578947367,0.6089831981783769,0.5733607045611293,-15.026085,2.04233,0.223627,-0.033363,0.04492477494633403,0.004049163864626948,0.14880677202503653
211.52882205513782,0.6089832433824045,0.5733610258762446,-14.987557,2.037852,0.276145,-0.039391,0.04941027112395946,8.726646259971105e-05,0.16118115642167635
212.531328320802,0.6089832992329406,0.5733613473658928,-14.963166,2.039428,0.312434,-0.007301,0.0415213829049451,-0.004677482395344823,0.16989033193583547
213.53383458646616,0.6089833615411948,0.5733616690300739,-14.977274,2.04182,0.312391,0.027513,0.030665434957540365,-0.0058293997016609644,0.1772381855400241
214.5363408521303,0.6089834233258504,0.5733619915669197,-15.012767,2.038481,0.300749,0.030432,0.026738444140553125,-0.0019547687622336607,0.18687240301103286
215.53884711779446,0.6089834812707815,0.5733623134056338,-15.031739,2.029692,0.307632,-0.000233,0.037559485502917975,0.0030019663134304153,0.20015435861870967
216.54135338345864,0.6089835407865091,0.5733626333244857,-15.013106,2.021154,0.342532,-0.033758,0.04616395871525002,0.003665191429188086,0.21498965726066152
217.5438596491228,0.6089836069344878,0.5733629514980084,-14.976164,2.018441,0.386356,-0.033021,0.048607419668042086,-0.0007679448708775016,0.2288301182289766
218.54636591478695,0.608983683379909,0.5733632700205968,-14.956882,2.020861,0.416793,-0.005299,0.04316199240181976,-0.0050963614158234805,0.24036672713136653
219.54887218045113,0.6089837654103838,0.5733635895903829,-14.966518,2.02116,0.429092,0.018148,0.03214896482173555,-0.006213372137099826,0.2519208242328615
220.55137844611528,0.6089838505824513,0.5733639077639056,-14.987537,2.013173,0.439766,0.015762,0.03445279943436806,-0.0031590459461097176,0.2650980600854187
221.55388471177943,0.6089839352309201,0.5733642247156977,-14.99635,2.000662,0.457894,-0.002302,0.041713369122664476,-0.0009075712110369061,0.27818801202208376
222.55639097744358,0.6089840228464485,0.5733645395730947,-14.986382,1.990465,0.486279,-0.018194,0.04386012410261749,-0.0013089969389956657,0.2914001544596808
223.55889724310777,0.6089841167451622,0.5733648530342285,-14.969103,1.987099,0.518027,-0.014659,0.04412192349041665,-0.004468042885105383,0.3037745737629056
224.56140350877192,0.60898421745066,0.5733651664953621,-14.96214,1.987907,0.540685,-7.1e-05,0.04160864936754481,-0.006998770300497226,0.3147526773046574
225.56390977443607,0.6089843219958824,0.5733654813527591,-14.968239,1.987727,0.553173,0.00838,0.03630284844148206,-0.007487462491055696,0.32592278451742107
226.56641604010025,0.6089844279373678,0.5733657953374915,-14.97747,1.981521,0.56681,0.00652,0.03452261260444783,-0.006230825429619724,0.3375466773357033
227.5689223057644,0.6089845361477816,0.5733661075768948,-14.981995,1.96928,0.586105,0.001364,0.03815289744859603,-0.005323254218582596,0.35014795453510233
228.57142857142856,0.6089846476743207,0.5733664178964357,-14.982062,1.956142,0.611749,-0.000778,0.03988077340807044,-0.005585053606381729,0.3637266161156183
229.5739348370927,0.608984763738716,0.5733667262961145,-14.981018,1.948482,0.638819,-0.002125,0.04312708581677988,-0.006230825429619724,0.37706093160085485
230.5764411027569,0.6089848852136319,0.5733670334740629,-14.979051,1.948409,0.660629,-0.004234,0.04227187448330266,-0.006841690667817701,0.3884230075780456
231.57894736842104,0.6089850119245356,0.5733673397793466,-14.976177,1.949749,0.678154,-0.003078,0.03937462792499208,-0.007557275661135288,0.39905208017598365
232.5814536340852,0.6089851428242296,0.5733676474808939,-14.975706,1.946438,0.69302,0.000449,0.03712315318991938,-0.007923794804054252,0.4105538173999187
233.58395989974937,0.6089852752947198,0.5733679539607104,-14.981574,1.935145,0.710376,0.006894,0.03735004599267866,-0.007871434926494336,0.42350412554313144
234.58646616541353,0.6089854091614734,0.5733682581715991,-14.992401,1.920436,0.727093,0.010187,0.03780383159819718,-0.007417649320975883,0.4371526352003123
235.58897243107768,0.6089855479151489,0.5733685604626254,-14.999515,1.907837,0.745415,0.001667,0.04194026192542373,-0.006335545184739333,0.45060912373318857
236.59147869674183,0.6089856889377525,0.5733688606592569,-14.996829,1.900372,0.768663,-0.007942,0.04288273972150067,-0.006230825429619724,0.463402352243722
237.593984962406,0.6089858357199426,0.5733691612049541,-14.989085,1.897577,0.798511,-0.009932,0.045553093477052,-0.006387905062299248,0.47661449468131895
238.59649122807016,0.6089859882617192,0.5733694601798549,-14.982029,1.893895,0.827155,-0.005622,0.03986332011555048,-0.006894050545377617,0.48870962639763965
239.59899749373432,0.6089861460394836,0.573369758631157,-14.980223,1.88439,0.846203,0.000635,0.038467056713955027,-0.00773180858633471,0.5008222637663579
240.6015037593985,0.608986308006038,0.573370054813531,-14.987545,1.870992,0.859261,0.010038,0.041015237421866746,-0.008150687606813367,0.5129697379069458
241.60401002506265,0.6089864708452574,0.5733703497741747,-15.003397,1.861144,0.86701,0.016068,0.039409534510031964,-0.007190756518216546,0.5255012019362651
242.6065162907268,0.6089866336844765,0.5733706422913573,-15.018291,1.854489,0.876119,0.008761,0.04157374278250494,-0.005148721293383174,0.5387307976663821
243.60902255639095,0.6089867989671567,0.5733709346340069,-15.018814,1.843983,0.897752,-0.009654,0.04663519761328848,-0.0035430183815483574,0.5530424800794431
244.61152882205513,0.6089869693112917,0.5733712245331958,-15.001377,1.829438,0.935637,-0.022621,0.04778711491960475,-0.004590215932745112,0.5671796121140122
245.6140350877193,0.6089871482075401,0.5733715121634565,-14.979529,1.818521,0.976006,-0.018021,0.046129052130210124,-0.00783652834145454,0.5798681732293034
246.61654135338344,0.6089873354813687,0.5733717989210526,-14.97132,1.811713,1.000827,0.001217,0.042498767286061924,-0.009669124056048473,0.5903925260721218
247.6190476190476,0.6089875253731913,0.5733720846314511,-14.984848,1.806116,1.00319,0.020981,0.04068362486398781,-0.009128071987930308,0.5998871521095559
248.62155388471177,0.6089877145668823,0.5733723689455862,-15.012383,1.797043,0.994176,0.027908,0.03935717463247214,-0.006719517620178195,0.6105684973185914
249.62406015037593,0.6089879016661781,0.5733726518634581,-15.034804,1.784775,0.998394,0.013141,0.04288273972150066,-0.004049163864626726,0.6239726434272002
250.62656641604008,0.6089880889400068,0.5733729328614675,-15.034924,1.769681,1.029663,-0.014353,0.05030038904247657,-0.0018849555921538474,0.63866836808887
251.62907268170426,0.6089882838932843,0.5733732115905491,-15.010725,1.75304,1.075171,-0.029605,0.051103240498393966,-0.0026354471705114513,0.6521073509693489
252.6315789473684,0.6089884896676031,0.573373487003505,-14.983134,1.740326,1.108254,-0.020735,0.04806636759992384,-0.005899212871740778,0.6631378318419531
253.63408521303256,0.6089887013760414,0.5733737606711318,-14.974721,1.736932,1.117957,0.002078,0.04131194339470577,-0.00940732466824934,0.6723532401056531
254.63659147869672,0.6089889132590125,0.5733740345132914,-14.986776,1.734588,1.118869,0.015082,0.03340560188317147,-0.008918632477690869,0.6824063365971406
255.6390977443609,0.6089891242693192,0.5733743071337206,-15.001361,1.724611,1.127067,0.008882,0.035971235883603125,-0.006457718232379062,0.6940999378657472
256.64160401002505,0.6089893358032245,0.5733745787069522,-15.007211,1.706198,1.144567,-0.001014,0.04372049776245795,-0.004729842272904516,0.7060555305083711
257.64411027568923,0.6089895508277884,0.5733748473131242,-15.006863,1.684394,1.168522,-0.001494,0.04783947479716458,-0.005148721293383174,0.7189709320665442
258.64661654135335,0.6089897724846033,0.5733751119050386,-15.008063,1.669216,1.192418,0.002724,0.04808382089244378,-0.006230825429619724,0.7308042993016506
259.64912280701753,0.6089899985047414,0.5733753744025581,-15.010272,1.660592,1.210936,-0.000144,0.04632103834792949,-0.006091199089460098,0.7424281921199329
260.6516290726817,0.608990228190071,0.5733756360274131,-15.008078,1.654847,1.226797,-0.006655,0.045919612619970795,-0.005393067388662409,0.7534062782083922
261.65413533834584,0.6089904606679274,0.5733758966050704,-15.000045,1.647428,1.243218,-0.011037,0.04358087142229841,-0.005619960191421747,0.7639131777586907
262.65664160401,0.608990697334574,0.5733761554373985,-14.989863,1.63013,1.264085,-0.009708,0.04485496177625427,-0.006387905062299248,0.7746992427228455
263.65914786967414,0.6089909369682802,0.5733764107790681,-14.985373,1.60655,1.285163,0.000887,0.04665265090580843,-0.007801621756414523,0.7859217447197542
264.6616541353383,0.6089911800926451,0.5733766635027437,-14.993467,1.589423,1.299749,0.012979,0.0441044701978967,-0.008185594191853385,0.7953639759730432
265.6641604010025,0.6089914253114049,0.5733769144810902,-15.009849,1.582042,1.306246,0.015837,0.04365068459237819,-0.006824237375297804,0.8043175324890669
266.66666666666663,0.6089916712282966,0.5733771621433109,-15.02198,1.57543,1.316195,0.005469,0.0447851486061745,-0.0045378560551851965,0.813829611819021
267.6691729323308,0.6089919209849126,0.5733774105036636,-15.020985,1.561848,1.336924,-0.008414,0.04649557127312894,-0.0033510321638290375,0.8245807876514285
268.671679197995,0.6089921749303187,0.5733776564205553,-15.009396,1.545506,1.360766,-0.014089,0.04569271981721155,-0.00401425727958693,0.8345989950111686
269.6741854636591,0.6089924316682517,0.5733778998939858,-14.997947,1.531095,1.37796,-0.009292,0.04511676116405341,-0.005532693728822036,0.8439714654542555
270.6766917293233,0.6089926913732444,0.5733781407494226,-14.995,1.522787,1.387593,0.000839,0.043615778007338304,-0.007260569688296359,0.8528726097328415
271.6791979949875,0.608992953696231,0.5733783803831289,-15.001166,1.515349,1.396204,0.007257,0.04043927876870863,-0.006841690667817701,0.8617563181722002
272.6817042606516,0.6089932168918821,0.5733786182715059,-15.00993,1.501075,1.408431,0.007219,0.038344883666315416,-0.004921828490624058,0.8720362551065693
273.6842105263158,0.6089934814837967,0.5733788542400208,-15.016831,1.482307,1.422927,0.004919,0.0415213829049451,-0.00293215314335038,0.8835031555586347
274.68671679197996,0.6089937493918369,0.5733790879396077,-15.020163,1.463663,1.438698,-0.000186,0.0469668101711674,-0.0022689280275924872,0.8953189996880511
275.6892230576441,0.6089940206160027,0.5733793172758714,-15.019273,1.449187,1.454015,-0.002644,0.04731587602156627,-0.0029670597283903977,0.9063844395055729
276.69172932330827,0.6089942942836294,0.5733795441686741,-15.015765,1.435782,1.470432,-0.004536,0.04586725274241098,-0.003682644721707984,0.9175544769051663
277.6942355889724,0.6089945723145793,0.5733797698397465,-15.013253,1.422249,1.487982,-0.001889,0.046024332375090474,-0.0034208453339088507,0.9290910858075564
278.69674185463657,0.6089948538361876,0.5733799937654894,-15.01213,1.408012,1.504911,-0.002719,0.04475024202113462,-0.002827433388230771,0.9408372214866483
279.69924812030075,0.6089951388484545,0.5733802152477715,-15.007957,1.391212,1.519107,-0.008727,0.04831071369520304,-0.002460914245312029,0.9525832349926928
280.7017543859649,0.6089954252569848,0.573380433762994,-14.996533,1.369238,1.535403,-0.013662,0.04934045795387969,-0.003281218993749224,0.963910456744721
281.70426065162906,0.6089957149816405,0.5733806479148932,-14.983796,1.347011,1.551538,-0.010114,0.04586725274241098,-0.005899212871740778,0.9737540962726764
282.70676691729324,0.608996007847889,0.5733808585761337,-14.983299,1.327427,1.566279,0.008648,0.04249876728606193,-0.008569566627292025,0.9830916077708458
283.70927318295736,0.6089963028085326,0.5733810673175124,-14.99902,1.316313,1.576455,0.019507,0.04382521751757762,-0.008098327729253674,0.9924814442399903
284.71177944862154,0.6089965995145055,0.5733812748371604,-15.017914,1.313018,1.58209,0.014386,0.04188790204786391,-0.006038839211900404,1.001941181145677
285.7142857142857,0.6089968977912746,0.5733814809605451,-15.024836,1.307063,1.590597,-0.001979,0.03981096023799067,-0.0029670597283903977,1.0139839355311455
286.71679197994985,0.6089971972897742,0.573381686560331,-15.014324,1.293463,1.604247,-0.016371,0.04276056667386107,-0.002478367537831927,1.0267423447231019
287.719298245614,0.6089974992317349,0.5733818904147876,-14.997148,1.268714,1.624145,-0.01558,0.04551818689201211,-0.003298672286269122,1.0397624660363944
288.72180451127815,0.6089978053624857,0.5733820897313882,-14.986468,1.237315,1.645747,-0.005818,0.04749040894676571,-0.005166174585903072,1.05266050156851
289.72431077694233,0.6089981151584278,0.5733822831138693,-14.989323,1.210028,1.661883,0.010118,0.045954519205010695,-0.007138396640656852,1.0639526945624511
290.7268170426065,0.6089984284450286,0.5733824724820931,-15.004601,1.196611,1.670072,0.019534,0.04136430327226562,-0.007592182246175305,1.0739359604305658
291.72932330827064,0.6089987433024256,0.5733826594068561,-15.025842,1.190082,1.678307,0.020166,0.03803072440095644,-0.005148721293383174,1.084547649549154
292.7318295739348,0.608999059905152,0.5733828468552177,-15.0407,1.181788,1.685129,0.007969,0.04375540434749785,-0.0009424777960769237,1.0965379393373074
293.734335839599,0.6089993763333453,0.5733830325582502,-15.041887,1.166922,1.691168,-0.003998,0.04356341812977846,0.001099557428756448,1.1093835626319857
294.7368421052631,0.6089996929360717,0.5733832161668874,-15.033253,1.145978,1.699947,-0.010755,0.04660029102824861,0.0008901179185172303,1.122578321590233
295.7393483709273,0.6090000116331932,0.5733833959358003,-15.020886,1.121882,1.71833,-0.012575,0.04939281783143952,-0.0008901179185170083,1.1359126370754695
296.7418546365915,0.6090003350427035,0.5733835706432585,-15.00931,1.097,1.743702,-0.010662,0.047787114919604745,-0.002670353755551247,1.14884561409921
297.7443609022556,0.609000665084465,0.5733837422091239,-15.000295,1.075317,1.766241,-0.007165,0.0445058959258554,-0.0035081117965085618,1.1608010845687864
298.7468671679198,0.6090009982678192,0.573383909935265,-14.995586,1.056819,1.777617,-0.002748,0.04532620067429273,-0.003752457891787797,1.171691939101231
299.74937343358397,0.6090013318002393,0.5733840745198135,-15.000422,1.041483,1.776745,0.011617,0.0454309204294124,-0.003577924966588375,1.1819718760355995
300.7518796992481,0.6090016658562581,0.5733842378826316,-15.020207,1.029002,1.771741,0.027333,0.04564035993965173,-0.0030543261909901087,1.193613222146402
301.7543859649123,0.6090019983414806,0.5733843988019885,-15.047295,1.015265,1.773072,0.023462,0.04749040894676571,-6.981317007981325e-05,1.2061447210823062
302.7568922305764,0.6090023320484336,0.5733845583250822,-15.059829,0.997393,1.784923,0.000574,0.04763003528692526,0.002844886680750891,1.219025233508732
303.7593984962406,0.6090026687224463,0.5733847145320503,-15.045811,0.973288,1.808476,-0.02453,0.05215043804959057,0.0037175513067480015,1.232499105520958
304.76190476190476,0.6090030108069797,0.5733848663756952,-15.014462,0.948164,1.83552,-0.031044,0.051155600375953805,0.0014137166941154966,1.2454495183839263
305.7644110275689,0.6090033572548362,0.5733850143796156,-14.986433,0.927595,1.854359,-0.022213,0.0470017167562073,-0.0014137166941152746,1.25742242469273
306.76691729323306,0.6090037064952195,0.5733851590674107,-14.974804,0.906898,1.85981,-0.000831,0.04637339822548933,-0.004310963252425859,1.268086386422415
307.76942355889724,0.6090040562592016,0.5733852995664155,-14.981255,0.886072,1.854753,0.013678,0.045116761164053415,-0.0058293997016609644,1.278680569888606
308.77192982456137,0.6090044044523875,0.5733854370983605,-14.999454,0.866276,1.85366,0.021298,0.04838052686528281,-0.005532693728822036,1.2887161607276956
309.77443609022555,0.6090047512493098,0.5733855732340423,-15.018517,0.85299,1.85982,0.015058,0.04796164784480418,-0.0031590459461097176,1.2988042161641002
310.77694235588973,0.6090051001406274,0.5733857071007958,-15.026612,0.839401,1.872259,0.000335,0.04539601384437251,-0.0005061454830783685,1.310026648347839
311.77944862155385,0.6090054518244715,0.5733858385240885,-15.018373,0.824599,1.886535,-0.015069,0.048345620280242925,0.0006806784082777906,1.3220694725464772
312.78195488721803,0.6090058075225732,0.573385967852986,-14.997981,0.805673,1.901285,-0.020982,0.04344124508213886,-0.0006632251157578928,1.3348104284459135
313.7844611528822,0.6090061639188064,0.5733860929930935,-14.978444,0.780206,1.915161,-0.015252,0.04691445029360758,-0.0026005405854714336,1.3468182238864643
314.78696741854634,0.6090065218858359,0.5733862135953447,-14.967748,0.75258,1.923817,-0.004389,0.04941027112395946,-0.004712388980384619,1.3577265317114289
315.7894736842105,0.609006883518057,0.573386329834273,-14.970797,0.725322,1.925641,0.010261,0.048694686130641804,-0.005934119456780573,1.36809368274852
316.79197994987464,0.6090072460229426,0.5733864413608121,-14.987854,0.703278,1.925116,0.022797,0.047088983218807,-0.006300638599699537,1.377867613826151
317.7944862155388,0.6090076076551637,0.5733865507929562,-15.011115,0.690366,1.927988,0.020056,0.04501204140893377,-0.004136430327226437,1.387938093796988
318.796992481203,0.6090079692873845,0.5733866591779028,-15.022879,0.683713,1.935794,0.002749,0.045483280306972226,-0.0016755160819144077,1.3984450631604566
319.79949874686713,0.6090083321413361,0.5733867670392506,-15.013769,0.671655,1.947652,-0.016528,0.04789183467472441,-0.0005934119456780795,1.410470294440235
320.8020050125313,0.6090086976132815,0.5733868721080716,-14.9911,0.644918,1.960882,-0.022892,0.049881510021997935,-0.0019024088846737452,1.4228797075949622
321.8045112781955,0.6090090669249512,0.5733869735117011,-14.970997,0.612313,1.971491,-0.013876,0.050038589654677425,-0.004869468613064143,1.4348351606112457
322.8070175438596,0.6090094381564831,0.5733870686321454,-14.965405,0.581291,1.980217,0.002829,0.04764748857944519,-0.00802851455917386,1.4454119082382086
323.8095238095238,0.6090098093880151,0.573387157993003,-14.976158,0.560067,1.982649,0.015451,0.04422664324553631,-0.009058258817850495,1.4546970249522337
324.812030075188,0.6090101813176786,0.5733872445613339,-14.993905,0.544481,1.981822,0.017431,0.04654793115068877,-0.007644542123734999,1.463982263839306
325.8145363408521,0.6090105528982764,0.5733873281626052,-15.009254,0.53031,1.981947,0.011589,0.0508763476956347,-0.004747295565424414,1.474157393752093
326.8170426065163,0.6090109244788742,0.5733874112402775,-15.016119,0.515445,1.987712,0.002025,0.04989896331451788,-0.0029146998508304822,1.4845770268397915
327.8195488721804,0.6090112983283998,0.5733874910018243,-15.011481,0.493477,1.997996,-0.0095,0.048886672348361165,-0.002460914245312029,1.4949443000499305
328.8220551378446,0.6090116754940513,0.5733875674472455,-14.998444,0.467439,2.010605,-0.013208,0.051033427328314195,-0.003316125578789242,1.5050323554863354
329.82456140350877,0.6090120537069001,0.5733876405765411,-14.98873,0.439538,2.018957,-0.003992,0.0506320016003555,-0.004502949470145401,1.514771275259171
330.8270676691729,0.6090124336650783,0.573387708644382,-14.989778,0.417466,2.020626,0.00658,0.04721115626644662,-0.005358160803622614,1.5243704988786773
331.8295739348371,0.6090128130996577,0.5733877725234326,-15.000409,0.399654,2.017709,0.012409,0.04743804906920589,-0.00548033385126212,1.5333590666994956
332.83208020050125,0.6090131913125065,0.573387834657154,-15.012177,0.384122,2.016889,0.009841,0.04698426346368736,-0.00568977336150156,1.5421729445154821
333.8345864661654,0.6090135695253556,0.5733878941728815,-15.016704,0.370535,2.021643,-0.001019,0.04656538444320872,-0.004049163864626726,1.5510392694754909
334.83709273182956,0.6090139477382045,0.5733879522923456,-15.012269,0.35539,2.028955,-0.005265,0.04941027112395948,-0.003036872898469989,1.5605337035267075
335.83959899749374,0.6090143285690471,0.5733880077938158,-15.009277,0.337171,2.033704,0.001825,0.05049237526019595,-0.002478367537831927,1.570342523736086
336.84210526315786,0.6090147113197522,0.5733880596300946,-15.015714,0.314129,2.033946,0.011737,0.04846779332788254,-0.0024260076602720115,1.5804827819704175
337.84461152882204,0.6090150935468583,0.5733881084993137,-15.028595,0.288332,2.033723,0.013382,0.046792277245967975,-0.0022689280275924872,1.5914611298582646
338.8471177944862,0.6090154752503657,0.5733881528306767,-15.036388,0.268693,2.038398,0.00113,0.05028293574995663,-0.0007504915783576038,1.6014967206973545
339.84962406015035,0.6090158576520048,0.5733881948931115,-15.027561,0.255209,2.047663,-0.015073,0.04623377188532979,-0.0003316125578789464,1.611724315207456
340.8521303258145,0.6090162421480391,0.573388233639421,-15.008682,0.241969,2.054776,-0.018201,0.0466002910282486,-0.001553343034274901,1.623138768515499
341.85463659147865,0.6090166278658037,0.5733882709894671,-14.99803,0.221246,2.057415,-0.000404,0.05138249317871306,-0.003752457891787797,1.6357224702493305
342.85714285714283,0.6090170128854367,0.5733883044997886,-15.00777,0.19111,2.054129,0.020077,0.04764748857944519,-0.003211405823669411,1.6499994031569845
343.859649122807,0.609017397381471,0.5733883334722543,-15.029082,0.158396,2.047119,0.021622,0.05091125428067459,-6.981317007981325e-05,1.6638921890962743
344.86215538847114,0.6090177804812418,0.5733883568596662,-15.044823,0.130486,2.043,0.009076,0.05307546255314756,0.0016057029118348165,1.6759001067098727
345.8646616541353,0.6090181641046113,0.5733883751856234,-15.04639,0.108369,2.048226,-0.005259,0.053459434988586324,0.0013613568165555812,1.6875413131943349
346.8671679197995,0.6090185494733101,0.5733883898463891,-15.033136,0.083498,2.05964,-0.018504,0.05438445949214331,0.0009773843811169414,1.7001950549910487
347.8696741854636,0.6090189374600029,0.5733884004928975,-15.010054,0.060418,2.069212,-0.022133,0.05120796025351363,0.0001221730476397287,1.7113825980430402
348.8721804511278,0.6090193273665578,0.5733884078232804,-14.991191,0.039331,2.073044,-0.012071,0.04808382089244377,-0.0013089969389956657,1.7212960856476602
349.874686716792,0.6090197176221785,0.5733884116630048,-14.987011,0.017546,2.068175,0.004104,0.048991392103480844,-0.0027925268031907535,1.7300750568786065
350.8771929824561,0.6090201052598054,0.5733884127102022,-14.996143,-0.006229,2.059157,0.012537,0.05218534463463046,-0.0034382986264287485,1.738731802702036
351.8796992481203,0.6090204894067738,0.5733884100922084,-15.007748,-0.026558,2.053966,0.008827,0.054558992417342744,-0.0027750735106708557,1.7472491316248158
352.88220551378447,0.609020874077341,0.573388404158089,-15.013033,-0.042552,2.055035,0.002043,0.054436819369703154,-0.0014835298641950878,1.755993213724015
353.8847117794486,0.6090212604932373,0.5733883957805085,-15.010246,-0.057753,2.061689,-0.00466,0.05241223743738972,-0.00013962634015940445,1.7651736630427977
354.8872180451128,0.6090216472581995,0.5733883856575989,-15.003716,-0.073706,2.065397,-0.005291,0.05262167694762904,-0.00013962634015940445,1.7749997969183555
355.8897243107769,0.6090220350703595,0.5733883732657612,-14.997595,-0.092247,2.061503,-0.004109,0.051557026103912496,-0.0008377580409573149,1.7849132845229763
356.8922305764411,0.6090224228825192,0.5733883575577979,-14.991633,-0.114585,2.05448,-0.005075,0.0532150888933071,-0.0026878070480711447,1.7948616438060512
357.89473684210526,0.609022808251218,0.5733883374865115,-14.983927,-0.142688,2.051095,-0.007454,0.05286602304290824,-0.005340707511102494,1.8053511773302922
358.8972431077694,0.6090231922236535,0.5733883120047044,-14.972455,-0.171842,2.056544,-0.014071,0.0521678913421105,-0.006998770300497226,1.8160151390599775
359.89974937343356,0.6090235791631486,0.5733882816359755,-14.958616,-0.199751,2.063385,-0.011348,0.05345943498858631,-0.007068583470577039,1.8264522079869037
360.90225563909775,0.6090239668007755,0.5733882479511209,-14.951434,-0.221974,2.063321,0.00053,0.05291838292046807,-0.007696902001294914,1.8360688674456374
361.90476190476187,0.6090243523440073,0.5733882106010749,-14.958132,-0.239095,2.051792,0.01329,0.052377330852349815,-0.008464846872172416,1.844760642027154
362.90726817042605,0.6090247349201793,0.5733881716802326,-14.974228,-0.251109,2.034679,0.017442,0.05290092962794813,-0.008709192967451651,1.8529811428040472
363.90977443609023,0.6090251134820941,0.5733881304904622,-14.989435,-0.27285,2.024222,0.011844,0.05956808737056647,-0.008988445647770682,1.8616728999322716
364.91228070175436,0.6090254913458771,0.5733880854609675,-14.99404,-0.302515,2.027422,-0.000591,0.062430427343837164,-0.009285151620609833,1.8702075425212317
365.91478696741854,0.6090258702568577,0.5733880350209521,-14.984721,-0.330631,2.039792,-0.012974,0.056775560567375545,-0.008569566627292025,1.8784454965906445
366.91729323308266,0.6090262547528918,0.5733879803921467,-14.968864,-0.350622,2.048746,-0.013796,0.04843288674284265,-0.00832522053201279,1.8857409554106885
367.91979949874684,0.6090266394234591,0.5733879220981495,-14.96006,-0.367818,2.043016,-0.001706,0.04967207051175862,-0.009477137838329153,1.8920940586077026
368.922305764411,0.6090270226977628,0.573387862756955,-14.964223,-0.379599,2.027165,0.010041,0.04577998627981127,-0.011728612573401742,1.897853540419529
369.92481203007515,0.6090274030050068,0.5733878009722995,-14.977947,-0.392926,2.014612,0.015542,0.04764748857944518,-0.011972958668680977,1.9060391695179675
370.9273182957393,0.6090277798215923,0.57338773656965,-14.991629,-0.411099,2.014601,0.010482,0.05255186377754927,-0.011135200627723663,1.915376611202967
371.9298245614035,0.6090281578599084,0.5733876711198032,-14.998733,-0.429759,2.020853,0.004008,0.054733525342542166,-0.009564404300928864,1.9247490816460544
372.93233082706763,0.609028536596356,0.573387601481166,-15.001172,-0.451638,2.019652,0.003612,0.05419247327442394,-0.007330382858376172,1.9341738770601156
373.9348370927318,0.609028914634672,0.5733875287009361,-15.007114,-0.472648,2.007399,0.010769,0.05291838292046807,-0.00567232006898144,1.9433368730863787
374.937343358396,0.60902929040406,0.5733874522555149,-15.021618,-0.492224,1.99351,0.01806,0.052813663165348405,-0.005707226654021458,1.9520460835071232
375.9398496240601,0.6090296637299869,0.5733873724939681,-15.038054,-0.512008,1.988059,0.012057,0.053476888281106257,-0.005358160803622614,1.9603189267082834
376.9423558897243,0.6090300351360517,0.5733872911616249,-15.03828,-0.529554,1.99332,-0.009108,0.05361651462126581,-0.003926990816987219,1.9690281196757353
377.9448621553885,0.6090304089855776,0.5733872066876892,-15.016576,-0.551033,2.001644,-0.026623,0.053040555968107674,-0.004031710572106828,1.979604867302699
378.9473684210526,0.609030783707768,0.5733871168032327,-14.992008,-0.574838,2.003726,-0.015632,0.054646258879942455,-0.006143558967020013,1.9909842918526537
