Time [s],Longitude [rad],Latitude [rad],Altitude [m],V North [m/s],V East [m/s],V Down [m/s],Roll [rad],Pitch [rad],Yaw [rad]
0.0,0.6089529961283358,0.573358098959089,-15.011564,1.425806,0.405357,0.003379,0.025656340004316644,-0.0001919862177193199,0.2963918135736771
1.0025062656641603,0.6089530711774936,0.5733583244556284,-15.02178,1.429812,0.414916,0.015234,0.02282890661608583,-0.0016057029118348165,0.30883601114039655
2.0050125313283207,0.6089531493682442,0.5733585508248324,-15.035624,1.439869,0.423692,0.009983,0.013421581947836395,0.0002967059728391508,0.3220655894172211
3.007518796992481,0.6089532301769885,0.5733587787648328,-15.035564,1.439121,0.443871,-0.010288,0.017505652397503124,0.0032812189937494463,0.33784338330854236
4.010025062656641,0.608953315174523,0.5733590063557672,-15.017096,1.421278,0.476583,-0.023136,0.02476622208579954,0.003385938748869055,0.35409239864460956
5.012531328320802,0.608953406106177,0.5733592301069773,-14.996937,1.400079,0.509549,-0.012991,0.027000243528352275,0.00010471975511983089,0.36782812240451235
6.015037593984962,0.6089535036700823,0.5733594505420617,-14.996621,1.392952,0.523758,0.012874,0.020751964806212584,-0.0033510321638290375,0.3783175861155834
7.017543859649122,0.608953602281185,0.5733596701044816,-15.019352,1.400019,0.517786,0.027678,0.015638150097869195,-0.0025481807079117402,0.3888593747976291
8.020050125313283,0.608953700368689,0.5733598917612966,-15.043638,1.407519,0.511305,0.015532,0.015707963267948963,0.0015009831567152077,0.4027521781902115
9.022556390977442,0.6089537965363307,0.5733601141162434,-15.044641,1.401755,0.528239,-0.013487,0.02136283004441059,0.00460766922526501,0.41964698280280915
10.025062656641603,0.608953896194631,0.5733603362966571,-15.020213,1.383009,0.568822,-0.030344,0.028344147052387914,0.003857177646907628,0.43633231299858244
11.027568922305765,0.608954003706913,0.5733605539392148,-14.992844,1.366552,0.607486,-0.019656,0.02696533694331239,0.0,0.4501727914201899
12.030075187969924,0.6089541201203741,0.5733607689637787,-14.986319,1.360579,0.622212,0.005351,0.02129301687433082,-0.0031241393610697,0.4612555972637689
13.032581453634084,0.6089542377555656,0.573360983115678,-15.002513,1.35962,0.620322,0.021099,0.014713125594312199,-0.0030892327760299043,0.4733158223950497
14.035087719298245,0.6089543548671584,0.5733611970930442,-15.024362,1.356829,0.622469,0.017426,0.01788962483294187,-0.0012217304763959547,0.48729592715681685
15.037593984962406,0.6089544723278171,0.5733614117685423,-15.035086,1.349932,0.639058,0.002578,0.02216568150032799,0.0009773843811169414,0.5026722604135944
16.040100250626566,0.6089545924064697,0.5733616255713756,-15.031325,1.341895,0.662339,-0.008433,0.02485348854839925,0.0023561944901924203,0.5176472028489983
17.042606516290725,0.6089547166739124,0.5733618378034127,-15.021228,1.33466,0.681787,-0.010199,0.020210912738094333,0.002670353755551469,0.5320112625929114
18.045112781954884,0.60895484600281,0.573362049337318,-15.011775,1.32462,0.698344,-0.00813,0.020402898955813712,0.0020769418098733894,0.5460262215798409
19.047619047619047,0.608954978996899,0.5733622582532294,-15.003953,1.311765,0.717162,-0.00723,0.023317598806644243,0.0007504915783576038,0.5603728978444045
20.050125313283207,0.6089551149580477,0.5733624654238116,-14.997978,1.2996,0.738162,-0.004939,0.023108159296404925,-0.000366519142918742,0.5743528978864163
21.052631578947366,0.6089552538862563,0.5733626704999988,-14.996851,1.291668,0.753264,0.001757,0.021048670779051613,-0.0013089969389956657,0.5874603729287713
22.05513784461153,0.6089553956069914,0.5733628748780543,-15.003871,1.287318,0.760484,0.010091,0.020682151636132805,-0.0016231562043547143,0.6005503423187288
23.05764411027569,0.6089555392475888,0.5733630782089121,-15.014973,1.284245,0.766566,0.009066,0.01895427567665842,-0.0004886921905582486,0.6149492562878046
24.06015037593985,0.608955683760851,0.5733632818888358,-15.018338,1.278092,0.778698,-0.004792,0.020786871391252463,0.0011693705988362613,0.6306572544623386
25.062656641604008,0.6089558300194422,0.573363484347029,-15.005987,1.265674,0.799301,-0.019697,0.023806290997202658,0.0013613568165555812,0.646679429355524
26.065162907268167,0.6089559815140213,0.5733636845362943,-14.982435,1.246596,0.82868,-0.024674,0.025062928058638575,-0.0008377580409573149,0.6625619255486725
27.06766917293233,0.6089561389427198,0.5733638815839668,-14.962267,1.229765,0.854757,-0.013885,0.025446900494077326,-0.004660029102824703,0.675948566004884
28.07017543859649,0.6089563005602086,0.5733640753155137,-14.95977,1.222418,0.865532,0.007373,0.019669860669976093,-0.007487462491055696,0.6877644799474707
29.07268170426065,0.6089564644466253,0.5733642678253301,-14.977648,1.218297,0.866412,0.024502,0.016406094968746697,-0.007452555906015679,0.7010464006485624
30.075187969924812,0.6089566274603775,0.5733644601606138,-15.00426,1.21507,0.866146,0.024011,0.02029817920069405,-0.005567600313861831,0.7158467752521819
31.07769423558897,0.608956789775998,0.5733646528449633,-15.018672,1.207615,0.877842,0.002028,0.024399702942880727,-0.0026179938779913314,0.7319911231930067
32.08020050125313,0.6089569554077439,0.5733648434349174,-15.006001,1.193695,0.903114,-0.024606,0.027855454861829502,-0.0019722220547535585,0.7486415468037403
33.08270676691729,0.6089571259264118,0.5733650321050096,-14.975887,1.176965,0.931326,-0.029896,0.023317598806644243,-0.004049163864626726,0.7632848766812653
34.08521303258145,0.6089573020301334,0.5733652183316408,-14.954524,1.162062,0.955321,-0.009607,0.020228366030614276,-0.007173303225696648,0.7775790534419287
35.08771929824561,0.6089574840679745,0.5733654010676135,-14.959839,1.14893,0.968547,0.017021,0.016859880574265223,-0.008168140899333487,0.7915766289495082
36.09022556390977,0.6089576669784801,0.5733655815346582,-14.985715,1.14159,0.966175,0.028894,0.017121679962064373,-0.0072954762733361544,0.8053124225225813
37.092731829573935,0.6089578481436564,0.5733657618271699,-15.01149,1.134157,0.964386,0.018698,0.02350958502436362,-0.004869468613064143,0.8204443573242018
38.095238095238095,0.6089580286107009,0.5733659408979511,-15.018751,1.122229,0.979189,-0.003989,0.025795966344476187,-0.0028099800957108734,0.8361174663669887
39.097744360902254,0.6089582115212065,0.5733661183979362,-15.005046,1.107557,1.007364,-0.019966,0.026197392072434888,-0.002583087292951536,0.8509527475556478
40.100250626566414,0.6089583996677,0.5733662915345978,-14.983184,1.076681,1.013824,-0.027511,-0.005951572749300664,-0.005445427266222325,0.8661370771414134
41.10275689223057,0.6089585986352347,0.5733664658929902,-14.961429,1.128904,1.101538,0.000628,0.08737118235483612,-0.07927285462558231,0.8817053966159104
42.10526315789473,0.6089588131361998,0.5733666488034957,-15.032673,1.168253,1.165098,0.158418,-0.02480112867083944,-0.1942027858694091,0.9427221421722172
43.10776942355889,0.608959038807272,0.5733668311904025,-15.246433,1.068346,1.229411,0.25645,-0.06956882398449395,-0.2229483586497556,1.0920350596803319
44.11027568922306,0.608959281582571,0.5733670008364059,-15.511248,0.914184,1.374284,0.276883,0.0763581547747519,-0.23378685330464033,1.2591851723306589
45.11278195488722,0.6089595402403661,0.5733671483167277,-15.816662,0.747167,1.537658,0.342359,0.032253684576855235,-0.25947809989399695,1.3666277458031848
46.11528822055138,0.6089598313612853,0.5733672692680449,-16.184235,0.678805,1.667679,0.397138,0.05012585611727716,-0.2712765256374785,1.3862452640488936
47.11779448621554,0.6089601619266457,0.5733673711952731,-16.602951,0.702985,1.773769,0.449704,0.0331787090804122,-0.2771059253391397,1.366016810751817
48.1203007518797,0.6089604394339968,0.5733674767876928,-17.069811,0.759362,1.859267,0.492067,0.020891591146372096,-0.2741388656107493,1.3439558490066086
49.122807017543856,0.6089607909433081,0.5733675951210162,-17.574337,0.808245,1.935722,0.521385,0.024940755010998978,-0.2590068609959584,1.3343564857607622
50.125313283208015,0.6089611731704143,0.5733677251480456,-18.083025,0.828613,2.014876,0.494675,0.013281955607676837,-0.21718877211817444,1.3361716979960063
51.127819548872175,0.608961566044029,0.5733678619818587,-18.539337,0.84854,2.088413,0.418455,0.007661995416255111,-0.16730724464288382,1.3328729733498597
52.130325814536334,0.6089619693896191,0.573368001608199,-18.912788,0.872734,2.152807,0.327045,0.00987856356628791,-0.12006119924468983,1.3267819313400322
53.1328320802005,0.6089623846034481,0.573368141758138,-19.194441,0.895336,2.215253,0.235919,0.012374384396639798,-0.07974409352362088,1.3227500287817073
54.13533834586466,0.6089628108128515,0.573368286096867,-19.393097,0.92103,2.275583,0.16211,0.006562437987498677,-0.050038589654677335,1.3186835163443158
55.13784461152882,0.6089632478432961,0.5733684351479852,-19.529327,0.946776,2.328729,0.112307,0.006981317007977317,-0.03265511030481383,1.314791449565661
56.14035087719298,0.6089636939494529,0.5733685885624265,-19.626232,0.969038,2.369338,0.081473,0.004276056667386109,-0.02370157124208294,1.311230925531715
57.14285714285714,0.6089641470369268,0.5733687447693945,-19.700157,0.986842,2.397738,0.064405,-0.006754424205218056,-0.01968731396249601,1.308298789841657
58.1453634085213,0.6089646043131908,0.5733689048160869,-19.759787,1.000457,2.419186,0.053019,-0.0027925268031909296,-0.018657569703819377,1.3061521570347518
59.14786967418546,0.6089650650801134,0.5733690659099768,-19.806866,1.012124,2.439879,0.038421,0.0009599310885968797,-0.01677261411166553,1.3056110002468782
60.150375939849624,0.6089655267197005,0.5733692278765314,-19.839405,1.021333,2.464387,0.025785,-0.0005759586531581293,-0.015254177662430424,1.3056633252178529
61.152882205513784,0.6089659937698083,0.5733693914138823,-19.861996,1.031906,2.490394,0.020367,-0.0014137166941154077,-0.014451326206512904,1.3050349543272575
62.15538847117794,0.6089664671031014,0.5733695559984308,-19.881287,1.041873,2.515151,0.020714,-0.0023911010752322333,-0.01605702911834772,1.3048254973637254
63.1578947368421,0.6089669420071909,0.5733697225028415,-19.904057,1.044178,2.514271,0.023675,-0.010716321607245184,-0.01685988057426524,1.3040228204407334
64.16040100250626,0.6089674160386157,0.5733698895308509,-19.929026,1.044369,2.508236,0.022285,-0.01010545636904717,-0.01596976265574801,1.3034293386818852
65.16290726817043,0.6089678881501784,0.5733700541153993,-19.951357,1.038439,2.504136,0.019286,-0.0075921822461753365,-0.013543754995475998,1.3056807785103728
66.16541353383458,0.6089683571201484,0.5733702166055527,-19.971043,1.027989,2.502589,0.018404,-0.002932153143350474,-0.011972958668680977,1.3092237096254586
67.16791979949875,0.6089688252174539,0.5733703782230415,-19.991762,1.024561,2.501043,0.021343,-0.00541052068118242,-0.010437068926925974,1.309747413120812
68.1704260651629,0.6089692941874238,0.5733705396659973,-20.012005,1.028252,2.49871,0.017805,-0.008604473212332046,-0.007714355293814812,1.3090143748349745
69.17293233082707,0.6089697633319268,0.5733707021561506,-20.025667,1.02921,2.496627,0.007624,-0.003857177646907469,-0.005009094953223769,1.3092761742227736
70.17543859649122,0.6089702321273638,0.5733708635991065,-20.028196,1.026581,2.497139,-0.002998,-0.00502654824574367,-0.003769911184307695,1.3098520805160543
71.17794486215539,0.6089707016209327,0.5733710248675293,-20.020782,1.020965,2.500833,-0.009766,-0.004084070449666731,-0.003857177646907406,1.3107771224729037
72.18045112781954,0.6089711714635673,0.5733711849142217,-20.010588,1.015065,2.507136,-0.009065,-0.005550147021341968,-0.005602506898901627,1.3123654419053887
73.1829573934837,0.6089716407826031,0.573371345135447,-20.005411,1.009407,2.511743,-0.001493,-0.005864306286700948,-0.006195918844579706,1.3138489543162915
74.18546365914787,0.6089721107997708,0.5733715030877443,-20.007261,1.014175,2.473145,0.004524,-0.01281071670963838,-0.006684611035138177,1.3226803901445527
75.18796992481202,0.6089725581276579,0.5733716503935332,-20.021828,0.792483,2.359278,0.003439,-0.05811946409141117,0.018744836166419088,1.4865492314412527
76.19047619047619,0.6089729981251625,0.5733717458630433,-19.991814,0.420583,2.321852,-0.050114,0.12276645958528115,0.02242748088812707,1.680717110725622
77.19298245614034,0.6089733904751783,0.5733718242283268,-19.955906,0.057538,2.198338,-0.026482,-0.029810223624063145,0.015254177662430424,1.8687589192420764
78.19548872180451,0.6089737678153625,0.5733718163743451,-19.918886,-0.290901,2.036058,-0.046581,0.06087708430956222,0.020821777976292477,2.0529435326583303
79.19799498746866,0.6089741165321472,0.5733717469102408,-19.86869,-0.603225,1.851592,-0.046657,0.04984660343695804,0.00883136601509138,2.224299976072426
80.20050125313283,0.6089744308659454,0.5733716336383724,-19.827673,-0.872559,1.643669,-0.037446,0.027576202181510412,0.004485496177625503,2.3872088688272366
81.203007518797,0.6089747080242306,0.5733714779550031,-19.797926,-1.09738,1.421143,-0.021965,0.05176646561415182,-0.00010471975511960885,2.5389477939956233
82.20551378446115,0.6089749455635417,0.5733712913793061,-19.788673,-1.280663,1.183147,0.003956,0.030054569719342353,-0.004118977034706539,2.6809653923100347
83.20802005012531,0.6089751375497595,0.5733710774019398,-19.801292,-1.429454,0.934925,0.020097,0.033632494685930735,-0.0044505895925854855,2.8127029140637365
84.21052631578947,0.6089752836338179,0.5733708421315566,-19.821754,-1.550714,0.692398,0.02196,0.03237585762449481,-0.004485496177625281,2.927318441696109
85.21303258145363,0.6089753874809084,0.5733705899314797,-19.837833,-1.645851,0.475147,0.012817,0.031503192998497645,-0.004118977034706539,3.0243238240686616
86.21553884711778,0.608975451534492,0.5733703218489066,-19.843369,-1.720029,0.286163,0.00442,0.029216811678385076,-0.0059166661642606755,3.1064418620809677
87.21804511278195,0.608975483997616,0.5733700427707592,-19.844893,-1.779579,0.121387,0.001941,0.023474678439323736,-0.006492624817418857,-3.1095484259764703
88.22055137844612,0.6089754897572025,0.5733697554895644,-19.849083,-1.829378,-0.020775,0.006808,0.02181661564992912,-0.006719517620178195,-3.0570838984746906
89.22305764411027,0.6089754712567126,0.5733694601798549,-19.858038,-1.873237,-0.14033,0.009327,0.020176006153054444,-0.006300638599699537,-3.0189484892251994
90.22556390977444,0.6089754311141397,0.5733691580633614,-19.866219,-1.915637,-0.231762,0.006852,0.016318828506146986,-0.00567232006898144,-2.9964860668454474
91.22807017543859,0.6089753784051963,0.5733688505363472,-19.868677,-1.957637,-0.291454,-4.1e-05,0.019652407377456146,-0.006143558967020013,-2.9870089290071182
92.23057644110276,0.608975316096942,0.573368535853483,-19.867785,-2.000844,-0.323866,0.000166,0.013857914260834978,-0.008796459430051362,-2.9879514242564875
93.23308270676691,0.6089752509961609,0.5733682145383677,-19.871355,-2.043468,-0.33027,0.006473,0.006876597252857658,-0.011274826967883289,-2.9985979501469457
94.23558897243107,0.608975187815242,0.5733678874636658,-19.883257,-2.083412,-0.317049,0.015345,0.0009075712110370513,-0.012932889757278021,-3.0163303382675757
95.23809523809523,0.6089751296957779,0.5733675542803117,-19.902906,-2.116704,-0.282494,0.02368,0.0035953782591083183,-0.013665928043115505,-3.0407824185413084
96.2406015037594,0.6089750808265588,0.5733672156864369,-19.928833,-2.145852,-0.231193,0.028234,-0.007958701389094143,-0.01244419756671955,-3.06804439164429
97.24310776942356,0.6089750419057165,0.5733668748236339,-19.957029,-2.173002,-0.17396,0.026001,-0.009407324668249438,-0.010105456369047028,-3.095097064863372
98.24561403508771,0.6089750171220412,0.5733665299465737,-19.978926,-2.198439,-0.109003,0.015746,-0.002722713633111154,-0.007906341511534354,-3.1205265120649295
99.24812030075188,0.6089750047302035,0.5733661822769867,-19.987415,-2.218555,-0.043196,0.000886,-0.009093165402890459,-0.005218534463462987,-3.1407372502700985
100.25062656641603,0.6089750047302035,0.5733658307676754,-19.990698,-2.233669,0.012528,0.004336,-0.0036477381366681488,-0.005742133239061253,3.127821988338265
101.2531328320802,0.6089750141549815,0.573365477163969,-20.003777,-2.247288,0.043779,0.01789,-0.011606439525762293,-0.005707226654021458,3.1195142560053575
102.25563909774435,0.6089750289902801,0.5733651214658674,-20.021833,-2.259,0.051549,0.014909,-0.00736528944341607,-0.00274016692563106,3.1163900991909954
103.25814536340852,0.6089750436510457,0.573364762975239,-20.030724,-2.269161,0.057058,0.004,-0.007871434926494426,-0.0013264502315155635,3.1159014070004365
104.26065162907267,0.6089750576136798,0.5733644041355447,-20.029884,-2.275895,0.064106,-0.003169,-0.003211405823669566,-0.0012042771838760569,3.1178385828438104
105.26315789473684,0.6089750736707089,0.5733640440741201,-20.02676,-2.280707,0.065556,-0.000443,0.0013439035240356341,-0.0016929693744345276,3.1226732844981746
106.265664160401,0.6089750911240014,0.5733636840126954,-20.02615,-2.285107,0.055704,0.001028,-0.001239183768915974,-0.0012391837689158525,3.131696619277693
107.26817042606515,0.6089751049121025,0.5733633243003365,-20.026688,-2.288972,0.033796,-0.000878,-0.004118977034706618,-0.0007853981633973994,-3.1408072903329813
108.27067669172932,0.6089751132896829,0.5733629644134448,-20.026819,-2.29288,0.009468,-0.000277,-0.0018500490071139896,0.00040142572795875964,-3.1312779671500173
109.27318295739347,0.6089751159076768,0.5733626029557567,-20.027676,-2.297413,-0.015207,0.001225,-0.0006457718232379017,0.0001221730476397287,-3.1239473399455457
110.27568922305764,0.6089751131151501,0.5733622407999369,-20.031382,-2.301276,-0.03986,0.003069,-0.002059488517353308,0.0004886921905584707,-3.117978401170188
111.27819548872179,0.608975106133833,0.5733618777714525,-20.031637,-2.303889,-0.054573,-0.002429,-0.0007504915783575617,0.0013089969389958878,-3.114958911751067
112.28070175438596,0.6089750974071867,0.5733615159646985,-20.026405,-2.30454,-0.055084,-0.003552,-0.004852015320544237,0.0005410520681183861,-3.1153080474146364
113.28320802005013,0.608975089553205,0.5733611529362143,-20.02342,-2.308154,-0.045812,0.001252,-0.011938052083641213,-0.0005759586531579597,-3.117908622906693
114.28571428571428,0.6089750836190856,0.573360789209598,-20.027699,-2.312482,-0.037119,0.006967,0.001082104136236484,0.0005759586531581817,-3.1209105368602454
115.28822055137844,0.6089750789066966,0.5733604240867185,-20.032654,-2.315029,-0.032197,0.004221,-0.0040491638646268455,0.003106686068550024,-3.124715406989471
116.2907268170426,0.6089750752415052,0.5733600587893062,-20.035984,-2.316238,-0.028439,0.001598,-0.007400196028455958,0.0035255650890286816,-3.128485370533656
117.29323308270676,0.6089750720999125,0.5733596941900254,-20.038618,-2.316589,-0.0198,2.7e-05,-0.005619960191421741,0.004118977034706761,-3.1321679978020716
118.29573934837092,0.6089750727980443,0.5733593285435471,-20.03694,-2.318925,-0.008529,-0.006026,-0.011885692206081384,0.005585053606381951,-3.135379490892204
119.29824561403508,0.6089750745433735,0.5733589630716017,-20.031332,-2.32033,-0.002274,-0.007469,0.0038920842319473555,0.005393067388662631,-3.1373864624523646
120.30075187969925,0.608975075765104,0.5733585969015246,-20.023617,-2.323813,-0.003404,-0.010048,-0.009599310885968817,0.004956735075663854,-3.1367755274009963
121.3032581453634,0.6089750780340321,0.5733582302078488,-20.010698,-2.325988,-0.00127,-0.015331,-0.006265732014659643,0.004921828490624058,-3.135711068543498
122.30576441102757,0.608975082746421,0.5733578642123046,-19.993883,-2.328074,0.010256,-0.015938,-0.005270894341022876,0.004049163864626948,-3.1343496593670643
123.30827067669172,0.6089750885060076,0.5733574989148923,-19.984741,-2.327414,0.019538,-0.001394,-0.006248278722139699,0.0011693705988362613,-3.1323251123413365
124.31077694235589,0.6089750939165282,0.5733571339665456,-19.994761,-2.323954,0.0084,0.016144,0.0009948376736367678,0.0007853981633973994,-3.1278744529355804
125.31328320802004,0.6089750965345221,0.5733567691927319,-20.013189,-2.321696,-0.020646,0.014827,-0.0006457718232379017,0.0030717794835100065,-3.1229001947542265
126.3157894736842,0.6089750949637258,0.5733564045934513,-20.018932,-2.320003,-0.045621,-0.001561,0.002740166925631097,0.004991641660703872,-3.1204215828703
127.31829573934836,0.60897508745881,0.5733560492444155,-19.99789,-2.143964,0.026569,-0.063609,0.05424483315198377,0.027698375229149974,3.036733080143756
128.32080200501252,0.6089751368516279,0.5733557368304794,-19.922949,-1.822956,0.528616,-0.072485,-0.06974335690969341,0.016685347649065818,2.7289267958087438
129.32330827067668,0.6089752427931134,0.5733554818378757,-19.875986,-1.480723,0.963544,-0.035072,-0.02261946710584651,0.006073745796940422,2.4628514211553783
130.32581453634086,0.6089754168024398,0.5733552961348433,-19.857187,-1.124363,1.26431,-0.016178,-0.0347495054072071,0.008866272600131175,2.2278777963192593
131.328320802005,0.6089756798235582,0.5733551634898202,-19.85306,-0.773616,1.476881,0.00965,-0.043982297150257116,0.0023561944901924203,2.015523725855449
132.33082706766916,0.6089759770531297,0.5733550784922855,-19.862785,-0.439933,1.626246,0.004908,0.0046251225177849735,0.004066617157146846,1.8266615253240954
133.33333333333331,0.6089762960993169,0.5733550420149042,-19.859411,-0.123238,1.738342,-0.017122,-0.01085594794740473,0.0061959188445799285,1.652547653678066
134.3358395989975,0.6089766350422577,0.5733550528359456,-19.846205,0.178502,1.818969,-0.011637,-0.0008901179185171091,0.004694935687864721,1.495363213976994
135.33834586466165,0.608976986726102,0.5733551064175536,-19.83223,0.463458,1.869694,-0.009631,0.01223475805648025,0.005044001538263565,1.3529791837861267
136.3408521303258,0.6089773453912632,0.5733552029342611,-19.823442,0.730962,1.88666,-0.005702,0.0030717794835100195,0.0034208453339088507,1.2282056828275147
137.34335839598998,0.6089777066744184,0.5733553392444757,-19.82588,0.978575,1.880779,0.002808,0.018046704465621365,0.0026005405854716557,1.129507331080528
138.34586466165413,0.6089780681321065,0.5733555118575387,-19.833059,1.173281,1.877683,0.005949,0.014678219009272313,0.002373647782712318,1.0695726896604576
139.34837092731829,0.6089784285425971,0.5733557137921333,-19.83687,1.312888,1.89327,0.001924,0.023020892833805203,0.0001221730476397287,1.045871170778252
140.35087719298244,0.6089787934909436,0.5733559364961458,-19.837566,1.385439,1.939909,0.001265,0.013316862192716735,-0.0014137166941152746,1.0605667558135818
141.35338345864662,0.6089791668168707,0.5733561653088107,-19.839796,1.37849,2.014815,0.005928,0.023631758072003226,-0.003036872898469989,1.1107100128635012
142.35588972431077,0.6089795525346354,0.5733563873146916,-19.85042,1.299279,2.096502,0.015092,0.011152653920243767,-0.0040840704496667435,1.189878269907012
143.35839598997492,0.6089799520405011,0.5733565901219507,-19.865952,1.150776,2.170022,0.015429,0.013194689145077132,-0.003857177646907406,1.289204992544594
144.36090225563908,0.6089803623674083,0.573356764480343,-19.877115,0.95071,2.229246,0.008655,0.019512781037296607,-0.0052883476335428,1.399143212314547
145.36340852130326,0.6089807798501654,0.5733569027104197,-19.880394,0.722432,2.276444,0.00054,0.02642428487519415,-0.00909316540289029,1.5090814320844996
146.3659147869674,0.6089812036161077,0.5733570018451212,-19.881001,0.489819,2.310783,0.000696,0.02111848394913139,-0.011623892818282133,1.6106072521263022
147.36842105263156,0.6089816327925709,0.5733570615353816,-19.886042,0.270412,2.333344,0.009794,0.01806415775814131,-0.012775810124598497,1.6988336632679082
148.37092731829574,0.6089820682522191,0.57335708649359,-19.900593,0.078055,2.343196,0.018662,0.021258110289290928,-0.01244419756671955,1.7705318063931277
149.3734335839599,0.6089825070279931,0.5733570831774644,-19.924995,-0.076399,2.340541,0.027133,0.019093902016817963,-0.011047934165123952,1.8238166037367594
150.37593984962405,0.6089829449311024,0.5733570578701902,-19.952847,-0.194858,2.332226,0.025911,0.018378317023500287,-0.008045967851693758,1.8578506114171116
151.3784461152882,0.608983382310613,0.573357014062426,-19.973648,-0.276541,2.33298,0.014111,0.021537362969610025,-0.005794493116621169,1.8738901523363543
152.38095238095238,0.6089838200391894,0.5733569597826862,-19.979471,-0.323154,2.350899,-0.001197,0.012322024519079966,-0.005742133239061253,1.8747454334830018
153.38345864661653,0.6089842631782865,0.5733569000924258,-19.972025,-0.337649,2.38776,-0.011056,0.01356120828799594,-0.007452555906015679,1.8621964812545773
154.38596491228068,0.6089847157421615,0.5733568400530995,-19.959532,-0.32275,2.437682,-0.011147,-0.0026878070480712674,-0.009669124056048473,1.839507288245114
155.38847117794487,0.6089851794761437,0.5733567855988269,-19.952557,-0.260654,2.481871,-0.00409,-0.00752236907609556,-0.01382300767579503,1.8199595482628994
156.39097744360902,0.6089856309928212,0.5733567358569432,-19.969568,-0.34525,2.257599,0.019033,-0.02975786374650332,0.0026878070480713667,1.995173047150855
157.39348370927317,0.6089860177577835,0.5733566513830074,-19.955307,-0.652561,1.802149,-0.036822,0.09126326658678349,0.013892820845874843,2.3038170371669477
158.39598997493732,0.6089863141146905,0.5733565759847837,-19.931013,-0.901182,1.313199,-0.021011,0.0983667566424004,-0.006771877497737888,2.589422960309395
159.3984962406015,0.6089865048791777,0.5733564635855799,-19.91823,-1.041688,0.897736,-0.005562,0.10430087609918114,-0.0166678943565457,2.821953141646014
160.40100250626566,0.6089866113442621,0.5733563044115522,-19.907511,-1.143126,0.562737,-0.00836,0.03878121597931399,-0.01244419756671955,3.0147596117539504
161.4035087719298,0.6089866642277385,0.5733561220246453,-19.889473,-1.230028,0.281301,-0.017583,0.06422811647339131,-0.00715584993317675,-3.1045568715822287
162.406015037594,0.6089866752233127,0.5733559234061765,-19.872087,-1.291047,0.022714,-0.009193,0.006283185307179586,-0.0032463124087094286,-2.9595373593142646
163.40852130325814,0.6089866457272484,0.5733557144902649,-19.871086,-1.320409,-0.230607,0.007498,0.017400932642383467,0.0022514747350728115,-2.8296499389275547
164.4110275689223,0.6089865715507552,0.5733555012110303,-19.885639,-1.322427,-0.485895,0.016601,0.03375466773357034,0.005253441048503005,-2.714999260364047
165.41353383458645,0.6089864532174319,0.5733552886299275,-19.900562,-1.312753,-0.723094,0.007792,0.030124382889422128,0.0070162235930173456,-2.624503973554726
166.41604010025063,0.6089862933452723,0.5733550777941538,-19.898787,-1.307177,-0.912576,-0.014274,0.030298915814621557,0.007627088831215323,-2.5603979603158042
167.41854636591478,0.6089860994391926,0.5733548678310448,-19.878309,-1.318454,-1.049624,-0.023668,0.02345722514680379,0.004537856055185419,-2.523205046315682
168.42105263157893,0.6089858844146286,0.5733546542027445,-19.855904,-1.349554,-1.145856,-0.01913,0.017994344588061532,0.001378810109075479,-2.511092461306842
169.4235588972431,0.6089856566491613,0.5733544342912585,-19.842323,-1.400255,-1.210174,-0.009258,0.0136659280431156,-0.00026179938779913314,-2.525177390543484
170.42606516290726,0.608985421553311,0.5733542051295278,-19.836349,-1.471555,-1.230817,-0.004656,0.012130038301360588,-0.0019722220547535585,-2.5620211514267437
171.42857142857142,0.6089851861083949,0.5733539646231569,-19.835066,-1.559609,-1.201221,0.002158,-0.002740166925631098,-0.003909537524467321,-2.618360327321243
172.43107769423557,0.608984962008119,0.5733537105032178,-19.841341,-1.658175,-1.122635,0.011616,0.005445427266222309,-0.006195918844579706,-2.6889764361233968
173.43358395989975,0.6089847574555306,0.5733534405007825,-19.850063,-1.7563,-1.001888,0.008663,-0.010088003076527224,-0.006998770300497226,-2.768354080317269
174.4360902255639,0.6089845836207372,0.5733531554885156,-19.853706,-1.843378,-0.842549,0.004139,-0.009581857593448873,-0.008988445647770682,-2.8518854685045474
175.43859649122805,0.608984443994397,0.5733528580844112,-19.856581,-1.919033,-0.662239,0.006031,-0.002024581932313422,-0.010908307824964547,-2.932729189270095
176.44110275689223,0.6089843403218393,0.5733525484630018,-19.866535,-1.982315,-0.487221,0.017236,-0.008970992355250855,-0.012304571226559924,-3.0056316270324825
177.4436090225564,0.6089842708577352,0.5733522297658804,-19.887371,-2.032488,-0.328323,0.02365,-0.007295476273336299,-0.01155407964820232,-3.0684981947031007
178.44611528822054,0.6089842296679648,0.5733519033893103,-19.912712,-2.0674,-0.19301,0.027063,-0.011676252695842066,-0.010314895879286468,-3.1207709977865488
179.4486215538847,0.6089842136109358,0.5733515728239499,-19.937452,-2.092738,-0.076041,0.023072,-0.009599310885968817,-0.007853981633974438,3.1212770036432866
180.45112781954887,0.6089842171015943,0.5733512375462007,-19.956408,-2.117171,0.022237,0.014801,-0.011519173063162576,-0.005410520681182307,3.090698852601639
181.45363408521303,0.6089842382200781,0.5733508987777929,-19.967386,-2.142704,0.095783,0.005587,-0.00752236907609556,-0.00420624349730625,3.072006376312779
182.45614035087718,0.608984269112406,0.5733505552969961,-19.969717,-2.168025,0.142072,-0.002759,-0.013212142437597076,-0.004712388980384619,3.064588674631926
183.45864661654133,0.6089843071605836,0.5733502088491395,-19.96822,-2.188805,0.172376,-0.003249,-0.006283185307179587,-0.005427973973702205,3.065094942288052
184.4611528822055,0.608984348350354,0.5733498587360916,-19.97179,-2.204716,0.182336,0.008443,-0.01647590813882647,-0.007086036763096937,3.0727744433567046
185.46365914786966,0.6089843883183939,0.5733495072267804,-19.989117,-2.218851,0.161035,0.018968,-0.0013439035240356337,-0.005777039824101271,3.08719067099196
186.46616541353382,0.6089844225268471,0.5733491539721396,-20.00802,-2.230419,0.115271,0.012522,0.0029321531433504737,-0.002757620218150958,3.106162487227601
187.468671679198,0.6089844441689299,0.5733487991467027,-20.016808,-2.237126,0.060762,0.001535,-0.0005934119456780719,-0.0018151424220740342,3.1255356593780306
188.47117794486215,0.6089844569098335,0.5733484444957988,-20.009674,-2.223197,0.037253,-0.018071,-0.08522442737488312,-0.007714355293814812,-3.1282933668626445
189.4736842105263,0.6089844508011811,0.5733481097416482,-20.014757,-1.948613,-0.188099,-0.005425,-0.1154884366044648,0.018971728969178425,-2.9161137246042785
190.47619047619045,0.6089843715632329,0.5733478269983094,-19.962303,-1.631424,-0.660931,-0.080326,0.18914133103862546,0.021066124071571712,-2.623055210649231
191.47869674185463,0.6089842731266633,0.573347608308554,-19.916199,-1.274572,-0.996944,-0.016576,0.03839724354387526,-0.01117010721276368,-2.382653786372334
192.4812030075188,0.6089840872490979,0.5733474512289214,-19.906763,-0.934812,-1.241095,-0.015707,0.05227261109723018,0.005724679946541356,-2.1649587465980336
193.48370927318294,0.6089838308602308,0.5733473440657053,-19.891867,-0.618617,-1.439846,-0.000444,0.07944738755078187,-0.0030019663134301933,-1.971768251694782
194.48621553884712,0.6089835495131554,0.5733472780922596,-19.892733,-0.323051,-1.574933,0.005229,0.023247785636564475,0.0009948376736368392,-1.7957173263784265
195.48872180451127,0.6089832419861412,0.5733472557520453,-19.891102,-0.045045,-1.680649,-0.003275,0.05129522671611335,0.004066617157146846,-1.6353209921614946
196.49122807017542,0.6089829189256967,0.5733472732053377,-19.885397,0.224079,-1.748201,-0.003063,0.03885102914939377,0.0029845130209102955,-1.4885563077211688
197.49373433583958,0.6089825846951449,0.573347330975736,-19.882511,0.488461,-1.784388,0.000876,0.029810223624063145,0.003298672286269344,-1.3562776291795935
198.49624060150376,0.6089822459267371,0.5733474281905753,-19.886993,0.738668,-1.799053,0.006434,0.043528511544738586,0.003769911184307917,-1.2422900884653807
199.4987468671679,0.6089819045403353,0.5733475632790594,-19.896271,0.957228,-1.811965,0.008926,0.03735004599267865,0.004433136300065588,-1.1599802911281583
200.50125313283206,0.6089815610595386,0.5733477306561346,-19.903818,1.128428,-1.827994,0.006333,0.03155555287605748,0.004642575810305027,-1.1091043274049588
201.50375939849624,0.608981214960748,0.5733479247367474,-19.908474,1.245696,-1.85937,0.003045,0.021938788697568722,0.005480333851262342,-1.0909532871566543
202.5062656641604,0.6089808615315743,0.5733481336526589,-19.911169,1.308149,-1.917564,-0.001589,0.02001892652037496,0.008499753457212433,-1.106172191714902
203.50877192982455,0.608980496234162,0.5733483485026899,-19.907778,1.310523,-2.002416,-0.00672,0.01403244718603441,0.00883136601509138,-1.1529990788399362
204.5112781954887,0.6089801150542532,0.5733485589893976,-19.895519,1.244725,-2.094509,-0.01665,0.0012391837689159745,0.007278022980816479,-1.2254482545955814
205.51378446115288,0.6089797200862436,0.5733487527209447,-19.874987,1.108576,-2.175937,-0.019359,0.004904375198104068,0.0033335788713091397,-1.3171126502043509
206.51629072681703,0.6089793134245278,0.5733489195744211,-19.85862,0.91672,-2.241521,-0.005539,-0.002583087292951607,-0.002129301687433083,-1.4198430266827107
207.51879699248119,0.6089788975125672,0.5733490532666418,-19.862785,0.7044,-2.293967,0.015539,-0.00354301838154849,-0.005410520681182307,-1.522590455027861
208.52130325814534,0.6089784747938223,0.5733491494342835,-19.883593,0.492778,-2.332902,0.022971,-0.003036872898470133,-0.004660029102824703,-1.6188275085571004
209.52380952380952,0.608978046140958,0.5733492091245439,-19.903204,0.285659,-2.353264,0.018407,-0.004031710572106901,-0.0035081117965085618,-1.7039826114540948
210.52631578947367,0.6089776122521059,0.5733492354790157,-19.912317,0.088605,-2.356307,0.003899,-0.0013962634015954637,-0.0025307274153916204,-1.7747731659149841
211.52882205513782,0.6089771790613855,0.5733492319883572,-19.910313,-0.082406,-2.348936,-0.005208,-0.006073745796940267,-0.0032463124087094286,-1.8277785884052493
212.531328320802,0.6089767481395932,0.5733492042376221,-19.908707,-0.20357,-2.343357,0.003687,0.001082104136236485,-0.004694935687864721,-1.8600848597524666
213.53383458646616,0.6089763149488729,0.5733491586845286,-19.918686,-0.276758,-2.353814,0.017772,-0.0021467549799530257,-0.005305800926062698,-1.8735759058045327
214.5363408521303,0.6089758758240331,0.5733491031830584,-19.941216,-0.314204,-2.382219,0.024205,0.0013962634015954637,-0.004241150082346268,-1.8722672230248023
215.53884711779446,0.6089754297178762,0.573349045761726,-19.962734,-0.323592,-2.417309,0.016479,-0.0052708943410228765,-0.002565634000431638,-1.8593690129597615
216.54135338345864,0.6089749757577378,0.5733489895621241,-19.972273,-0.304146,-2.446805,0.001056,0.003665191429188092,-0.001745329251994221,-1.8369414622584652
217.5438596491228,0.6089745172597434,0.5733489392966415,-19.96969,-0.238272,-2.467541,-0.005056,-0.006928957130417488,-0.0026005405854714336,-1.8141123112962838
218.54636591478695,0.6089740732479816,0.573348896536075,-19.967157,-0.318367,-2.244056,0.001404,0.05061454830783556,0.008604473212332042,-1.9889594830275379
219.54887218045113,0.6089736959077974,0.5733488138074684,-19.9394,-0.668647,-1.799881,-0.031215,-0.04358087142229841,0.018465583486100057,-2.2996108460295184
220.55137844611528,0.6089734018198184,0.5733487338713887,-19.910393,-0.957699,-1.368311,-0.008877,-0.03277728335245351,0.00549778714378224,-2.568374132450711
221.55388471177943,0.6089732061684092,0.5733486080331496,-19.900103,-1.144724,-0.982546,-0.01838,-0.009407324668249437,0.009354964790689646,-2.7918112181976094
222.55639097744358,0.6089730873114871,0.5733484226791831,-19.883238,-1.27394,-0.63915,-0.015928,-0.056618480934696055,0.0051836278784231915,-2.9854382024934933
223.55889724310777,0.6089730216871073,0.5733482153340679,-19.871136,-1.367701,-0.325408,-0.011101,0.018291050560900576,0.005393067388662631,3.1324122042710103
224.56140350877192,0.6089730059791439,0.5733479936772529,-19.845438,-1.429863,-0.02139,-0.033543,-0.0020943951023931952,0.008133234314293691,2.985158565840739
225.56390977443607,0.6089730442018547,0.5733477624211271,-19.818541,-1.458472,0.265675,-0.023411,0.0032637657012293967,0.005009094953223769,2.85558567123853
226.56641604010025,0.608973129897521,0.5733475262780792,-19.808779,-1.46456,0.52975,-0.001139,0.01567305668290908,0.0027925268031909756,2.7446349161563255
227.5689223057644,0.6089732607972148,0.5733472892623668,-19.816509,-1.460211,0.747343,0.012569,0.008883725892651139,0.0027227136331111623,2.6626044936724695
228.57142857142856,0.6089734279997572,0.5733470534683849,-19.83219,-1.453996,0.918334,0.01729,0.017959438003021654,0.0013962634015955988,2.607486908628026
229.5739348370927,0.6089736240002321,0.5733468183725347,-19.846985,-1.462054,1.045104,0.010171,0.020350539078253873,0.0021816615649929982,2.580574071188613
230.5764411027569,0.6089738379775984,0.5733465806586905,-19.853588,-1.49734,1.122834,0.002556,0.015655603390389135,0.0016057029118348165,2.582162111368418
231.57894736842104,0.6089740619033415,0.5733463361380623,-19.852102,-1.557127,1.150719,-0.004052,0.017470745812463235,-0.00041887902047865744,2.608551646738205
232.5814536340852,0.6089742868762821,0.5733460820181232,-19.848516,-1.63211,1.132214,-0.003317,0.013439035240356336,-0.002565634000431638,2.6557804133768044
233.58395989974937,0.6089745032971092,0.5733458148082147,-19.847277,-1.713075,1.064407,0.000496,0.013473941825396223,-0.00439822971502557,2.719502122567729
234.58646616541353,0.6089747003447818,0.5733455352064686,-19.851551,-1.788825,0.952502,0.007103,0.012496557444279398,-0.005724679946541356,2.7931201627767277
235.58897243107768,0.6089748705143839,0.5733452453072798,-19.862659,-1.853241,0.805493,0.013425,0.009128071987930341,-0.006318091892219435,2.8716426654502927
236.59147869674183,0.6089750089189936,0.5733449459833131,-19.881958,-1.908844,0.637708,0.023785,0.023788837704682715,-0.008011061266653963,2.9489430362217335
237.593984962406,0.6089751132896829,0.5733446375836343,-19.907227,-1.95648,0.465767,0.026612,0.015969762655748117,-0.007609635538695203,3.0204318794630542
238.59649122807016,0.608975183277386,0.5733443222026384,-19.932304,-1.997418,0.305698,0.022508,0.015219271077390554,-0.006544984694978773,3.082251563741741
239.59899749373432,0.6089752232454257,0.5733440007129902,-19.95167,-2.031464,0.167299,0.013717,0.01673770752662562,-0.004572762640224992,3.132534185332432
240.6015037593985,0.6089752375571257,0.5733436736382884,-19.959379,-2.057316,0.055261,0.001353,0.0171740398396242,-0.0034557519189486463,-3.1122536688637688
241.60401002506265,0.6089752338919342,0.5733433423747963,-19.959225,-2.076949,-0.026177,-0.001365,0.011641346110802179,-0.0036302848441480684,-3.0853408314243564
242.6065162907268,0.6089752171367734,0.5733430097150409,-19.962013,-2.095245,-0.089188,0.007648,0.01085594794740473,-0.004886921905584041,-3.068079280776037
243.60902255639095,0.6089751907823018,0.573342673390094,-19.974789,-2.117864,-0.138494,0.014573,0.00986111027376796,-0.005026548245743667,-3.0582008219295047
244.61152882205513,0.6089751576210459,0.5733423328763569,-19.991127,-2.143542,-0.167272,0.013168,0.005288347633542818,-0.0036128315516281706,-3.0562111814888158
245.6140350877193,0.6089751214927304,0.5733419888719614,-20.001953,-2.167114,-0.17248,0.007475,0.004241150082346221,-0.0023561944901921983,-3.061028307677613
246.61654135338344,0.6089750853644149,0.5733416412023745,-20.008881,-2.185356,-0.159497,0.007521,-0.00020943951023931958,-0.001640609496874612,-3.070819674594471
247.6190476190476,0.6089750532503567,0.5733412910893264,-20.019854,-2.199027,-0.140242,0.016594,-0.0036826447217080355,-0.0016929693744345276,-3.084293406980357
248.62155388471177,0.6089750281176154,0.5733409394054823,-20.036232,-2.214083,-0.115419,0.01547,-0.0020245819323134223,0.0005585053606382839,-3.100891557979993
249.62406015037593,0.6089750083953948,0.5733405858017757,-20.045994,-2.216713,-0.100804,0.007745,0.04436626958569585,0.007539822368615612,-3.123894875348231
250.62656641604008,0.6089750003668803,0.5733402498258947,-20.019627,-1.986206,0.123555,-0.067636,0.018849555921538756,0.03202679177409595,2.952939910021971
251.62907268170426,0.6089750691328528,0.5733399585304425,-19.955614,-1.672033,0.625721,-0.047134,-0.05984734005088555,0.015097098029751121,2.654122053881437
252.6315789473684,0.6089751586682435,0.5733397316376398,-19.9118,-1.338314,1.00919,-0.041118,-0.028204520712228367,0.011152653920243782,2.402567853511249
253.63408521303256,0.6089753504799282,0.573339563213367,-19.884153,-0.998991,1.289819,-0.025121,-0.03553490357060454,0.009040805525330597,2.178956322105613
254.63659147869672,0.60897561489731,0.5733394436583132,-19.876453,-0.672033,1.49081,0.006945,-0.02483603525587931,0.007819075048934643,1.9776850051255048
255.6390977443609,0.6089759124759474,0.5733393696563529,-19.883608,-0.357627,1.634645,0.003793,0.015132004614790837,0.012269664641520128,1.793133785299869
256.64160401002505,0.6089762318712005,0.5733393419056179,-19.88496,-0.05127,1.737244,-0.006688,-0.011292280260403314,0.013508848410436203,1.6238892426405644
257.64411027568923,0.6089765671489498,0.5733393588353115,-19.877182,0.244175,1.808831,-0.010297,0.012932889757277978,0.012810716709638514,1.4704224589659953
258.64661654135335,0.6089769137713392,0.5733394188746378,-19.857422,0.523373,1.857206,-0.023588,0.01513200461479084,0.012217304763960435,1.332907862481607
259.64912280701753,0.6089772703421054,0.5733395218490638,-19.834255,0.788625,1.882714,-0.022483,3.4906585039885997e-05,0.009040805525330597,1.2120438990474618
260.6516290726817,0.6089776319743264,0.5733396646169965,-19.824568,1.027201,1.892681,-0.002909,0.014678219009272311,0.006632251157578484,1.1211994765745723
261.65413533834584,0.6089779944792121,0.5733398414188497,-19.832083,1.212071,1.898214,0.014296,0.013351768777756623,0.006405358354819146,1.0663961380619504
262.65664160401,0.6089783580312953,0.573340046320504,-19.851282,1.341334,1.909924,0.021421,0.015376350710070043,0.005899212871741,1.0479655484273527
263.65914786967414,0.608978722630576,0.5733402691990495,-19.870617,1.400101,1.944014,0.012837,0.013299408900196789,0.00609119908946032,1.068508038816741
264.6616541353383,0.6089790929894433,0.573340496440918,-19.877354,1.382026,2.005726,-0.000803,0.014852751934471746,0.0055501470213419335,1.1242887442571874
265.6641604010025,0.6089794727730885,0.5733407160033379,-19.869299,1.286941,2.089171,-0.01335,0.012199851471440362,0.0031415926535898198,1.2076980117567038
266.66666666666663,0.6089798679156312,0.5733409151454056,-19.854244,1.125923,2.1787,-0.015458,0.013508848410436113,0.00024434609527923534,1.31035834817218
267.6691729323308,0.6089802778934725,0.573341082347948,-19.84103,0.917663,2.256765,-0.008065,0.024469516112960495,-0.0031415926535898198,1.4202093538394105
268.671679197995,0.6089807000886185,0.5733412127240431,-19.839748,0.689805,2.307659,0.008496,0.02439970294288073,-0.007976154681613945,1.5283499368396871
269.6741854636591,0.6089811303122792,0.5733413036556971,-19.856224,0.460742,2.326974,0.021569,0.022881266493645656,-0.009389871375729442,1.6280605446462455
270.6766917293233,0.6089815622812691,0.573341357586371,-19.884468,0.246062,2.324985,0.030376,0.018692476288859273,-0.00970403064108849,1.7124473361532193
271.6791979949875,0.6089819919813309,0.5733413780067232,-19.918264,0.061238,2.313415,0.031923,0.02012364627549462,-0.008150687606813367,1.7797297090044304
272.6817042606516,0.6089824190633988,0.5733413698036758,-19.948524,-0.086536,2.307031,0.026384,0.02195624199008866,-0.006579891280018568,1.8268884355801471
273.6842105263158,0.6089828468435985,0.5733413399585455,-19.969572,-0.191935,2.315101,0.015363,0.023527038316883568,-0.003560471674068477,1.855319796735257
274.68671679197996,0.608983279859786,0.5733412949290508,-19.976023,-0.262467,2.337361,-0.000215,0.021624629432209747,-0.0013089969389956657,1.8675371887656798
275.6892230576441,0.6089837193336917,0.5733412404747782,-19.971682,-0.301531,2.369171,-0.00351,0.01960004749989632,-0.0031415926535898198,1.8661933550548147
276.69172932330827,0.6089841652653154,0.5733411816571824,-19.967758,-0.311152,2.407819,-0.000799,0.011327186845443198,-0.005323254218582596,1.85214345457626
277.6942355889724,0.6089846209707831,0.5733411254575805,-19.971949,-0.291511,2.449865,0.009168,0.005689773361501515,-0.006370451769779351,1.8278833779735386
278.69674185463657,0.6089850831339692,0.573341073097703,-19.985594,-0.246465,2.481669,0.009753,0.012531464029319284,-0.008709192967451651,1.8191916208453145
279.69924812030075,0.6089855341270478,0.5733410240539508,-20.020781,-0.321535,2.27824,0.040536,-0.07120943348136864,0.007138396640656852,1.9759745824585502
280.7017543859649,0.6089859245572015,0.573340949004793,-20.015049,-0.622681,1.852021,-0.036709,0.13651965409099648,0.021258110289291032,2.274757427294289
281.70426065162906,0.6089862275463596,0.573340869592312,-19.984879,-0.893562,1.375292,-0.018295,0.10204940136410844,-0.0030717794835100065,2.555685501522249
282.70676691729324,0.608986427212026,0.5733407571931083,-19.962168,-1.038759,0.960132,-0.029531,0.0711570736038088,-0.0030717794835100065,2.7928234742571814
283.70927318295736,0.6089865415310921,0.5733405936557574,-19.936644,-1.154547,0.60979,-0.024035,0.03584906283596353,-0.0021467549799529806,2.9912327130634067
284.71177944862154,0.608986604712011,0.5733404100471201,-19.912348,-1.239078,0.316037,-0.029316,0.05096361415823442,0.0015009831567152077,-3.123685558011039
285.7142857142857,0.6089866197218425,0.5733402089851902,-19.891121,-1.302317,0.049213,-0.016812,0.01607448241086778,0.0029845130209102955,-2.977008227299776
286.71679197994985,0.6089865919711074,0.5733399965786202,-19.883194,-1.336866,-0.206911,-0.004129,0.028099800957108702,0.007086036763096937,-2.8463527573224328
287.719298245614,0.6089865186672788,0.5733397773652662,-19.886358,-1.344615,-0.462723,0.005854,0.0299498499642227,0.008168140899333487,-2.7307771589751235
288.72180451127815,0.6089864008575544,0.573339558326445,-19.894436,-1.337186,-0.698192,0.004315,0.031084313978019005,0.01048942880448589,-2.64171305960573
289.72431077694233,0.6089862420325924,0.5733393410329531,-19.891314,-1.328703,-0.888209,-0.009903,0.0208392312688123,0.010279989294246672,-2.5782701667628105
290.7268170426065,0.6089860496973089,0.5733391263574553,-19.874897,-1.332548,-1.028296,-0.01975,0.028763026072866547,0.008203047484373505,-2.5416706123484905
291.72932330827064,0.6089858353708767,0.5733389092384963,-19.854668,-1.365042,-1.121625,-0.017766,0.02183406894244906,0.005393067388662631,-2.5307971936552724
292.7318295739348,0.6089856088271398,0.5733386846146216,-19.840385,-1.423104,-1.180336,-0.012189,0.014538592669112763,0.0036477381366681882,-2.5456323352175922
293.734335839599,0.6089853768728822,0.5733384500423702,-19.833042,-1.503309,-1.193402,-0.007121,0.013124875974997358,0.0015184364492351055,-2.5824065970900376
294.7368421052631,0.6089851470130196,0.5733382018565504,-19.83107,-1.594254,-1.1569,-0.000858,0.002932153143350474,-0.00013962634015940445,-2.638396881667063
295.7393483709273,0.6089849312903242,0.5733379390099651,-19.8333,-1.689004,-1.067395,0.00464,-0.005724679946541401,-0.002286381320112607,-2.7084020728711407
296.7418546365915,0.6089847361625138,0.5733376613280811,-19.840675,-1.779805,-0.943134,0.007034,-0.011588986233242348,-0.003385938748868833,-2.785213768905316
297.7443609022556,0.608984570007169,0.5733373716034252,-19.850037,-1.859729,-0.798167,0.009795,-0.008464846872172497,-0.0048171087355042275,-2.863125336527513
298.7468671679198,0.6089844335224215,0.573337071406794,-19.859909,-1.929191,-0.641182,0.006672,-0.0049567350756638965,-0.005969026041820591,-2.938959909979959
299.74937343358397,0.6089843305479956,0.573336758469259,-19.867016,-1.989434,-0.476583,0.004822,-0.014067353771074298,-0.00753982236861539,-3.009610925367152
300.7518796992481,0.6089842589894964,0.5733364362814791,-19.873699,-2.037641,-0.309663,0.009325,-0.00815068760681352,-0.009058258817850495,-3.072093468242454
301.7543859649123,0.6089842186723905,0.573336107635981,-19.887194,-2.07378,-0.160386,0.017127,-0.01075122819228507,-0.008726646259971549,-3.124034693674608
302.7568922305764,0.6089842057569541,0.5733357737544951,-19.911047,-2.102422,-0.038982,0.025785,-0.01101302758008422,-0.006981317007977328,3.1200902844716856
303.7593984962406,0.6089842134364029,0.573335435509686,-19.93936,-2.124815,0.04721,0.025236,-0.01033234917180643,-0.004136430327226437,3.093107406969391
304.76190476190476,0.6089842350784855,0.5733350942978173,-19.961788,-2.144152,0.106313,0.0149,-0.010803588069844898,-0.002094395102393065,3.0766141851643845
305.7644110275689,0.6089842652726816,0.5733347508170205,-19.971588,-2.162604,0.146749,0.002068,-0.008360127117052836,-0.0018500490071138298,3.069458265418038
306.76691729323306,0.6089842989575361,0.5733344047182298,-19.971121,-2.182909,0.171055,-0.004726,-0.011484266478122687,-0.002670353755551247,3.0696153974105944
307.76942355889724,0.6089843356094504,0.5733340551287807,-19.96789,-2.206749,0.174899,-0.004531,-0.0038920842319473546,-0.004310963252425859,3.0775215294826186
308.77192982456137,0.6089843715632329,0.573333702048673,-19.966045,-2.227158,0.161244,-0.002442,-0.004817108735504351,-0.0058293997016609644,3.090751037946273
309.77443609022555,0.6089844047244888,0.5733333451288409,-19.969362,-2.239458,0.138572,0.006496,-0.008674286382411816,-0.006911503837897515,3.10630204375459
310.77694235588973,0.6089844305553618,0.5733329868127455,-19.985052,-2.242814,0.101236,0.022089,-0.013124875974997358,-0.006091199089460098,3.1234759614211667
311.77944862155385,0.608984446437858,0.5733326373978292,-20.015512,-2.088961,0.007983,0.040297,-0.00923279174305,-0.0001570796326795243,-3.042789651900857
312.78195488721803,0.6089844106586082,0.5733323295217492,-20.019623,-1.775735,-0.455404,-0.037497,0.02696533694331239,0.026825710603152864,-2.7472354916483823
313.7844611528822,0.6089843115239069,0.5733320764490076,-19.965492,-1.441507,-0.874935,-0.061752,0.0645771823237902,0.010000736613927641,-2.484388941204621
314.78696741854634,0.6089841607274594,0.5733318924913045,-19.909838,-1.094613,-1.146108,-0.053509,0.01876228945893904,0.008325220532013011,-2.2565888115804165
315.7894736842105,0.608983923537214,0.5733317594972155,-19.86515,-0.774255,-1.34793,-0.03217,0.09370672753957557,-0.0005061454830783685,-2.0549853758969463
316.79197994987464,0.6089836542329105,0.5733316704854237,-19.861099,-0.471191,-1.505276,0.011289,0.013578661580515884,-0.0022514747350725894,-1.874361530860733
317.7944862155388,0.6089833575269377,0.5733316235360667,-19.875912,-0.183405,-1.641513,0.009348,0.04883431247080134,0.004153883619746557,-1.7093925561766243
318.796992481203,0.6089830360372894,0.5733316207435399,-19.878002,0.09604,-1.732396,-0.01027,0.04944517770899935,0.0034557519189488684,-1.5591029175125073
319.79949874686713,0.6089827016322048,0.5733316579190529,-19.864986,0.366685,-1.774474,-0.018758,0.0277332818141899,0.0027750735106710778,-1.4222862083828212
320.8020050125313,0.6089823612930007,0.5733317361098035,-19.85161,0.616441,-1.790502,-0.007875,0.04143411644234538,-0.0001570796326795243,-1.303341984952823
321.8045112781955,0.6089820195575331,0.5733318507779354,-19.855021,0.835383,-1.807341,0.010664,0.03787364476827695,-0.0016057029118348165,-1.210804593105499
322.8070175438596,0.6089816746804729,0.5733319987818559,-19.873007,1.018309,-1.834246,0.019332,0.028379053637427792,-0.0007679448708775016,-1.1470298782651904
323.8095238095238,0.6089813245674248,0.5733321764563737,-19.88909,1.166824,-1.866466,0.010532,0.01907644872429802,0.0014311699866353944,-1.1129089182815044
324.812030075188,0.6089809669494611,0.5733323743767109,-19.892498,1.266672,-1.905228,-0.002418,0.01898918226169831,0.0044505895925857075,-1.111548050157139
325.8145363408521,0.6089806014775159,0.5733325839907542,-19.884348,1.296257,-1.964116,-0.007797,0.011955505376161158,0.004310963252426081,-1.1450932260205928
326.8170426065163,0.6089802251845291,0.573332792208534,-19.880373,1.248549,-2.045764,0.000876,0.0024958208303518916,0.0026354471705114513,-1.207471380753333
327.8195488721804,0.6089798359761059,0.5733329885580748,-19.885546,1.133686,-2.14182,0.006875,-0.0074176493209759,0.0005061454830783685,-1.2917881321974234
328.8220551378446,0.6089794310597194,0.5733331616947365,-19.890495,0.974678,-2.229052,-0.004163,-0.008045967851693859,0.0004886921905584707,-1.3865593709543762
329.82456140350877,0.6089790127042978,0.573333305160801,-19.880943,0.782552,-2.285249,-0.016873,-0.014538592669112765,-0.0012391837689158525,-1.4862526825480464
330.8270676691729,0.6089785859712956,0.5733334133712147,-19.86989,0.56663,-2.314753,-0.003943,-0.019128808601857852,-0.006056292504420302,-1.5836418104632346
331.8295739348371,0.6089781566202996,0.5733334858023786,-19.878511,0.349289,-2.337136,0.015315,-0.008831366015091309,-0.007714355293814812,-1.6716939155724442
332.83208020050125,0.608977721858783,0.5733335231524246,-19.898788,0.154562,-2.355519,0.01605,-0.011187560505283654,-0.005864306286700982,-1.7443870185443482
333.8345864661654,0.6089772846538053,0.5733335299592086,-19.910385,-0.008556,-2.357424,0.004209,-0.009983283321407565,-0.004031710572106828,-1.8003245941779638
334.83709273182956,0.6089768481469594,0.5733335123313832,-19.916616,-0.138979,-2.351917,0.007683,-0.011501719770642635,-0.003560471674068477,-1.8390357700943947
335.83959899749374,0.608976410418383,0.5733334763776007,-19.929974,-0.23351,-2.36121,0.013353,-0.01127482696788337,-0.002583087292951536,-1.86087022300928
336.84210526315786,0.6089759683264835,0.5733334271593158,-19.942638,-0.289486,-2.380352,0.004457,-0.009721483933608414,-0.0014311699866353944,-1.8655304964582
337.84461152882204,0.608975521347662,0.5733333709597138,-19.942451,-0.305034,-2.399598,-0.006532,-0.007871434926494428,-0.0019896753472734563,-1.8572225023259041
338.8471177944862,0.6089750705291163,0.5733333152837108,-19.93885,-0.292011,-2.421244,0.000449,-0.0038222710618675813,-0.00548033385126212,-1.8376397335856025
339.84962406015035,0.6089746143000497,0.5733332639710307,-19.947092,-0.253688,-2.456861,0.012866,-0.003560471674068433,-0.006841690667817701,-1.8101681638927483
340.8521303258145,0.6089741596417797,0.5733332208613983,-19.9545,-0.173104,-2.352399,0.015002,-0.0633729051399141,-0.014067353771074265,-1.7306685560907475
341.85463659147865,0.6089737377956994,0.5733332149272787,-19.955349,0.213508,-2.144446,-0.048194,0.010070549784007279,0.024452062820440545,-1.4684675505774218
342.85714285714283,0.6089733627244431,0.5733332782827305,-19.891245,0.693372,-1.866998,-0.055885,0.1619316480000339,-0.0058293997016609644,-1.1751651094061144
343.859649122807,0.6089730604334167,0.5733333821298211,-19.867714,1.107072,-1.611277,0.00852,0.08066911802717791,-0.025150194521238234,-0.9471553657387457
344.86215538847114,0.6089727883365864,0.573333564342195,-19.88772,1.3882,-1.521234,0.028484,0.09902998175815825,-0.01764527873766264,-0.8589291116767719
345.8646616541353,0.6089725179850852,0.5733337971691171,-19.904839,1.553047,-1.522809,0.007014,-0.005602506898901799,-0.003560471674068477,-0.8391018746681438
346.8671679197995,0.6089722486807816,0.5733340701386122,-19.892494,1.625238,-1.499059,-0.027709,-0.006911503837897546,0.006178465552060031,-0.8332897886326622
347.8696741854636,0.6089719785038133,0.5733343422354426,-19.852997,1.642354,-1.449767,-0.046812,-0.0019373154697137054,0.009389871375729664,-0.8303054501446774
348.8721804511278,0.6089717107703062,0.5733346082236206,-19.810329,1.647171,-1.413088,-0.036002,-0.0024958208303518916,0.005846852994181084,-0.8311779053311653
349.874686716792,0.6089714535087744,0.5733348675795474,-19.785767,1.641943,-1.395446,-0.014787,-0.0018849555921538756,0.0002967059728391508,-0.8358208651139044
350.8771929824561,0.6089711983416378,0.5733351237938816,-19.779331,1.632516,-1.388224,-0.003466,-0.014870205226991687,-0.002949606435870278,-0.8400440906648331
351.8796992481203,0.6089709443962316,0.5733353784374194,-19.77467,1.616538,-1.377249,-0.010887,-0.01228711793404008,-0.0052708943410229026,-0.8437448344508838
352.88220551378447,0.6089706907998913,0.5733356301138977,-19.757929,1.59816,-1.352611,-0.023695,-0.008970992355250855,-0.008866272600131175,-0.8460133086928707
353.8847117794486,0.6089704424395388,0.5733358784742503,-19.733528,1.581688,-1.318021,-0.021322,-0.0020594885173533094,-0.015149457907310815,-0.8474274442660069
354.8872180451128,0.608970201584102,0.5733361235184772,-19.721666,1.568323,-1.292691,0.0016,-0.006911503837897545,-0.022671826983406307,-0.8497832722370566
355.8897243107769,0.6089699635211919,0.5733363664683091,-19.737125,1.554887,-1.286004,0.027552,-0.009337511498169665,-0.027070056698431877,-0.8536054560324619
356.8922305764411,0.6089697265054796,0.5733366076728117,-19.770802,1.538438,-1.286303,0.034999,-0.010541788682045753,-0.025743606466916313,-0.8573754195766469
357.89473684210526,0.6089694900133659,0.5733368464338534,-19.799568,1.519847,-1.277161,0.020255,-0.008604473212332046,-0.02223549467040775,-0.8591730563463237
358.8972431077694,0.6089692554411145,0.5733370825769011,-19.811914,1.504782,-1.249889,0.006323,-0.009058258817850573,-0.021031217486531695,-0.8602553524687774
359.89974937343356,0.6089690264539166,0.5733373159274221,-19.815908,1.489738,-1.220035,0.005324,-0.007400196028455954,-0.022218041377887854,-0.8630479490851386
360.90225563909775,0.6089688027027065,0.5733375461363505,-19.827734,1.473967,-1.201175,0.019972,-0.0062308254296197544,-0.02452187599052036,-0.867201413825865
361.90476190476187,0.6089685813949574,0.5733377737272849,-19.857153,1.456326,-1.195808,0.037722,-0.008936085770210973,-0.024260076602721004,-0.8716526317369812
362.90726817042605,0.608968360436274,0.5733379974784951,-19.9,1.439254,-1.196331,0.043873,-0.005462880558742251,-0.02066469834361273,-0.8750731803649165
363.90977443609023,0.6089681389539919,0.5733382207061064,-19.939085,1.424963,-1.190896,0.031035,-0.008953539062730912,-0.014538592669112615,-0.8771153028562132
364.91228070175436,0.608967919566105,0.5733384418393226,-19.956648,1.41013,-1.170558,0.005465,-0.007208209810736581,-0.00930260491312973,-0.8778657769812777
365.91478696741854,0.6089677041924753,0.5733386610526766,-19.953852,1.391725,-1.144164,-0.007757,-0.0045204027626653135,-0.007592182246175305,-0.8785992166928439
366.91729323308266,0.6089674919604382,0.5733388762517734,-19.948664,1.376092,-1.125727,5.1e-05,0.00022689280275926257,-0.009232791743049917,-0.8805880542820762
367.91979949874684,0.6089672889786463,0.5733390888328763,-19.957563,1.33607,-1.073567,0.015632,0.05242969072990966,-0.010227629416686757,-0.9409246450288803
368.922305764411,0.608967081982597,0.5733392898948061,-19.976753,1.234231,-1.174568,0.018715,0.08689994345679768,-0.0062831853071794175,-1.107778069159661
369.92481203007515,0.6089668659108355,0.573339476994102,-19.989799,1.03298,-1.290919,0.006455,0.07394960040699974,0.004241150082346268,-1.3177757880536458
370.9273182957393,0.608966638494434,0.5733396318048065,-19.978609,0.768354,-1.361777,-0.025192,0.009459684545809269,0.007260569688296581,-1.53451075711301
371.9298245614035,0.6089663974644643,0.5733397387934898,-19.955606,0.466404,-1.38281,-0.017007,0.025464353786597272,-0.0016929693744345276,-1.7462544335775185
372.93233082706763,0.6089661491041117,0.5733397911533673,-19.936834,0.171219,-1.402233,-0.018121,-0.020350539078253876,-0.006213372137099826,-1.9265291429501634
373.9348370927318,0.608965898649364,0.5733397937713611,-19.928699,-0.102608,-1.398919,0.0046,0.00013962634015954648,-0.01363102145807571,-2.0796992555584786
374.937343358396,0.6089656438312933,0.5733397499635969,-19.939575,-0.349265,-1.378178,0.013945,0.03401646712136948,-0.011414453308042916,-2.2101802973303766
375.9398496240601,0.6089653911076176,0.5733396674095234,-19.958149,-0.582908,-1.332051,0.022261,0.04843288674284265,-0.007086036763096937,-2.325180111557453
376.9423558897243,0.6089651469360553,0.5733395502979306,-19.981884,-0.797895,-1.272747,0.027111,0.053791047546465236,-0.0034382986264287485,-2.4211905340833213
377.9448621553885,0.6089649135855343,0.5733394014213453,-20.00812,-0.983642,-1.21634,0.029666,0.057735491655972415,-0.0012391837689158525,-2.4934471476625943
