Time [s],Longitude [rad],Latitude [rad],Altitude [m],V North [m/s],V East [m/s],V Down [m/s],Roll [rad],Pitch [rad],Yaw [rad]
0.0,0.573358098959089,0.6089529961283358,-15.011564,1.425806,0.405357,0.003379,0.025656340004316644,0.00019198621771937625,0.29639181357367705
1.0025062656641603,0.5733583244556284,0.6089530711774936,-15.02178,1.429812,0.414916,0.015234,0.02282890661608583,0.0016057029118347831,0.3088360111403966
2.0050125313283207,0.5733585508248324,0.6089531493682442,-15.035624,1.439869,0.423692,0.009983,0.013421581947836395,-0.000296705972839036,0.3220655894172211
3.007518796992481,0.5733587787648328,0.6089532301769885,-15.035564,1.439121,0.443871,-0.010288,0.017505652397503124,-0.0032812189937493396,0.33784338330854236
4.010025062656641,0.5733590063557672,0.608953315174523,-15.017096,1.421278,0.476583,-0.023136,0.02476622208579954,-0.0033859387488689996,0.35409239864460956
5.012531328320802,0.5733592301069773,0.608953406106177,-14.996937,1.400079,0.509549,-0.012991,0.027000243528352275,-0.00010471975511965978,0.3678281224045124
6.015037593984962,0.5733594505420617,0.6089535036700823,-14.996621,1.392952,0.523758,0.012874,0.02075196480621258,0.003351032163829113,0.37831758611558336
7.017543859649122,0.5733596701044816,0.608953602281185,-15.019352,1.400019,0.517786,0.027678,0.015638150097869192,0.002548180707911721,0.3888593747976291
8.020050125313283,0.5733598917612966,0.608953700368689,-15.043638,1.407519,0.511305,0.015532,0.015707963267948967,-0.0015009831567151233,0.4027521781902115
9.022556390977442,0.5733601141162434,0.6089537965363307,-15.044641,1.401755,0.528239,-0.013487,0.021362830044410593,-0.004607669225265031,0.41964698280280915
10.025062656641603,0.5733603362966571,0.608953896194631,-15.020213,1.383009,0.568822,-0.030344,0.028344147052387914,-0.0038571776469074684,0.4363323129985824
11.027568922305765,0.5733605539392148,0.608954003706913,-14.992844,1.366552,0.607486,-0.019656,0.02696533694331239,0.0,0.45017279142018995
12.030075187969924,0.5733607689637787,0.6089541201203741,-14.986319,1.360579,0.622212,0.005351,0.02129301687433082,0.00312413936106985,0.4612555972637689
13.032581453634084,0.573360983115678,0.6089542377555656,-15.002513,1.35962,0.620322,0.021099,0.014713125594312197,0.0030892327760299633,0.4733158223950497
14.035087719298245,0.5733611970930442,0.6089543548671584,-15.024362,1.356829,0.622469,0.017426,0.017889624832941875,0.0012217304763960308,0.48729592715681685
15.037593984962406,0.5733614117685423,0.6089544723278171,-15.035086,1.349932,0.639058,0.002578,0.022165681500327987,-0.0009773843811168245,0.5026722604135944
16.040100250626566,0.5733616255713756,0.6089545924064697,-15.031325,1.341895,0.662339,-0.008433,0.024853488548399253,-0.002356194490192345,0.5176472028489982
17.042606516290725,0.5733618378034127,0.6089547166739124,-15.021228,1.33466,0.681787,-0.010199,0.020210912738094333,-0.002670353755551324,0.5320112625929115
18.045112781954884,0.573362049337318,0.60895484600281,-15.011775,1.32462,0.698344,-0.00813,0.020402898955813712,-0.002076941809873252,0.546026221579841
19.047619047619047,0.5733622582532294,0.608954978996899,-15.003953,1.311765,0.717162,-0.00723,0.023317598806644243,-0.0007504915783575617,0.5603728978444045
20.050125313283207,0.5733624654238116,0.6089551149580477,-14.997978,1.2996,0.738162,-0.004939,0.023108159296404925,0.0003665191429188092,0.5743528978864164
21.052631578947366,0.5733626704999988,0.6089552538862563,-14.996851,1.291668,0.753264,0.001757,0.021048670779051613,0.001308996938995747,0.5874603729287714
22.05513784461153,0.5733628748780543,0.6089553956069914,-15.003871,1.287318,0.760484,0.010091,0.020682151636132805,0.0016231562043547264,0.6005503423187288
23.05764411027569,0.5733630782089121,0.6089555392475888,-15.014973,1.284245,0.766566,0.009066,0.01895427567665842,0.0004886921905584122,0.6149492562878045
24.06015037593985,0.5733632818888358,0.608955683760851,-15.018338,1.278092,0.778698,-0.004792,0.020786871391252466,-0.0011693705988362008,0.6306572544623386
25.062656641604008,0.573363484347029,0.6089558300194422,-15.005987,1.265674,0.799301,-0.019697,0.023806290997202658,-0.001361356816555577,0.646679429355524
26.065162907268167,0.5733636845362943,0.6089559815140213,-14.982435,1.246596,0.82868,-0.024674,0.02506292805863857,0.0008377580409572782,0.6625619255486724
27.06766917293233,0.5733638815839668,0.6089561389427198,-14.962267,1.229765,0.854757,-0.013885,0.025446900494077326,0.00466002910282486,0.6759485660048838
28.07017543859649,0.5733640753155137,0.6089563005602086,-14.95977,1.222418,0.865532,0.007373,0.019669860669976093,0.007487462491055674,0.6877644799474706
29.07268170426065,0.5733642678253301,0.6089564644466253,-14.977648,1.218297,0.866412,0.024502,0.016406094968746697,0.007452555906015787,0.7010464006485624
30.075187969924812,0.5733644601606138,0.6089566274603775,-15.00426,1.21507,0.866146,0.024011,0.020298179200694055,0.005567600313861911,0.7158467752521818
31.07769423558897,0.5733646528449633,0.608956789775998,-15.018672,1.207615,0.877842,0.002028,0.024399702942880727,0.002617993877991494,0.7319911231930069
32.08020050125313,0.5733648434349174,0.6089569554077439,-15.006001,1.193695,0.903114,-0.024606,0.027855454861829502,0.0019722220547535923,0.7486415468037403
33.08270676691729,0.5733650321050096,0.6089571259264118,-14.975887,1.176965,0.931326,-0.029896,0.023317598806644243,0.004049163864626845,0.7632848766812652
34.08521303258145,0.5733652183316408,0.6089573020301334,-14.954524,1.162062,0.955321,-0.009607,0.02022836603061428,0.007173303225696694,0.7775790534419286
35.08771929824561,0.5733654010676135,0.6089574840679745,-14.959839,1.14893,0.968547,0.017021,0.016859880574265223,0.008168140899333463,0.7915766289495082
36.09022556390977,0.5733655815346582,0.6089576669784801,-14.985715,1.14159,0.966175,0.028894,0.017121679962064373,0.0072954762733362976,0.8053124225225812
37.092731829573935,0.5733657618271699,0.6089578481436564,-15.01149,1.134157,0.964386,0.018698,0.02350958502436362,0.00486946861306418,0.8204443573242018
38.095238095238095,0.5733659408979511,0.6089580286107009,-15.018751,1.122229,0.979189,-0.003989,0.02579596634447619,0.0028099800957108708,0.8361174663669886
39.097744360902254,0.5733661183979362,0.6089582115212065,-15.005046,1.107557,1.007364,-0.019966,0.026197392072434884,0.0025830872929516074,0.8509527475556478
40.100250626566414,0.5733662915345978,0.6089583996677,-14.983184,1.076681,1.013824,-0.027511,-0.0059515727493006645,0.005445427266222308,0.8661370771414134
41.10275689223057,0.5733664658929902,0.6089585986352347,-14.961429,1.128904,1.101538,0.000628,0.08737118235483614,0.07927285462558245,0.8817053966159103
42.10526315789473,0.5733666488034957,0.6089588131361998,-15.032673,1.168253,1.165098,0.158418,-0.024801128670839424,0.19420278586940906,0.9427221421722172
43.10776942355889,0.5733668311904025,0.608959038807272,-15.246433,1.068346,1.229411,0.25645,-0.06956882398449397,0.22294835864975565,1.092035059680332
44.11027568922306,0.5733670008364059,0.608959281582571,-15.511248,0.914184,1.374284,0.276883,0.07635815477475191,0.23378685330464044,1.2591851723306589
45.11278195488722,0.5733671483167277,0.6089595402403661,-15.816662,0.747167,1.537658,0.342359,0.032253684576855214,0.259478099893997,1.366627745803185
46.11528822055138,0.5733672692680449,0.6089598313612853,-16.184235,0.678805,1.667679,0.397138,0.05012585611727714,0.2712765256374786,1.3862452640488936
47.11779448621554,0.5733673711952731,0.6089601619266457,-16.602951,0.702985,1.773769,0.449704,0.033178709080412205,0.2771059253391397,1.366016810751817
48.1203007518797,0.5733674767876928,0.6089604394339968,-17.069811,0.759362,1.859267,0.492067,0.020891591146372127,0.27413886561074935,1.3439558490066086
49.122807017543856,0.5733675951210162,0.6089607909433081,-17.574337,0.808245,1.935722,0.521385,0.02494075501099897,0.2590068609959585,1.3343564857607622
50.125313283208015,0.5733677251480456,0.6089611731704143,-18.083025,0.828613,2.014876,0.494675,0.013281955607676848,0.2171887721181744,1.3361716979960063
51.127819548872175,0.5733678619818587,0.608961566044029,-18.539337,0.84854,2.088413,0.418455,0.007661995416255106,0.1673072446428839,1.3328729733498597
52.130325814536334,0.573368001608199,0.6089619693896191,-18.912788,0.872734,2.152807,0.327045,0.009878563566287904,0.12006119924468993,1.3267819313400322
53.1328320802005,0.573368141758138,0.6089623846034481,-19.194441,0.895336,2.215253,0.235919,0.012374384396639796,0.07974409352362091,1.3227500287817073
54.13533834586466,0.573368286096867,0.6089628108128515,-19.393097,0.92103,2.275583,0.16211,0.006562437987498679,0.050038589654677425,1.3186835163443158
55.13784461152882,0.5733684351479852,0.6089632478432961,-19.529327,0.946776,2.328729,0.112307,0.006981317007977318,0.032655110304813904,1.314791449565661
56.14035087719298,0.5733685885624265,0.6089636939494529,-19.626232,0.969038,2.369338,0.081473,0.004276056667386108,0.023701571242082997,1.311230925531715
57.14285714285714,0.5733687447693945,0.6089641470369268,-19.700157,0.986842,2.397738,0.064405,-0.006754424205218055,0.019687313962496036,1.308298789841657
58.1453634085213,0.5733689048160869,0.6089646043131908,-19.759787,1.000457,2.419186,0.053019,-0.0027925268031909274,0.018657569703819384,1.3061521570347516
59.14786967418546,0.5733690659099768,0.6089650650801134,-19.806866,1.012124,2.439879,0.038421,0.0009599310885968813,0.016772614111665505,1.3056110002468782
60.150375939849624,0.5733692278765314,0.6089655267197005,-19.839405,1.021333,2.464387,0.025785,-0.0005759586531581288,0.015254177662430441,1.3056633252178529
61.152882205513784,0.5733693914138823,0.6089659937698083,-19.861996,1.031906,2.490394,0.020367,-0.001413716694115407,0.014451326206513048,1.3050349543272572
62.15538847117794,0.5733695559984308,0.6089664671031014,-19.881287,1.041873,2.515151,0.020714,-0.0023911010752322315,0.016057029118347832,1.3048254973637254
63.1578947368421,0.5733697225028415,0.6089669420071909,-19.904057,1.044178,2.514271,0.023675,-0.010716321607245184,0.016859880574265223,1.3040228204407334
64.16040100250626,0.5733698895308509,0.6089674160386157,-19.929026,1.044369,2.508236,0.022285,-0.010105456369047167,0.015969762655748117,1.3034293386818852
65.16290726817043,0.5733700541153993,0.6089678881501784,-19.951357,1.038439,2.504136,0.019286,-0.007592182246175334,0.013543754995475998,1.3056807785103728
66.16541353383458,0.5733702166055527,0.6089683571201484,-19.971043,1.027989,2.502589,0.018404,-0.0029321531433504737,0.011972958668681102,1.3092237096254586
67.16791979949875,0.5733703782230415,0.6089688252174539,-19.991762,1.024561,2.501043,0.021343,-0.0054105206811824215,0.01043706892692609,1.309747413120812
68.1704260651629,0.5733705396659973,0.6089692941874238,-20.012005,1.028252,2.49871,0.017805,-0.008604473212332044,0.007714355293814937,1.3090143748349745
69.17293233082707,0.5733707021561506,0.6089697633319268,-20.025667,1.02921,2.496627,0.007624,-0.0038571776469074684,0.005009094953223725,1.3092761742227736
70.17543859649122,0.5733708635991065,0.6089702321273638,-20.028196,1.026581,2.497139,-0.002998,-0.005026548245743669,0.0037699111843077517,1.3098520805160543
71.17794486215539,0.5733710248675293,0.6089707016209327,-20.020782,1.020965,2.500833,-0.009766,-0.004084070449666731,0.0038571776469074684,1.3107771224729037
72.18045112781954,0.5733711849142217,0.6089711714635673,-20.010588,1.015065,2.507136,-0.009065,-0.005550147021341968,0.005602506898901798,1.3123654419053887
73.1829573934837,0.573371345135447,0.6089716407826031,-20.005411,1.009407,2.511743,-0.001493,-0.005864306286700947,0.0061959188445798695,1.3138489543162915
74.18546365914787,0.5733715030877443,0.6089721107997708,-20.007261,1.014175,2.473145,0.004524,-0.012810716709638379,0.006684611035138282,1.3226803901445527
75.18796992481202,0.5733716503935332,0.6089725581276579,-20.021828,0.792483,2.359278,0.003439,-0.05811946409141117,-0.0187448361664191,1.4865492314412527
76.19047619047619,0.5733717458630433,0.6089729981251625,-19.991814,0.420583,2.321852,-0.050114,0.12276645958528114,-0.022427480888127134,1.6807171107256218
77.19298245614034,0.5733718242283268,0.6089733904751783,-19.955906,0.057538,2.198338,-0.026482,-0.02981022362406315,-0.015254177662430441,1.8687589192420762
78.19548872180451,0.5733718163743451,0.6089737678153625,-19.918886,-0.290901,2.036058,-0.046581,0.060877084309562214,-0.020821777976292352,2.0529435326583303
79.19799498746866,0.5733717469102408,0.6089741165321472,-19.86869,-0.603225,1.851592,-0.046657,0.04984660343695805,-0.008831366015091307,2.224299976072426
80.20050125313283,0.5733716336383724,0.6089744308659454,-19.827673,-0.872559,1.643669,-0.037446,0.02757620218151041,-0.004485496177625427,2.3872088688272366
81.203007518797,0.5733714779550031,0.6089747080242306,-19.797926,-1.09738,1.421143,-0.021965,0.05176646561415182,0.00010471975511965978,2.5389477939956233
82.20551378446115,0.5733712913793061,0.6089749455635417,-19.788673,-1.280663,1.183147,0.003956,0.030054569719342353,0.004118977034706617,2.6809653923100347
83.20802005012531,0.5733710774019398,0.6089751375497595,-19.801292,-1.429454,0.934925,0.020097,0.03363249468593073,0.00445058959258554,2.8127029140637365
84.21052631578947,0.5733708421315566,0.6089752836338179,-19.821754,-1.550714,0.692398,0.02196,0.03237585762449481,0.004485496177625427,2.927318441696109
85.21303258145363,0.5733705899314797,0.6089753874809084,-19.837833,-1.645851,0.475147,0.012817,0.031503192998497645,0.004118977034706617,3.0243238240686616
86.21553884711778,0.5733703218489066,0.608975451534492,-19.843369,-1.720029,0.286163,0.00442,0.029216811678385076,0.005916666164260778,3.1064418620809677
87.21804511278195,0.5733700427707592,0.608975483997616,-19.844893,-1.779579,0.121387,0.001941,0.023474678439323732,0.006492624817418906,3.1736368812031164
88.22055137844612,0.5733697554895644,0.6089754897572025,-19.849083,-1.829378,-0.020775,0.006808,0.02181661564992912,0.006719517620178169,3.226101408704896
89.22305764411027,0.5733694601798549,0.6089754712567126,-19.858038,-1.873237,-0.14033,0.009327,0.020176006153054447,0.0063006385996995295,3.2642368179543872
90.22556390977444,0.5733691580633614,0.6089754311141397,-19.866219,-1.915637,-0.231762,0.006852,0.016318828506146982,0.005672320068981571,3.2866992403341393
91.22807017543859,0.5733688505363472,0.6089753784051963,-19.868677,-1.957637,-0.291454,-4.1e-05,0.01965240737745615,0.00614355896702004,3.2961763781724684
92.23057644110276,0.573368535853483,0.608975316096942,-19.867785,-2.000844,-0.323866,0.000166,0.013857914260834978,0.008796459430051421,3.295233882923099
93.23308270676691,0.5733682145383677,0.6089752509961609,-19.871355,-2.043468,-0.33027,0.006473,0.006876597252857658,0.011274826967883369,3.284587357032641
94.23558897243107,0.5733678874636658,0.608975187815242,-19.883257,-2.083412,-0.317049,0.015345,0.0009075712110370514,0.012932889757277981,3.266854968912011
95.23809523809523,0.5733675542803117,0.6089751296957779,-19.902906,-2.116704,-0.282494,0.02368,0.0035953782591083188,0.0136659280431156,3.2424028886382783
96.2406015037594,0.5733672156864369,0.6089750808265588,-19.928833,-2.145852,-0.231193,0.028234,-0.007958701389094143,0.01244419756671957,3.215140915535297
97.24310776942356,0.5733668748236339,0.6089750419057165,-19.957029,-2.173002,-0.17396,0.026001,-0.009407324668249437,0.010105456369047167,3.1880882423162147
98.24561403508771,0.5733665299465737,0.6089750171220412,-19.978926,-2.198439,-0.109003,0.015746,-0.002722713633111154,0.007906341511534314,3.162658795114657
99.24812030075188,0.5733661822769867,0.6089750047302035,-19.987415,-2.218555,-0.043196,0.000886,-0.009093165402890457,0.005218534463463045,3.142448056909488
100.25062656641603,0.5733658307676754,0.6089750047302035,-19.990698,-2.233669,0.012528,0.004336,-0.0036477381366681488,0.0057421332390613445,3.127821988338265
101.2531328320802,0.573365477163969,0.6089750141549815,-20.003777,-2.247288,0.043779,0.01789,-0.011606439525762293,0.005707226654021458,3.1195142560053575
102.25563909774435,0.5733651214658674,0.6089750289902801,-20.021833,-2.259,0.051549,0.014909,-0.00736528944341607,0.0027401669256310974,3.1163900991909954
103.25814536340852,0.573364762975239,0.6089750436510457,-20.030724,-2.269161,0.057058,0.004,-0.007871434926494426,0.0013264502315156904,3.1159014070004365
104.26065162907267,0.5733644041355447,0.6089750576136798,-20.029884,-2.275895,0.064106,-0.003169,-0.0032114058236695662,0.0012042771838760874,3.1178385828438104
105.26315789473684,0.5733640440741201,0.6089750736707089,-20.02676,-2.280707,0.065556,-0.000443,0.0013439035240356337,0.0016929693744344998,3.1226732844981746
106.265664160401,0.5733636840126954,0.6089750911240014,-20.02615,-2.285107,0.055704,0.001028,-0.001239183768915974,0.001239183768915974,3.131696619277693
107.26817042606515,0.5733633243003365,0.6089751049121025,-20.026688,-2.288972,0.033796,-0.000878,-0.004118977034706617,0.0007853981633974482,3.1423780168466053
108.27067669172932,0.5733629644134448,0.6089751132896829,-20.026819,-2.29288,0.009468,-0.000277,-0.0018500490071139892,-0.0004014257279586958,3.1519073400295694
109.27318295739347,0.5733626029557567,0.6089751159076768,-20.027676,-2.297413,-0.015207,0.001225,-0.0006457718232379018,-0.00012217304763960306,3.159237967234041
110.27568922305764,0.5733622407999369,0.6089751131151501,-20.031382,-2.301276,-0.03986,0.003069,-0.0020594885173533086,-0.0004886921905584122,3.1652069060093986
111.27819548872179,0.5733618777714525,0.608975106133833,-20.031637,-2.303889,-0.054573,-0.002429,-0.0007504915783575617,-0.001308996938995747,3.1682263954285195
112.28070175438596,0.5733615159646985,0.6089750974071867,-20.026405,-2.30454,-0.055084,-0.003552,-0.0048520153205442364,-0.0005410520681182421,3.1678772597649503
113.28320802005013,0.5733611529362143,0.608975089553205,-20.02342,-2.308154,-0.045812,0.001252,-0.011938052083641215,0.0005759586531581288,3.165276684272894
114.28571428571428,0.573360789209598,0.6089750836190856,-20.027699,-2.312482,-0.037119,0.006967,0.0010821041362364843,-0.0005759586531581288,3.1622747703193412
115.28822055137844,0.5733604240867185,0.6089750789066966,-20.032654,-2.315029,-0.032197,0.004221,-0.004049163864626845,-0.0031066860685499066,3.1584699001901155
116.2907268170426,0.5733600587893062,0.6089750752415052,-20.035984,-2.316238,-0.028439,0.001598,-0.007400196028455957,-0.003525565089028546,3.1546999366459305
117.29323308270676,0.5733596941900254,0.6089750720999125,-20.038618,-2.316589,-0.0198,2.7e-05,-0.0056199601914217415,-0.004118977034706617,3.151017309377515
118.29573934837092,0.5733593285435471,0.6089750727980443,-20.03694,-2.318925,-0.008529,-0.006026,-0.011885692206081384,-0.005585053606381855,3.1478058162873825
119.29824561403508,0.5733589630716017,0.6089750745433735,-20.031332,-2.32033,-0.002274,-0.007469,0.003892084231947355,-0.005393067388662479,3.145798844727222
120.30075187969925,0.5733585969015246,0.608975075765104,-20.023617,-2.323813,-0.003404,-0.010048,-0.009599310885968814,-0.004956735075663896,3.1464097797785904
121.3032581453634,0.5733582302078488,0.6089750780340321,-20.010698,-2.325988,-0.00127,-0.015331,-0.006265732014659643,-0.004921828490624009,3.1474742386360886
122.30576441102757,0.5733578642123046,0.608975082746421,-19.993883,-2.328074,0.010256,-0.015938,-0.005270894341022875,-0.004049163864626845,3.1488356478125223
123.30827067669172,0.5733574989148923,0.6089750885060076,-19.984741,-2.327414,0.019538,-0.001394,-0.0062482787221397,-0.0011693705988362008,3.15086019483825
124.31077694235589,0.5733571339665456,0.6089750939165282,-19.994761,-2.323954,0.0084,0.016144,0.0009948376736367678,-0.0007853981633974482,3.1553108542440063
125.31328320802004,0.5733567691927319,0.6089750965345221,-20.013189,-2.321696,-0.020646,0.014827,-0.0006457718232379018,-0.00307177948351002,3.16028511242536
126.3157894736842,0.5733564045934513,0.6089750949637258,-20.018932,-2.320003,-0.045621,-0.001561,0.0027401669256310974,-0.004991641660703782,3.1627637243092868
127.31829573934836,0.5733560492444155,0.60897508745881,-19.99789,-2.143964,0.026569,-0.063609,0.054244833151983765,-0.02769837522915001,3.036733080143756
128.32080200501252,0.5733557368304794,0.6089751368516279,-19.922949,-1.822956,0.528616,-0.072485,-0.06974335690969341,-0.01668534764906579,2.7289267958087438
129.32330827067668,0.5733554818378757,0.6089752427931134,-19.875986,-1.480723,0.963544,-0.035072,-0.022619467105846513,-0.006073745796940267,2.4628514211553783
130.32581453634086,0.5733552961348433,0.6089754168024398,-19.857187,-1.124363,1.26431,-0.016178,-0.0347495054072071,-0.008866272600131194,2.2278777963192593
131.328320802005,0.5733551634898202,0.6089756798235582,-19.85306,-0.773616,1.476881,0.00965,-0.0439822971502571,-0.002356194490192345,2.0155237258554495
132.33082706766916,0.5733550784922855,0.6089759770531297,-19.862785,-0.439933,1.626246,0.004908,0.0046251225177849735,-0.0040666171571467884,1.8266615253240954
133.33333333333331,0.5733550420149042,0.6089762960993169,-19.859411,-0.123238,1.738342,-0.017122,-0.01085594794740473,-0.0061959188445798695,1.652547653678066
134.3358395989975,0.5733550528359456,0.6089766350422577,-19.846205,0.178502,1.818969,-0.011637,-0.000890117918517108,-0.004694935687864747,1.4953632139769941
135.33834586466165,0.5733551064175536,0.608976986726102,-19.83223,0.463458,1.869694,-0.009631,0.01223475805648025,-0.005044001538263612,1.3529791837861267
136.3408521303258,0.5733552029342611,0.6089773453912632,-19.823442,0.730962,1.88666,-0.005702,0.00307177948351002,-0.003420845333908886,1.2282056828275147
137.34335839598998,0.5733553392444757,0.6089777066744184,-19.82588,0.978575,1.880779,0.002808,0.018046704465621368,-0.0026005405854715507,1.129507331080528
138.34586466165413,0.5733555118575387,0.6089780681321065,-19.833059,1.173281,1.877683,0.005949,0.014678219009272311,-0.002373647782712288,1.0695726896604576
139.34837092731829,0.5733557137921333,0.6089784285425971,-19.83687,1.312888,1.89327,0.001924,0.023020892833805207,-0.00012217304763960306,1.045871170778252
140.35087719298244,0.5733559364961458,0.6089787934909436,-19.837566,1.385439,1.939909,0.001265,0.013316862192716735,0.001413716694115407,1.0605667558135818
141.35338345864662,0.5733561653088107,0.6089791668168707,-19.839796,1.37849,2.014815,0.005928,0.023631758072003222,0.0030368728984701333,1.1107100128635012
142.35588972431077,0.5733563873146916,0.6089795525346354,-19.85042,1.299279,2.096502,0.015092,0.011152653920243767,0.004084070449666731,1.1898782699070118
143.35839598997492,0.5733565901219507,0.6089799520405011,-19.865952,1.150776,2.170022,0.015429,0.013194689145077132,0.0038571776469074684,1.289204992544594
144.36090225563908,0.573356764480343,0.6089803623674083,-19.877115,0.95071,2.229246,0.008655,0.019512781037296607,0.005288347633542819,1.3991432123145469
145.36340852130326,0.5733569027104197,0.6089807798501654,-19.880394,0.722432,2.276444,0.00054,0.02642428487519415,0.009093165402890457,1.5090814320844996
146.3659147869674,0.5733570018451212,0.6089812036161077,-19.881001,0.489819,2.310783,0.000696,0.02111848394913139,0.011623892818282236,1.6106072521263022
147.36842105263156,0.5733570615353816,0.6089816327925709,-19.886042,0.270412,2.333344,0.009794,0.01806415775814131,0.012775810124598492,1.6988336632679082
148.37092731829574,0.57335708649359,0.6089820682522191,-19.900593,0.078055,2.343196,0.018662,0.02125811028929093,0.01244419756671957,1.7705318063931277
149.3734335839599,0.5733570831774644,0.6089825070279931,-19.924995,-0.076399,2.340541,0.027133,0.019093902016817967,0.011047934165124106,1.8238166037367594
150.37593984962405,0.5733570578701902,0.6089829449311024,-19.952847,-0.194858,2.332226,0.025911,0.01837831702350029,0.008045967851693859,1.8578506114171116
151.3784461152882,0.573357014062426,0.608983382310613,-19.973648,-0.276541,2.33298,0.014111,0.021537362969610025,0.005794493116621174,1.8738901523363543
152.38095238095238,0.5733569597826862,0.6089838200391894,-19.979471,-0.323154,2.350899,-0.001197,0.012322024519079966,0.0057421332390613445,1.8747454334830016
153.38345864661653,0.5733569000924258,0.6089842631782865,-19.972025,-0.337649,2.38776,-0.011056,0.013561208287995941,0.007452555906015787,1.8621964812545773
154.38596491228068,0.5733568400530995,0.6089847157421615,-19.959532,-0.32275,2.437682,-0.011147,-0.0026878070480712674,0.009669124056048587,1.8395072882451138
155.38847117794487,0.5733567855988269,0.6089851794761437,-19.952557,-0.260654,2.481871,-0.00409,-0.0075223690760955605,0.01382300767579509,1.8199595482628994
156.39097744360902,0.5733567358569432,0.6089856309928212,-19.969568,-0.34525,2.257599,0.019033,-0.02975786374650332,-0.0026878070480712674,1.995173047150855
157.39348370927317,0.5733566513830074,0.6089860177577835,-19.955307,-0.652561,1.802149,-0.036822,0.09126326658678349,-0.013892820845874863,2.3038170371669477
158.39598997493732,0.5733565759847837,0.6089863141146905,-19.931013,-0.901182,1.313199,-0.021011,0.09836675664240041,0.006771877497737999,2.589422960309395
159.3984962406015,0.5733564635855799,0.6089865048791777,-19.91823,-1.041688,0.897736,-0.005562,0.10430087609918114,0.016667894356545847,2.821953141646014
160.40100250626566,0.5733563044115522,0.6089866113442621,-19.907511,-1.143126,0.562737,-0.00836,0.038781215979314,0.01244419756671957,3.0147596117539504
161.4035087719298,0.5733561220246453,0.6089866642277385,-19.889473,-1.230028,0.281301,-0.017583,0.06422811647339133,0.007155849933176751,3.178628435597358
162.406015037594,0.5733559234061765,0.6089866752233127,-19.872087,-1.291047,0.022714,-0.009193,0.006283185307179586,0.003246312408709453,3.323647947865322
163.40852130325814,0.5733557144902649,0.6089866457272484,-19.871086,-1.320409,-0.230607,0.007498,0.017400932642383467,-0.0022514747350726853,3.453535368252032
164.4110275689223,0.5733555012110303,0.6089865715507552,-19.885639,-1.322427,-0.485895,0.016601,0.03375466773357033,-0.005253441048502932,3.5681860468155397
165.41353383458645,0.5733552886299275,0.6089864532174319,-19.900562,-1.312753,-0.723094,0.007792,0.030124382889422128,-0.007016223593017205,3.6586813336248607
166.41604010025063,0.5733550777941538,0.6089862933452723,-19.898787,-1.307177,-0.912576,-0.014274,0.03029891581462156,-0.0076270888312152205,3.7227873468637824
167.41854636591478,0.5733548678310448,0.6089860994391926,-19.878309,-1.318454,-1.049624,-0.023668,0.02345722514680379,-0.004537856055185257,3.7599802608639044
168.42105263157893,0.5733546542027445,0.6089858844146286,-19.855904,-1.349554,-1.145856,-0.01913,0.017994344588061536,-0.0013788101090755204,3.7720928458727445
169.4235588972431,0.5733544342912585,0.6089856566491613,-19.842323,-1.400255,-1.210174,-0.009258,0.0136659280431156,0.0002617993877991494,3.7580079166361027
170.42606516290726,0.5733542051295278,0.608985421553311,-19.836349,-1.471555,-1.230817,-0.004656,0.01213003830136059,0.0019722220547535923,3.7211641557528425
171.42857142857142,0.5733539646231569,0.6089851861083949,-19.835066,-1.559609,-1.201221,0.002158,-0.0027401669256310974,0.003909537524467298,3.664824979858343
172.43107769423557,0.5733537105032178,0.608984962008119,-19.841341,-1.658175,-1.122635,0.011616,0.005445427266222308,0.0061959188445798695,3.59420887105619
173.43358395989975,0.5733534405007825,0.6089847574555306,-19.850063,-1.7563,-1.001888,0.008663,-0.010088003076527224,0.006998770300497262,3.514831226862318
174.4360902255639,0.5733531554885156,0.6089845836207372,-19.853706,-1.843378,-0.842549,0.004139,-0.00958185759344887,0.008988445647770798,3.4312998386750393
175.43859649122805,0.5733528580844112,0.608984443994397,-19.856581,-1.919033,-0.662239,0.006031,-0.0020245819323134223,0.01090830782496456,3.350456117909492
176.44110275689223,0.5733525484630018,0.6089843403218393,-19.866535,-1.982315,-0.487221,0.017236,-0.008970992355250854,0.012304571226560023,3.277553680147104
177.4436090225564,0.5733522297658804,0.6089842708577352,-19.887371,-2.032488,-0.328323,0.02365,-0.0072954762733362976,0.011554079648202462,3.214687112476486
178.44611528822054,0.5733519033893103,0.6089842296679648,-19.912712,-2.0674,-0.19301,0.027063,-0.011676252695842066,0.010314895879286487,3.162414309393038
179.4486215538847,0.5733515728239499,0.6089842136109358,-19.937452,-2.092738,-0.076041,0.023072,-0.009599310885968814,0.007853981633974483,3.1212770036432866
180.45112781954887,0.5733512375462007,0.6089842171015943,-19.956408,-2.117171,0.022237,0.014801,-0.011519173063162575,0.0054105206811824215,3.090698852601639
181.45363408521303,0.5733508987777929,0.6089842382200781,-19.967386,-2.142704,0.095783,0.005587,-0.0075223690760955605,0.004206243497306334,3.072006376312779
182.45614035087718,0.5733505552969961,0.608984269112406,-19.969717,-2.168025,0.142072,-0.002759,-0.013212142437597075,0.00471238898038469,3.064588674631926
183.45864661654133,0.5733502088491395,0.6089843071605836,-19.96822,-2.188805,0.172376,-0.003249,-0.006283185307179586,0.005427973973702365,3.065094942288052
184.4611528822055,0.5733498587360916,0.608984348350354,-19.97179,-2.204716,0.182336,0.008443,-0.01647590813882647,0.007086036763096978,3.0727744433567046
185.46365914786966,0.5733495072267804,0.6089843883183939,-19.989117,-2.218851,0.161035,0.018968,-0.0013439035240356337,0.005777039824101231,3.08719067099196
186.46616541353382,0.5733491539721396,0.6089844225268471,-20.00802,-2.230419,0.115271,0.012522,0.0029321531433504737,0.0027576202181510408,3.106162487227601
187.468671679198,0.5733487991467027,0.6089844441689299,-20.016808,-2.237126,0.060762,0.001535,-0.000593411945678072,0.0018151424220741027,3.1255356593780306
188.47117794486215,0.5733484444957988,0.6089844569098335,-20.009674,-2.223197,0.037253,-0.018071,-0.08522442737488312,0.007714355293814937,3.154891940316942
189.4736842105263,0.5733481097416482,0.6089844508011811,-20.014757,-1.948613,-0.188099,-0.005425,-0.11548843660446478,-0.018971728969178363,3.367071582575308
190.47619047619045,0.5733478269983094,0.6089843715632329,-19.962303,-1.631424,-0.660931,-0.080326,0.1891413310386255,-0.02106612407157156,3.660130096530356
191.47869674185463,0.573347608308554,0.6089842731266633,-19.916199,-1.274572,-0.996944,-0.016576,0.038397243543875255,0.01117010721276371,3.9005315208072524
192.4812030075188,0.5733474512289214,0.6089840872490979,-19.906763,-0.934812,-1.241095,-0.015707,0.05227261109723017,-0.0057246799465414016,4.118226560581553
193.48370927318294,0.5733473440657053,0.6089838308602308,-19.891867,-0.618617,-1.439846,-0.000444,0.07944738755078187,0.0030019663134302466,4.311417055484805
194.48621553884712,0.5733472780922596,0.6089835495131554,-19.892733,-0.323051,-1.574933,0.005229,0.02324778563656447,-0.0009948376736367678,4.48746798080116
195.48872180451127,0.5733472557520453,0.6089832419861412,-19.891102,-0.045045,-1.680649,-0.003275,0.05129522671611335,-0.0040666171571467884,4.647864315018092
196.49122807017542,0.5733472732053377,0.6089829189256967,-19.885397,0.224079,-1.748201,-0.003063,0.03885102914939378,-0.0029845130209103037,4.794628999458418
197.49373433583958,0.573347330975736,0.6089825846951449,-19.882511,0.488461,-1.784388,0.000876,0.02981022362406315,-0.003298672286269283,4.926907677999993
198.49624060150376,0.5733474281905753,0.6089822459267371,-19.886993,0.738668,-1.799053,0.006434,0.04352851154473858,-0.0037699111843077517,5.040895218714206
199.4987468671679,0.5733475632790594,0.6089819045403353,-19.896271,0.957228,-1.811965,0.008926,0.03735004599267865,-0.004433136300065597,5.123205016051428
200.50125313283206,0.5733477306561346,0.6089815610595386,-19.903818,1.128428,-1.827994,0.006333,0.03155555287605748,-0.004642575810304917,5.174080979774628
201.50375939849624,0.5733479247367474,0.608981214960748,-19.908474,1.245696,-1.85937,0.003045,0.021938788697568722,-0.005480333851262195,5.192232020022932
202.5062656641604,0.5733481336526589,0.6089808615315743,-19.911169,1.308149,-1.917564,-0.001589,0.02001892652037496,-0.008499753457212385,5.177013115464685
203.50877192982455,0.5733483485026899,0.608980496234162,-19.907778,1.310523,-2.002416,-0.00672,0.01403244718603441,-0.008831366015091307,5.13018622833965
204.5112781954887,0.5733485589893976,0.6089801150542532,-19.895519,1.244725,-2.094509,-0.01665,0.001239183768915974,-0.007278022980816354,5.057737052584005
205.51378446115288,0.5733487527209447,0.6089797200862436,-19.874987,1.108576,-2.175937,-0.019359,0.004904375198104067,-0.0033335788713091696,4.966072656975236
206.51629072681703,0.5733489195744211,0.6089793134245278,-19.85862,0.91672,-2.241521,-0.005539,-0.0025830872929516074,0.002129301687433082,4.863342280496876
207.51879699248119,0.5733490532666418,0.6089788975125672,-19.862785,0.7044,-2.293967,0.015539,-0.003543018381548489,0.0054105206811824215,4.760594852151725
208.52130325814534,0.5733491494342835,0.6089784747938223,-19.883593,0.492778,-2.332902,0.022971,-0.0030368728984701333,0.00466002910282486,4.664357798622486
209.52380952380952,0.5733492091245439,0.608978046140958,-19.903204,0.285659,-2.353264,0.018407,-0.004031710572106902,0.0035081117965086025,4.579202695725492
210.52631578947367,0.5733492354790157,0.6089776122521059,-19.912317,0.088605,-2.356307,0.003899,-0.0013962634015954637,0.002530727415391778,4.5084121412646025
211.52882205513782,0.5733492319883572,0.6089771790613855,-19.910313,-0.082406,-2.348936,-0.005208,-0.006073745796940267,0.003246312408709453,4.455406718774337
212.531328320802,0.5733492042376221,0.6089767481395932,-19.908707,-0.20357,-2.343357,0.003687,0.0010821041362364843,0.004694935687864747,4.42310044742712
213.53383458646616,0.5733491586845286,0.6089763149488729,-19.918686,-0.276758,-2.353814,0.017772,-0.0021467549799530253,0.0053058009260627615,4.409609401375054
214.5363408521303,0.5733491031830584,0.6089758758240331,-19.941216,-0.314204,-2.382219,0.024205,0.0013962634015954637,0.004241150082346221,4.410918084154784
215.53884711779446,0.573349045761726,0.6089754297178762,-19.962734,-0.323592,-2.417309,0.016479,-0.005270894341022875,0.0025656340004316645,4.423816294219825
216.54135338345864,0.5733489895621241,0.6089749757577378,-19.972273,-0.304146,-2.446805,0.001056,0.003665191429188092,0.0017453292519943296,4.4462438449211215
217.5438596491228,0.5733489392966415,0.6089745172597434,-19.96969,-0.238272,-2.467541,-0.005056,-0.006928957130417489,0.0026005405854715507,4.469072995883303
218.54636591478695,0.573348896536075,0.6089740732479816,-19.967157,-0.318367,-2.244056,0.001404,0.05061454830783556,-0.008604473212332044,4.294225824152049
219.54887218045113,0.5733488138074684,0.6089736959077974,-19.9394,-0.668647,-1.799881,-0.031215,-0.043580871422298405,-0.018465583486100008,3.983574461150068
220.55137844611528,0.5733487338713887,0.6089734018198184,-19.910393,-0.957699,-1.368311,-0.008877,-0.03277728335245351,-0.005497787143782138,3.714811174728876
221.55388471177943,0.5733486080331496,0.6089732061684092,-19.900103,-1.144724,-0.982546,-0.01838,-0.009407324668249437,-0.009354964790689606,3.491374088981977
222.55639097744358,0.5733484226791831,0.6089730873114871,-19.883238,-1.27394,-0.63915,-0.015928,-0.056618480934696055,-0.0051836278784231585,3.2977471046860933
223.55889724310777,0.5733482153340679,0.6089730216871073,-19.871136,-1.367701,-0.325408,-0.011101,0.018291050560900576,-0.005393067388662479,3.1324122042710103
224.56140350877192,0.5733479936772529,0.6089730059791439,-19.845438,-1.429863,-0.02139,-0.033543,-0.0020943951023931952,-0.008133234314293577,2.985158565840739
225.56390977443607,0.5733477624211271,0.6089730442018547,-19.818541,-1.458472,0.265675,-0.023411,0.0032637657012293962,-0.005009094953223725,2.85558567123853
226.56641604010025,0.5733475262780792,0.608973129897521,-19.808779,-1.46456,0.52975,-0.001139,0.01567305668290908,-0.0027925268031909274,2.7446349161563255
227.5689223057644,0.5733472892623668,0.6089732607972148,-19.816509,-1.460211,0.747343,0.012569,0.008883725892651137,-0.002722713633111154,2.6626044936724695
228.57142857142856,0.5733470534683849,0.6089734279997572,-19.83219,-1.453996,0.918334,0.01729,0.01795943800302165,-0.0013962634015954637,2.607486908628026
229.5739348370927,0.5733468183725347,0.6089736240002321,-19.846985,-1.462054,1.045104,0.010171,0.02035053907825388,-0.002181661564992912,2.580574071188613
230.5764411027569,0.5733465806586905,0.6089738379775984,-19.853588,-1.49734,1.122834,0.002556,0.015655603390389135,-0.0016057029118347831,2.582162111368418
231.57894736842104,0.5733463361380623,0.6089740619033415,-19.852102,-1.557127,1.150719,-0.004052,0.01747074581246324,0.0004188790204786391,2.608551646738205
232.5814536340852,0.5733460820181232,0.6089742868762821,-19.848516,-1.63211,1.132214,-0.003317,0.013439035240356337,0.0025656340004316645,2.6557804133768044
233.58395989974937,0.5733458148082147,0.6089745032971092,-19.847277,-1.713075,1.064407,0.000496,0.013473941825396225,0.0043982297150257105,2.719502122567729
234.58646616541353,0.5733455352064686,0.6089747003447818,-19.851551,-1.788825,0.952502,0.007103,0.0124965574442794,0.0057246799465414016,2.7931201627767277
235.58897243107768,0.5733452453072798,0.6089748705143839,-19.862659,-1.853241,0.805493,0.013425,0.009128071987930343,0.006318091892219472,2.8716426654502927
236.59147869674183,0.5733449459833131,0.6089750089189936,-19.881958,-1.908844,0.637708,0.023785,0.02378883770468271,0.008011061266653973,2.9489430362217335
237.593984962406,0.5733446375836343,0.6089751132896829,-19.907227,-1.95648,0.465767,0.026612,0.015969762655748117,0.007609635538695277,3.0204318794630542
238.59649122807016,0.5733443222026384,0.608975183277386,-19.932304,-1.997418,0.305698,0.022508,0.015219271077390554,0.006544984694978736,3.082251563741741
239.59899749373432,0.5733440007129902,0.6089752232454257,-19.95167,-2.031464,0.167299,0.013717,0.01673770752662562,0.004572762640225144,3.132534185332432
240.6015037593985,0.5733436736382884,0.6089752375571257,-19.959379,-2.057316,0.055261,0.001353,0.017174039839624202,0.0034557519189487725,3.170931638315818
241.60401002506265,0.5733433423747963,0.6089752338919342,-19.959225,-2.076949,-0.026177,-0.001365,0.011641346110802179,0.0036302848441482054,3.1978444757552302
242.6065162907268,0.5733430097150409,0.6089752171367734,-19.962013,-2.095245,-0.089188,0.007648,0.01085594794740473,0.004886921905584123,3.2151060264035496
243.60902255639095,0.573342673390094,0.6089751907823018,-19.974789,-2.117864,-0.138494,0.014573,0.00986111027376796,0.005026548245743669,3.224984485250082
244.61152882205513,0.5733423328763569,0.6089751576210459,-19.991127,-2.143542,-0.167272,0.013168,0.005288347633542819,0.003612831551628262,3.226974125690771
245.6140350877193,0.5733419888719614,0.6089751214927304,-20.001953,-2.167114,-0.17248,0.007475,0.004241150082346221,0.002356194490192345,3.2221569995019737
246.61654135338344,0.5733416412023745,0.6089750853644149,-20.008881,-2.185356,-0.159497,0.007521,-0.00020943951023931956,0.0016406094968746698,3.2123656325851155
247.6190476190476,0.5733412910893264,0.6089750532503567,-20.019854,-2.199027,-0.140242,0.016594,-0.003682644721708035,0.0016929693744344998,3.1988919001992295
248.62155388471177,0.5733409394054823,0.6089750281176154,-20.036232,-2.214083,-0.115419,0.01547,-0.0020245819323134223,-0.0005585053606381855,3.1822937491995935
249.62406015037593,0.5733405858017757,0.6089750083953948,-20.045994,-2.216713,-0.100804,0.007745,0.04436626958569585,-0.007539822368615503,3.1592904318313555
250.62656641604008,0.5733402498258947,0.6089750003668803,-20.019627,-1.986206,0.123555,-0.067636,0.01884955592153876,-0.032026791774095946,2.952939910021971
251.62907268170426,0.5733399585304425,0.6089750691328528,-19.955614,-1.672033,0.625721,-0.047134,-0.05984734005088556,-0.01509709802975095,2.654122053881437
252.6315789473684,0.5733397316376398,0.6089751586682435,-19.9118,-1.338314,1.00919,-0.041118,-0.028204520712228367,-0.011152653920243767,2.402567853511249
253.63408521303256,0.573339563213367,0.6089753504799282,-19.884153,-0.998991,1.289819,-0.025121,-0.03553490357060455,-0.009040805525330627,2.178956322105613
254.63659147869672,0.5733394436583132,0.60897561489731,-19.876453,-0.672033,1.49081,0.006945,-0.02483603525587931,-0.007819075048934596,1.9776850051255048
255.6390977443609,0.5733393696563529,0.6089759124759474,-19.883608,-0.357627,1.634645,0.003793,0.015132004614790837,-0.012269664641520135,1.793133785299869
256.64160401002505,0.5733393419056179,0.6089762318712005,-19.88496,-0.05127,1.737244,-0.006688,-0.011292280260403312,-0.01350884841043611,1.6238892426405642
257.64411027568923,0.5733393588353115,0.6089765671489498,-19.877182,0.244175,1.808831,-0.010297,0.012932889757277981,-0.012810716709638379,1.4704224589659953
258.64661654135335,0.5733394188746378,0.6089769137713392,-19.857422,0.523373,1.857206,-0.023588,0.015132004614790837,-0.012217304763960306,1.3329078624816069
259.64912280701753,0.5733395218490638,0.6089772703421054,-19.834255,0.788625,1.882714,-0.022483,3.490658503988659e-05,-0.009040805525330627,1.212043899047462
260.6516290726817,0.5733396646169965,0.6089776319743264,-19.824568,1.027201,1.892681,-0.002909,0.014678219009272311,-0.0066322511575784525,1.1211994765745723
261.65413533834584,0.5733398414188497,0.6089779944792121,-19.832083,1.212071,1.898214,0.014296,0.013351768777756621,-0.0064053583548191895,1.0663961380619502
262.65664160401,0.573340046320504,0.6089783580312953,-19.851282,1.341334,1.909924,0.021421,0.015376350710070043,-0.005899212871740834,1.0479655484273527
263.65914786967414,0.5733402691990495,0.608978722630576,-19.870617,1.400101,1.944014,0.012837,0.01329940890019679,-0.0060911990894602095,1.068508038816741
264.6616541353383,0.573340496440918,0.6089790929894433,-19.877354,1.382026,2.005726,-0.000803,0.014852751934471744,-0.005550147021341968,1.1242887442571874
265.6641604010025,0.5733407160033379,0.6089794727730885,-19.869299,1.286941,2.089171,-0.01335,0.012199851471440364,-0.003141592653589793,1.2076980117567038
266.66666666666663,0.5733409151454056,0.6089798679156312,-19.854244,1.125923,2.1787,-0.015458,0.01350884841043611,-0.0002443460952792061,1.31035834817218
267.6691729323308,0.573341082347948,0.6089802778934725,-19.84103,0.917663,2.256765,-0.008065,0.0244695161129605,0.003141592653589793,1.4202093538394107
268.671679197995,0.5733412127240431,0.6089807000886185,-19.839748,0.689805,2.307659,0.008496,0.024399702942880727,0.007976154681614086,1.528349936839687
269.6741854636591,0.5733413036556971,0.6089811303122792,-19.856224,0.460742,2.326974,0.021569,0.02288126649364566,0.009389871375729494,1.6280605446462455
270.6766917293233,0.573341357586371,0.6089815622812691,-19.884468,0.246062,2.324985,0.030376,0.01869247628885927,0.009704030641088473,1.712447336153219
271.6791979949875,0.5733413780067232,0.6089819919813309,-19.918264,0.061238,2.313415,0.031923,0.02012364627549462,0.00815068760681352,1.7797297090044304
272.6817042606516,0.5733413698036758,0.6089824190633988,-19.948524,-0.086536,2.307031,0.026384,0.021956241990088665,0.006579891280018622,1.826888435580147
273.6842105263158,0.5733413399585455,0.6089828468435985,-19.969572,-0.191935,2.315101,0.015363,0.023527038316883565,0.003560471674068432,1.855319796735257
274.68671679197996,0.5733412949290508,0.608983279859786,-19.976023,-0.262467,2.337361,-0.000215,0.021624629432209747,0.001308996938995747,1.86753718876568
275.6892230576441,0.5733412404747782,0.6089837193336917,-19.971682,-0.301531,2.369171,-0.00351,0.01960004749989632,0.003141592653589793,1.8661933550548144
276.69172932330827,0.5733411816571824,0.6089841652653154,-19.967758,-0.311152,2.407819,-0.000799,0.0113271868454432,0.005323254218582705,1.85214345457626
277.6942355889724,0.5733411254575805,0.6089846209707831,-19.971949,-0.291511,2.449865,0.009168,0.005689773361501515,0.006370451769779303,1.8278833779735388
278.69674185463657,0.573341073097703,0.6089850831339692,-19.985594,-0.246465,2.481669,0.009753,0.012531464029319286,0.008709192967451705,1.8191916208453145
279.69924812030075,0.5733410240539508,0.6089855341270478,-20.020781,-0.321535,2.27824,0.040536,-0.07120943348136864,-0.007138396640656807,1.9759745824585502
280.7017543859649,0.573340949004793,0.6089859245572015,-20.015049,-0.622681,1.852021,-0.036709,0.13651965409099645,-0.02125811028929093,2.2747574272942894
281.70426065162906,0.573340869592312,0.6089862275463596,-19.984879,-0.893562,1.375292,-0.018295,0.10204940136410845,0.00307177948351002,2.555685501522249
282.70676691729324,0.5733407571931083,0.608986427212026,-19.962168,-1.038759,0.960132,-0.029531,0.07115707360380881,0.00307177948351002,2.7928234742571814
283.70927318295736,0.5733405936557574,0.6089865415310921,-19.936644,-1.154547,0.60979,-0.024035,0.03584906283596353,0.0021467549799530253,2.9912327130634067
284.71177944862154,0.5733404100471201,0.608986604712011,-19.912348,-1.239078,0.316037,-0.029316,0.05096361415823442,-0.0015009831567151233,3.1594997491685475
285.7142857142857,0.5733402089851902,0.6089866197218425,-19.891121,-1.302317,0.049213,-0.016812,0.016074482410867775,-0.0029845130209103037,3.3061770798798107
286.71679197994985,0.5733399965786202,0.6089865919711074,-19.883194,-1.336866,-0.206911,-0.004129,0.028099800957108706,-0.007086036763096978,3.436832549857154
287.719298245614,0.5733397773652662,0.6089865186672788,-19.886358,-1.344615,-0.462723,0.005854,0.029949849964222695,-0.008168140899333463,3.552408148204463
288.72180451127815,0.573339558326445,0.6089864008575544,-19.894436,-1.337186,-0.698192,0.004315,0.03108431397801901,-0.010489428804485921,3.641472247573857
289.72431077694233,0.5733393410329531,0.6089862420325924,-19.891314,-1.328703,-0.888209,-0.009903,0.020839231268812295,-0.0102799892942466,3.7049151404167757
290.7268170426065,0.5733391263574553,0.6089860496973089,-19.874897,-1.332548,-1.028296,-0.01975,0.02876302607286655,-0.008203047484373348,3.741514694831096
291.72932330827064,0.5733389092384963,0.6089858353708767,-19.854668,-1.365042,-1.121625,-0.017766,0.02183406894244906,-0.005393067388662479,3.752388113524314
292.7318295739348,0.5733386846146216,0.6089856088271398,-19.840385,-1.423104,-1.180336,-0.012189,0.014538592669112765,-0.0036477381366681488,3.7375529719619944
293.734335839599,0.5733384500423702,0.6089853768728822,-19.833042,-1.503309,-1.193402,-0.007121,0.013124875974997358,-0.0015184364492350666,3.700778710089549
294.7368421052631,0.5733382018565504,0.6089851470130196,-19.83107,-1.594254,-1.1569,-0.000858,0.0029321531433504737,0.00013962634015954637,3.644788425512523
295.7393483709273,0.5733379390099651,0.6089849312903242,-19.8333,-1.689004,-1.067395,0.00464,-0.0057246799465414016,0.002286381320112572,3.574783234308446
296.7418546365915,0.5733376613280811,0.6089847361625138,-19.840675,-1.779805,-0.943134,0.007034,-0.011588986233242348,0.0033859387488689996,3.49797153827427
297.7443609022556,0.5733373716034252,0.608984570007169,-19.850037,-1.859729,-0.798167,0.009795,-0.008464846872172497,0.00481710873550435,3.4200599706520736
298.7468671679198,0.573337071406794,0.6089844335224215,-19.859909,-1.929191,-0.641182,0.006672,-0.004956735075663896,0.005969026041820607,3.3442253971996276
299.74937343358397,0.573336758469259,0.6089843305479956,-19.867016,-1.989434,-0.476583,0.004822,-0.014067353771074298,0.007539822368615503,3.273574381812434
300.7518796992481,0.5733364362814791,0.6089842589894964,-19.873699,-2.037641,-0.309663,0.009325,-0.00815068760681352,0.00905825881785057,3.211091838937133
301.7543859649123,0.573336107635981,0.6089842186723905,-19.887194,-2.07378,-0.160386,0.017127,-0.01075122819228507,0.008726646259971648,3.1591506135049787
302.7568922305764,0.5733357737544951,0.6089842057569541,-19.911047,-2.102422,-0.038982,0.025785,-0.01101302758008422,0.006981317007977318,3.1200902844716856
303.7593984962406,0.573335435509686,0.6089842134364029,-19.93936,-2.124815,0.04721,0.025236,-0.01033234917180643,0.004136430327226561,3.093107406969391
304.76190476190476,0.5733350942978173,0.6089842350784855,-19.961788,-2.144152,0.106313,0.0149,-0.0108035880698449,0.0020943951023931952,3.0766141851643845
305.7644110275689,0.5733347508170205,0.6089842652726816,-19.971588,-2.162604,0.146749,0.002068,-0.008360127117052838,0.0018500490071139892,3.069458265418038
306.76691729323306,0.5733344047182298,0.6089842989575361,-19.971121,-2.182909,0.171055,-0.004726,-0.011484266478122689,0.002670353755551324,3.0696153974105944
307.76942355889724,0.5733340551287807,0.6089843356094504,-19.96789,-2.206749,0.174899,-0.004531,-0.003892084231947355,0.004310963252425994,3.0775215294826186
308.77192982456137,0.573333702048673,0.6089843715632329,-19.966045,-2.227158,0.161244,-0.002442,-0.00481710873550435,0.005829399701661061,3.090751037946273
309.77443609022555,0.5733333451288409,0.6089844047244888,-19.969362,-2.239458,0.138572,0.006496,-0.008674286382411817,0.006911503837897545,3.10630204375459
310.77694235588973,0.5733329868127455,0.6089844305553618,-19.985052,-2.242814,0.101236,0.022089,-0.013124875974997358,0.0060911990894602095,3.1234759614211667
311.77944862155385,0.5733326373978292,0.608984446437858,-20.015512,-2.088961,0.007983,0.040297,-0.009232791743050004,0.00015707963267948965,3.24039565527873
312.78195488721803,0.5733323295217492,0.6089844106586082,-20.019623,-1.775735,-0.455404,-0.037497,0.02696533694331239,-0.026825710603152843,3.5359498155312044
313.7844611528822,0.5733320764490076,0.6089843115239069,-19.965492,-1.441507,-0.874935,-0.061752,0.0645771823237902,-0.010000736613927507,3.7987963659749657
314.78696741854634,0.5733318924913045,0.6089841607274594,-19.909838,-1.094613,-1.146108,-0.053509,0.01876228945893904,-0.008325220532012952,4.02659649559917
315.7894736842105,0.5733317594972155,0.608983923537214,-19.86515,-0.774255,-1.34793,-0.03217,0.09370672753957555,0.0005061454830783556,4.22819993128264
316.79197994987464,0.5733316704854237,0.6089836542329105,-19.861099,-0.471191,-1.505276,0.011289,0.013578661580515884,0.0022514747350726853,4.408823776318854
317.7944862155388,0.5733316235360667,0.6089833575269377,-19.875912,-0.183405,-1.641513,0.009348,0.04883431247080134,-0.004153883619746504,4.573792751002962
318.796992481203,0.5733316207435399,0.6089830360372894,-19.878002,0.09604,-1.732396,-0.01027,0.04944517770899936,-0.0034557519189487725,4.724082389667079
319.79949874686713,0.5733316579190529,0.6089827016322048,-19.864986,0.366685,-1.774474,-0.018758,0.027733281814189895,-0.002775073510670984,4.860899098796765
320.8020050125313,0.5733317361098035,0.6089823612930007,-19.85161,0.616441,-1.790502,-0.007875,0.04143411644234538,0.00015707963267948965,4.979843322226763
321.8045112781955,0.5733318507779354,0.6089820195575331,-19.855021,0.835383,-1.807341,0.010664,0.03787364476827695,0.0016057029118347831,5.072380714074088
322.8070175438596,0.5733319987818559,0.6089816746804729,-19.873007,1.018309,-1.834246,0.019332,0.028379053637427796,0.000767944870877505,5.136155428914396
323.8095238095238,0.5733321764563737,0.6089813245674248,-19.88909,1.166824,-1.866466,0.010532,0.01907644872429802,-0.0014311699866353504,5.170276388898082
324.812030075188,0.5733323743767109,0.6089809669494611,-19.892498,1.266672,-1.905228,-0.002418,0.018989182261698306,-0.00445058959258554,5.171637257022447
325.8145363408521,0.5733325839907542,0.6089806014775159,-19.884348,1.296257,-1.964116,-0.007797,0.011955505376161158,-0.004310963252425994,5.138092081158994
326.8170426065163,0.573332792208534,0.6089802251845291,-19.880373,1.248549,-2.045764,0.000876,0.002495820830351891,-0.0026354471705114374,5.075713926426253
327.8195488721804,0.5733329885580748,0.6089798359761059,-19.885546,1.133686,-2.14182,0.006875,-0.0074176493209759005,-0.0005061454830783556,4.991397174982163
328.8220551378446,0.5733331616947365,0.6089794310597194,-19.890495,0.974678,-2.229052,-0.004163,-0.008045967851693859,-0.0004886921905584122,4.8966259362252105
329.82456140350877,0.573333305160801,0.6089790127042978,-19.880943,0.782552,-2.285249,-0.016873,-0.014538592669112765,0.001239183768915974,4.79693262463154
330.8270676691729,0.5733334133712147,0.6089785859712956,-19.86989,0.56663,-2.314753,-0.003943,-0.019128808601857852,0.006056292504420323,4.699543496716352
331.8295739348371,0.5733334858023786,0.6089781566202996,-19.878511,0.349289,-2.337136,0.015315,-0.008831366015091307,0.007714355293814937,4.611491391607142
332.83208020050125,0.5733335231524246,0.608977721858783,-19.898788,0.154562,-2.355519,0.01605,-0.011187560505283653,0.005864306286700947,4.538798288635238
333.8345864661654,0.5733335299592086,0.6089772846538053,-19.910385,-0.008556,-2.357424,0.004209,-0.009983283321407565,0.004031710572106902,4.482860713001623
334.83709273182956,0.5733335123313832,0.6089768481469594,-19.916616,-0.138979,-2.351917,0.007683,-0.011501719770642632,0.003560471674068432,4.444149537085192
335.83959899749374,0.5733334763776007,0.608976410418383,-19.929974,-0.23351,-2.36121,0.013353,-0.011274826967883369,0.0025830872929516074,4.4223150841703065
336.84210526315786,0.5733334271593158,0.6089759683264835,-19.942638,-0.289486,-2.380352,0.004457,-0.009721483933608416,0.0014311699866353504,4.417654810721387
337.84461152882204,0.5733333709597138,0.608975521347662,-19.942451,-0.305034,-2.399598,-0.006532,-0.007871434926494426,0.0019896753472735357,4.4259628048536825
338.8471177944862,0.5733333152837108,0.6089750705291163,-19.93885,-0.292011,-2.421244,0.000449,-0.0038222710618675817,0.005480333851262195,4.445545573593984
339.84962406015035,0.5733332639710307,0.6089746143000497,-19.947092,-0.253688,-2.456861,0.012866,-0.003560471674068432,0.006841690667817772,4.473017143286838
340.8521303258145,0.5733332208613983,0.6089741596417797,-19.9545,-0.173104,-2.352399,0.015002,-0.0633729051399141,0.014067353771074298,4.552516751088839
341.85463659147865,0.5733332149272787,0.6089737377956994,-19.955349,0.213508,-2.144446,-0.048194,0.01007054978400728,-0.024452062820440556,4.814717756602165
342.85714285714283,0.5733332782827305,0.6089733627244431,-19.891245,0.693372,-1.866998,-0.055885,0.1619316480000339,0.005829399701661061,5.108020197773472
343.859649122807,0.5733333821298211,0.6089730604334167,-19.867714,1.107072,-1.611277,0.00852,0.08066911802717791,0.02515019452123829,5.336029941440841
344.86215538847114,0.573333564342195,0.6089727883365864,-19.88772,1.3882,-1.521234,0.028484,0.09902998175815826,0.01764527873766267,5.424256195502815
345.8646616541353,0.5733337971691171,0.6089725179850852,-19.904839,1.553047,-1.522809,0.007014,-0.005602506898901798,0.003560471674068432,5.444083432511443
346.8671679197995,0.5733340701386122,0.6089722486807816,-19.892494,1.625238,-1.499059,-0.027709,-0.006911503837897545,-0.006178465552059927,5.449895518546924
347.8696741854636,0.5733343422354426,0.6089719785038133,-19.852997,1.642354,-1.449767,-0.046812,-0.0019373154697137059,-0.009389871375729494,5.452879857034909
348.8721804511278,0.5733346082236206,0.6089717107703062,-19.810329,1.647171,-1.413088,-0.036002,-0.002495820830351891,-0.0058468529941810045,5.452007401848421
349.874686716792,0.5733348675795474,0.6089714535087744,-19.785767,1.641943,-1.395446,-0.014787,-0.0018849555921538759,-0.000296705972839036,5.447364442065682
350.8771929824561,0.5733351237938816,0.6089711983416378,-19.779331,1.632516,-1.388224,-0.003466,-0.014870205226991687,0.002949606435870417,5.4431412165147535
351.8796992481203,0.5733353784374194,0.6089709443962316,-19.77467,1.616538,-1.377249,-0.010887,-0.01228711793404008,0.005270894341022875,5.439440472728703
352.88220551378447,0.5733356301138977,0.6089706907998913,-19.757929,1.59816,-1.352611,-0.023695,-0.008970992355250854,0.008866272600131194,5.437171998486716
353.8847117794486,0.5733358784742503,0.6089704424395388,-19.733528,1.581688,-1.318021,-0.021322,-0.0020594885173533086,0.01514945790731078,5.435757862913579
354.8872180451128,0.5733361235184772,0.608970201584102,-19.721666,1.568323,-1.292691,0.0016,-0.006911503837897545,0.022671826983406338,5.43340203494253
355.8897243107769,0.5733363664683091,0.6089699635211919,-19.737125,1.554887,-1.286004,0.027552,-0.009337511498169663,0.02707005669843205,5.429579851147125
356.8922305764411,0.5733366076728117,0.6089697265054796,-19.770802,1.538438,-1.286303,0.034999,-0.01054178868204575,0.025743606466916362,5.42580988760294
357.89473684210526,0.5733368464338534,0.6089694900133659,-19.799568,1.519847,-1.277161,0.020255,-0.008604473212332044,0.02223549467040776,5.424012250833263
358.8972431077694,0.5733370825769011,0.6089692554411145,-19.811914,1.504782,-1.249889,0.006323,-0.00905825881785057,0.021031217486531674,5.422929954710809
359.89974937343356,0.5733373159274221,0.6089690264539166,-19.815908,1.489738,-1.220035,0.005324,-0.007400196028455957,0.022218041377887812,5.420137358094448
360.90225563909775,0.5733375461363505,0.6089688027027065,-19.827734,1.473967,-1.201175,0.019972,-0.006230825429619756,0.02452187599052033,5.415983893353721
361.90476190476187,0.5733377737272849,0.6089685813949574,-19.857153,1.456326,-1.195808,0.037722,-0.008936085770210968,0.02426007660272118,5.411532675442605
362.90726817042605,0.5733379974784951,0.608968360436274,-19.9,1.439254,-1.196331,0.043873,-0.005462880558742251,0.02066469834361286,5.40811212681467
363.90977443609023,0.5733382207061064,0.6089681389539919,-19.939085,1.424963,-1.190896,0.031035,-0.00895353906273091,0.014538592669112765,5.406070004323373
364.91228070175436,0.5733384418393226,0.608967919566105,-19.956648,1.41013,-1.170558,0.005465,-0.0072082098107365804,0.009302604913129777,5.405319530198309
365.91478696741854,0.5733386610526766,0.6089677041924753,-19.953852,1.391725,-1.144164,-0.007757,-0.0045204027626653135,0.007592182246175334,5.404586090486743
366.91729323308266,0.5733388762517734,0.6089674919604382,-19.948664,1.376092,-1.125727,5.1e-05,0.00022689280275926284,0.009232791743050004,5.40259725289751
367.91979949874684,0.5733390888328763,0.6089672889786463,-19.957563,1.33607,-1.073567,0.015632,0.05242969072990966,0.01022762941668677,5.342260662150706
368.922305764411,0.5733392898948061,0.608967081982597,-19.976753,1.234231,-1.174568,0.018715,0.08689994345679768,0.006283185307179586,5.175407238019925
369.92481203007515,0.573339476994102,0.6089668659108355,-19.989799,1.03298,-1.290919,0.006455,0.07394960040699974,-0.004241150082346221,4.965409519125941
370.9273182957393,0.5733396318048065,0.608966638494434,-19.978609,0.768354,-1.361777,-0.025192,0.009459684545809267,-0.007260569688296411,4.748674550066577
371.9298245614035,0.5733397387934898,0.6089663974644643,-19.955606,0.466404,-1.38281,-0.017007,0.02546435378659727,0.0016929693744344998,4.536930873602068
372.93233082706763,0.5733397911533673,0.6089661491041117,-19.936834,0.171219,-1.402233,-0.018121,-0.02035053907825388,0.006213372137099813,4.356656164229423
373.9348370927318,0.5733397937713611,0.608965898649364,-19.928699,-0.102608,-1.398919,0.0046,0.00013962634015954637,0.013631021458075715,4.203486051621108
374.937343358396,0.5733397499635969,0.6089656438312933,-19.939575,-0.349265,-1.378178,0.013945,0.034016467121369486,0.011414453308042916,4.07300500984921
375.9398496240601,0.5733396674095234,0.6089653911076176,-19.958149,-0.582908,-1.332051,0.022261,0.04843288674284264,0.007086036763096978,3.958005195622133
376.9423558897243,0.5733395502979306,0.6089651469360553,-19.981884,-0.797895,-1.272747,0.027111,0.053791047546465236,0.003438298626428829,3.8619947730962654
377.9448621553885,0.5733394014213453,0.6089649135855343,-20.00812,-0.983642,-1.21634,0.029666,0.057735491655972415,0.001239183768915974,3.7897381595169923
378.9473684210526,0.5733392247940251,0.6089646908815217,-20.032993,-1.143458,-1.167685,0.020241,0.05337216852598659,-3.490658503988659e-05,3.734027214886748
379.9498746867168,0.5733390277463525,0.6089644796966822,-20.044903,-1.225516,-1.087942,0.004069,0.03900810878207326,-0.0005410520681182421,3.697253232266983
