Time [s],Longitude [rad],Latitude [rad],Altitude [m],V North [m/s],V East [m/s],V Down [m/s],Roll [rad],Pitch [rad],Yaw [rad]
0.0,0.6096589254366326,0.5734268052413571,-11.233248,1.822875,-0.991922,0.012332,0.027663468644110126,-0.017575465567582826,-0.48214720586343357
1.0025062656641603,0.6096587505546416,0.5734271111975751,-11.246019,1.948266,-0.832126,0.018738,0.01572541656046891,-0.013439035240356167,-0.40676643546979846
2.0050125313283207,0.6096586070885771,0.5734274295456305,-11.279463,2.001715,-0.69956,0.044056,-0.007993607974134032,-0.007592182246175305,-0.34951965345767744
3.007518796992481,0.609658488231655,0.5734277557476678,-11.327631,2.026969,-0.621979,0.042064,-0.008517206749732328,0.0001221730476397287,-0.3055897510915646
4.010025062656641,0.6096583824647024,0.5734280775863819,-11.355957,2.032117,-0.56724,0.00566,-0.01670280094158573,0.009337511498169748,-0.2707007415172458
5.012531328320802,0.6096582869951922,0.5734283994250959,-11.336946,2.040295,-0.497815,-0.043191,-0.00019198621771937663,0.016441001553786583,-0.24237375105140505
6.015037593984962,0.6096582028703224,0.5734287209147442,-11.278131,2.057569,-0.415526,-0.069141,0.008272860654453122,0.021886428820008907,-0.2212729996474734
7.017543859649122,0.6096581344534157,0.5734290458950508,-11.208636,2.066416,-0.348758,-0.06471,-3.490658503988601e-05,0.025761059759436433,-0.20895055624937364
8.020050125313283,0.6096580805227417,0.5734293724461539,-11.163726,2.065628,-0.320051,-0.025098,0.0008203047484373346,0.025551620249196993,-0.2038197071275303
9.022556390977442,0.609658026243002,0.5734296995208558,-11.156609,2.068694,-0.349493,-0.004214,-0.004433136300065598,0.023561944901923537,-0.20317416219709575
10.025062656641603,0.6096579639347477,0.5734300267700906,-11.13455,2.075148,-0.373389,-0.055277,-0.010349802464326374,0.02569124658935662,-0.2003293627828076
11.027568922305765,0.6096578995320984,0.5734303550665228,-11.04705,2.077501,-0.327285,-0.110761,-0.0026354471705114365,0.02811725424962863,-0.1936970243587661
12.030075187969924,0.6096578431579636,0.5734306828393564,-10.944301,2.078699,-0.270222,-0.083773,0.0032288591161895096,0.02588323280707594,-0.19168954665312235
13.032581453634084,0.6096577958595407,0.5734310088668606,-10.893356,2.078495,-0.273611,-0.025004,-0.0075398223686155025,0.021711895894809485,-0.1972747224325515
14.035087719298245,0.6096577480375193,0.5734313369887599,-10.884426,2.076736,-0.319106,-0.010145,-0.008970992355250854,0.018552849948699768,-0.20361038979033919
15.037593984962406,0.6096576918379174,0.573431665983324,-10.858847,2.071753,-0.343242,-0.049378,-0.005497787143782138,0.017819811662862062,-0.20614092521951322
16.040100250626566,0.609657629704196,0.573431992534427,-10.790814,2.069272,-0.313082,-0.083129,0.0032288591161895104,0.016824973989225445,-0.20448282752353308
17.042606516290725,0.6096575740281929,0.5734323203072605,-10.714806,2.075081,-0.272546,-0.06076,-0.0008203047484373351,0.013613568165555812,-0.20739740520131567
18.045112781954884,0.6096575256825725,0.5734326479055611,-10.683571,2.085388,-0.285949,-0.004104,-0.007819075048934598,0.010192722831646961,-0.21642072252754146
19.047619047619047,0.6096574741953596,0.5734329781218557,-10.697202,2.082817,-0.347074,0.017322,-0.013002702927357754,0.00911061869541041,-0.2252517569300754
20.050125313283207,0.6096574090945786,0.5734333060692222,-10.700891,2.065656,-0.385847,-0.01918,-0.010122909661567111,0.009983283321407521,-0.22645657516601966
21.052631578947366,0.6096573377106121,0.5734336312240618,-10.655172,2.055053,-0.35455,-0.065409,0.002094395102393195,0.00961676417848878,-0.22259925789277207
22.05513784461153,0.6096572738315614,0.5734339544590392,-10.589313,2.059466,-0.300351,-0.0535,0.007138396640656806,0.006038839211900404,-0.222232808563023
23.05764411027569,0.6096572207735522,0.5734342789157472,-10.568998,2.071513,-0.302895,0.013537,-0.00614355896702004,0.0019722220547535585,-0.22869043952894
24.06015037593985,0.6096571649230161,0.573434608084844,-10.608521,2.078187,-0.375601,0.047227,-0.011658799403322123,0.001378810109075479,-0.23719017553285873
25.062656641604008,0.6096570958079778,0.5734349344614141,-10.6355,2.034358,-0.40788,-0.004485,-0.018343410438460397,0.005619960191421747,-0.19504033447085625
26.065162907268167,0.6096570347214539,0.5734352610125172,-10.597057,2.10025,-0.234693,-0.062389,0.03787364476827695,0.009983283321407521,-0.10800130572596724
27.06766917293233,0.609656985677702,0.5734355873890874,-10.535094,2.09834,-0.090779,-0.045074,-0.0007330382858376184,0.007120943348136954,-0.06325060991922651
28.07017543859649,0.6096569722386668,0.5734359203979086,-10.517377,2.101954,-0.045792,0.008636,-0.003246312408709453,0.005393067388662631,-0.05016064052926896
29.07268170426065,0.6096569743330618,0.5734362535812628,-10.539702,2.105945,-0.066502,0.024079,0.0,0.005358160803622614,-0.05562385270056971
30.075187969924812,0.6096569699697387,0.5734365874627487,-10.553276,2.098735,-0.083055,-0.006251,-0.0027401669256310974,0.0050963614158234805,-0.07061584700276603
31.07769423558897,0.6096569605449607,0.5734369192498395,-10.526041,2.082834,-0.079288,-0.042898,-0.0037350045992678655,0.002024581932313474,-0.09431797675020917
32.08020050125313,0.6096569498984524,0.5734372477208048,-10.487463,2.078903,-0.086718,-0.022688,0.0016929693744344998,-0.00420624349730625,-0.12522716439108297
33.08270676691729,0.6096569350631537,0.5734375772389676,-10.487562,2.089871,-0.14529,0.025744,-0.008587019919812101,-0.00949459113084905,-0.15603247003487766
34.08521303258145,0.6096569099304124,0.5734379069316633,-10.522575,2.094283,-0.220229,0.034656,-0.022165681500327987,-0.012339477811599942,-0.17249082016142955
35.08771929824561,0.6096568710095701,0.5734382369734249,-10.543262,2.083022,-0.229132,0.004867,-0.006335545184739416,-0.014329153158873398,-0.16400864216978417
36.09022556390977,0.6096568305179315,0.5734385659679888,-10.542326,2.074755,-0.174122,0.003637,0.000139626340159547,-0.01900663555421822,-0.13156281429557765
37.092731829573935,0.6096567998001367,0.5734388937408224,-10.566505,2.08213,-0.1127,0.045931,-0.002495820830351891,-0.02352703831688352,-0.07695203795932783
38.095238095238095,0.6096567816487124,0.5734392232589851,-10.625526,2.098729,-0.03801,0.063368,-0.007714355293814937,-0.024958208303518914,0.002094395102393195
39.097744360902254,0.6096567788561856,0.5734395546970101,-10.679236,2.106135,0.089425,0.040151,0.001989675347273536,-0.024661502330679763,0.10649999095669398
40.100250626566414,0.609656803639861,0.5734398875312985,-10.701916,2.094976,0.295469,0.00966,0.01085594794740473,-0.024556782575560154,0.23183208454240672
41.10275689223057,0.6096568708350372,0.5734402167003954,-10.710947,2.049833,0.548595,0.017092,0.024486969405480445,-0.026808257310632744,0.3661002638983305
42.10526315789473,0.6096569882956959,0.5734405357465826,-10.744713,1.967638,0.790121,0.056492,0.016563174601426187,-0.028344147052387747,0.5045397976198133
43.10776942355889,0.6096571514839809,0.5734408387357408,-10.821802,1.858729,0.991963,0.094229,0.012304571226560023,-0.027209683038591503,0.6472378998095772
44.11027568922306,0.6096573527204437,0.5734411233989418,-10.914551,1.724057,1.190757,0.084838,0.020001473227855008,-0.026720990848033033,0.7946658966321233
45.11278195488722,0.6096575895616232,0.5734413838020661,-10.983402,1.549324,1.404607,0.05509,0.03199188518905605,-0.02850122668506727,0.943437657352365
46.11528822055138,0.609657867592573,0.5734416134873958,-11.02318,1.334134,1.622146,0.034937,0.025987952562195573,-0.026197392072434766,1.0909877748626728
47.11779448621554,0.6096581845443652,0.5734418098369366,-11.05545,1.092366,1.802788,0.039518,0.01761037215262278,-0.018570303241219666,1.2374733462490195
48.1203007518797,0.6096585357046107,0.5734419636004437,-11.097445,0.833927,1.926596,0.050565,0.025848326222036023,-0.011606439525762235,1.3802587323546753
49.122807017543856,0.609658906063478,0.5734420754760488,-11.148803,0.568889,2.002697,0.051631,0.028920105705546043,-0.006841690667817701,1.517860542941786
50.125313283208015,0.6096592877669854,0.5734421445910871,-11.197625,0.297091,2.0453,0.043667,0.020071286397934786,-0.003036872898469989,1.649737621222478
51.127819548872175,0.6096596752300792,0.5734421705964929,-11.229436,0.029778,2.069982,0.018936,0.027436575841350865,0.0018675022996339496,1.7727659325554355
52.130325814536334,0.6096600635658379,0.5734421555866613,-11.233442,-0.219894,2.081616,-0.009877,0.010995574287564275,0.009529497715889068,1.8857060662789409
53.1328320802005,0.6096604532978598,0.5734421013069217,-11.217857,-0.441136,2.05279,-0.019465,0.017243853009703977,0.01638864167622689,1.9897451255370304
54.13533834586466,0.6096608351759002,0.5734420147385907,-11.20177,-0.640503,1.984734,-0.013626,0.003857177646907469,0.020647245051093055,2.086907622448847
55.13784461152882,0.6096612009969113,0.5734418974524651,-11.187449,-0.849813,1.892805,-0.018079,0.0040317105721069035,0.023701571242083164,2.192168534356381
56.14035087719298,0.6096615458739716,0.5734417468305506,-11.158469,-1.045762,1.801143,-0.041681,0.011362093430483083,0.027698375229149974,2.282628652781274
57.14285714285714,0.609661873646805,0.5734415735193559,-11.10784,-1.210461,1.702504,-0.059336,0.005689773361501516,0.02951351765122423,2.3601562130614466
58.1453634085213,0.609662184140879,0.5734413700139651,-11.040249,-1.341097,1.618838,-0.076197,-0.00685914396033772,0.031817352263856735,2.4254838171504245
59.14786967418546,0.6096624808468518,0.57344114835715,-10.959044,-1.43085,1.543281,-0.085449,-0.013264502315156903,0.03569198320328404,2.4817185874490697
60.150375939849624,0.6096627613212626,0.5734409144830303,-10.878011,-1.507709,1.452035,-0.076959,-0.0019024088846738207,0.03752457891787819,2.542822686734439
61.152882205513784,0.609663024167848,0.5734406697878692,-10.810541,-1.597283,1.328021,-0.061461,0.002076941809873254,0.03714060648243933,2.608935671533521
62.15538847117794,0.6096632611835605,0.5734404139226008,-10.756923,-1.692476,1.191347,-0.048536,0.0009773843811168264,0.03324852225049213,2.672605195379812
63.1578947368421,0.6096634732410645,0.5734401432220338,-10.710245,-1.773141,1.066563,-0.047124,-0.0019547687622336494,0.027890361446869516,2.728961946739879
64.16040100250626,0.6096636606894262,0.573439858035234,-10.656484,-1.836355,0.961875,-0.062547,-0.0028623399732707008,0.022322761133007463,2.7775169541704834
65.16290726817043,0.6096638338260881,0.5734395635981893,-10.581731,-1.886955,0.886521,-0.082607,-0.004956735075663895,0.016336281798666974,2.8203648222135294
66.16541353383458,0.6096639956181097,0.573439263052492,-10.492913,-1.926967,0.838987,-0.086955,-0.01452113937659282,0.010821041362364836,2.8579241855434
67.16791979949875,0.6096641500797485,0.5734389586670705,-10.426696,-1.953334,0.789975,-0.040188,-0.017784905077822218,0.005759586531581373,2.889933524024976
68.1704260651629,0.609664293545813,0.5734386500928588,-10.41624,-1.972517,0.697039,0.014626,-0.005393067388662479,0.0015009831567152077,2.917230648059092
69.17293233082707,0.6096644178132558,0.5734383387261203,-10.451449,-1.98527,0.589834,0.046118,-0.004834562028024293,-0.005061454830783463,2.9355390820993423
70.17543859649122,0.6096645197404841,0.5734380259631183,-10.49278,-2.004136,0.527269,0.026757,-0.008656833089891876,-0.011309733552923085,2.942241198786878
71.17794486215539,0.6096646139882637,0.5734377098839908,-10.495621,-2.010776,0.544266,-0.012563,-0.014713125594312199,-0.015533430342749455,2.9401293154853803
72.18045112781954,0.6096647143446956,0.573437392059534,-10.478373,-2.021435,0.584,-0.012411,-0.019547687622336496,-0.018657569703819377,2.935643749494585
73.1829573934837,0.6096648258712349,0.5734370738860113,-10.478003,-2.015705,0.60735,0.020055,-0.019495327744776667,-0.019634954084936096,2.9286273862752275
74.18546365914787,0.60966494193563,0.5734367579814167,-10.523742,-2.012628,0.591959,0.067924,-0.019460421159736774,-0.02069960492865275,2.9203372294078873
75.18796992481202,0.6096650529385705,0.5734364426004208,-10.600751,-2.000341,0.555042,0.074111,4.337963350313731e-19,-0.023073252711365067,2.909690982770109
76.19047619047619,0.6096651566111281,0.5734361294883531,-10.657458,-1.982839,0.56269,0.035369,-0.0016580627893946133,-0.026040312439755242,2.893406816502907
77.19298245614034,0.6096652660432722,0.5734358209141414,-10.673329,-1.95536,0.638413,0.009762,-0.011588986233242348,-0.027872908154349396,2.8747841184775424
78.19548872180451,0.6096653908343138,0.5734355165287197,-10.691357,-1.936859,0.704591,0.035152,-0.007382742735936013,-0.027122416575991792,2.8627937763295117
79.19799498746866,0.6096655260973308,0.5734352158084897,-10.750838,-1.936961,0.706844,0.080482,-0.0027750735106709845,-0.026127578902354953,2.85710393315484
80.20050125313283,0.6096656604876832,0.5734349133429302,-10.834377,-1.945633,0.671461,0.074997,0.00312413936106985,-0.022881266493645525,2.8523741606951054
81.203007518797,0.6096657885948502,0.5734346100047063,-10.888979,-1.93956,0.666162,0.032925,-0.004014257279586958,-0.018884462506578492,2.8440315392304503
82.20551378446115,0.6096659158293528,0.5734343068410152,-10.901268,-1.924838,0.710183,0.000477,-0.0045029494701453706,-0.015201817784870508,2.834763736182605
83.20802005012531,0.6096660523141003,0.5734340059462522,-10.900474,-1.913826,0.757683,0.005471,-0.004677482395344803,-0.01223475805648011,2.8304701913161137
84.21052631578947,0.609666199794422,0.573433705226022,-10.91721,-1.911953,0.769464,0.029795,-0.004049163864626844,-0.009791297103688201,2.832232938954043
85.21303258145363,0.6096663458784805,0.5734334064256541,-10.954091,-1.917292,0.741958,0.037694,0.0035779249665883746,-0.00567232006898144,2.836910508615851
86.21553884711778,0.6096664875992157,0.5734331067526216,-10.982704,-1.920557,0.712543,0.014475,0.005375614096142536,-0.0022514747350725894,2.8409073824160878
87.21804511278195,0.6096666211169035,0.5734328058578584,-10.983833,-1.919153,0.709047,-0.009241,-0.0037175513067479213,-0.00045378560551845304,2.8433857150473347
88.22055137844612,0.6096667535873938,0.5734325053121613,-10.969445,-1.921696,0.719255,-0.013946,-0.002007128639793479,-8.726646259971105e-05,2.8463527573224323
89.22305764411027,0.6096668885013449,0.5734322042428653,-10.952606,-1.933349,0.722887,-0.019975,0.0009424777960769377,0.0009424777960769237,2.8513794626478086
90.22556390977444,0.6096670260332899,0.5734319019518389,-10.928819,-1.935458,0.720086,-0.024779,-5.235987755982984e-05,0.003019419605950313,2.857034154891345
91.22807017543859,0.6096671637397679,0.5734315973918844,-10.909878,-1.927527,0.716988,-0.012108,0.0019198621771937627,0.00422369678982637,2.8617466136849
92.23057644110276,0.6096672977810546,0.5734312952753908,-10.910684,-1.919969,0.695797,0.011136,0.005759586531581288,0.003019419605950313,2.865917933143874
93.23308270676691,0.609667427109952,0.5734309943806278,-10.928569,-1.926552,0.656928,0.018459,0.011676252695842066,0.00036651914291896404,2.8698274532150485
94.23558897243107,0.6096675473631376,0.5734306915660026,-10.935886,-1.940201,0.633722,-0.003504,0.0026354471705114374,-0.0016755160819144077,2.8708745984063677
95.23809523809523,0.6096676663945926,0.5734303852607189,-10.914931,-1.955095,0.648948,-0.037776,-0.0029845130209103037,-0.00274016692563106,2.8683611148439856
96.2406015037594,0.6096677918837657,0.5734300777337047,-10.863598,-1.95331,0.699721,-0.055151,-0.0077318085863348806,-0.002024581932313252,2.8631253365275127
97.24310776942356,0.6096679281939803,0.5734297719520198,-10.81824,-1.940022,0.74051,-0.027068,-0.003926990816987242,-0.0013439035240354613,2.8612403460287736
98.24561403508771,0.6096680695656498,0.573429470359125,-10.818813,-1.924946,0.722601,0.025867,0.001308996938995747,-0.0007504915783576038,2.8638409389741226
99.24812030075188,0.6096682077957264,0.5734291703370266,-10.863105,-1.920275,0.666103,0.051937,0.007452555906015787,-0.0018151424220740342,2.8671570994594973
100.25062656641603,0.6096683313650375,0.5734288704894611,-10.90947,-1.926005,0.625896,0.031542,0.005585053606381854,-0.004153883619746335,2.8675933270527407
101.2531328320802,0.6096684481275645,0.5734285687220334,-10.917042,-1.940763,0.637648,-0.017243,0.0038222710618675813,-0.004886921905584041,2.864207388303872
102.25563909774435,0.609668568206217,0.5734282636384802,-10.876399,-1.953203,0.691303,-0.052818,-0.005078908123303498,-0.00274016692563106,2.859285594719833
103.25814536340852,0.6096687029456352,0.5734279555878672,-10.823138,-1.952352,0.741122,-0.041047,-0.012723450247038665,1.74532925198978e-05,2.856580351832534
104.26065162907267,0.6096688471098315,0.573427650155248,-10.803467,-1.934834,0.748263,0.003344,-0.003996803987067016,0.0020769418098733894,2.85698169029403
105.26315789473684,0.6096689910994948,0.5734273494350179,-10.832372,-1.911981,0.716597,0.047725,0.0005585053606381855,0.0003141592653590486,2.85944272671239
106.265664160401,0.6096691246171826,0.5734270511582488,-10.88426,-1.911018,0.67112,0.044497,0.007958701389094143,-0.0031241393610697,2.863509361322829
107.26817042606515,0.6096692488846253,0.5734267534050784,-10.902527,-1.924357,0.656203,-0.008056,0.007557275661135449,-0.0036128315516281706,2.8647136559599975
108.27067669172932,0.6096693719303375,0.5734264516376507,-10.870017,-1.940405,0.679942,-0.045994,0.0018151424220741027,-0.0024434609527919093,2.8646784875755698
109.27318295739347,0.6096695024809656,0.573426145332367,-10.821469,-1.949951,0.712905,-0.040815,-0.007155849933176752,-0.0001745329251994221,2.8658132657486317
110.27568922305764,0.6096696419327728,0.5734258392016163,-10.796635,-1.947468,0.725881,-0.008698,-0.006667157742618339,0.0007679448708775016,2.8676282161844884
111.27819548872179,0.6096697831299093,0.5734255342925959,-10.803001,-1.933233,0.713617,0.016706,0.00010471975511965975,-0.0006806784082777906,2.8706825947353556
112.28070175438596,0.6096699182183933,0.5734252313034377,-10.827092,-1.920639,0.682856,0.027072,0.004066617157146788,-0.003211405823669411,2.876285084180965
113.28320802005013,0.6096700445802312,0.5734249307577406,-10.853148,-1.923958,0.653513,0.024708,0.010000736613927507,-0.005410520681182307,2.880264644315022
114.28571428571428,0.6096701643098179,0.5734246295139117,-10.871168,-1.943818,0.636635,0.010346,0.005270894341022874,-0.006318091892219435,2.880822835516395
115.28822055137844,0.6096702812468778,0.5734243233831608,-10.865397,-1.955013,0.642711,-0.017099,-0.0039793506945470705,-0.004974188368183752,2.8772800440276494
116.2907268170426,0.6096704053397877,0.5734240153325478,-10.838971,-1.954323,0.678638,-0.025905,-0.0033684854563490567,-0.00460766922526501,2.8714855334577356
117.29323308270676,0.6096705362394815,0.5734237088527312,-10.820819,-1.942748,0.718327,-0.00262,-0.008168140899333463,-0.003403392041388953,2.867331527664942
118.29573934837092,0.6096706748186241,0.5734234058635731,-10.839355,-1.92604,0.715743,0.038629,-0.002426007660272118,-0.0034382986264287485,2.86644151446618
119.29824561403508,0.609670810430707,0.5734231065396064,-10.887096,-1.923014,0.675049,0.045035,0.005724679946541402,-0.005131268000863276,2.8674710841919313
120.30075187969925,0.6096709376652095,0.5734228077392384,-10.914598,-1.92852,0.659821,0.007462,0.004101523742186675,-0.0059166661642606755,2.8669650783351925
121.3032581453634,0.6096710631543827,0.5734225059718107,-10.899743,-1.939886,0.688658,-0.029479,-0.002949606435870417,-0.003944444109507117,2.8657781148174966
122.30576441102757,0.609671195275807,0.5734222014118563,-10.865284,-1.937128,0.726913,-0.027241,-0.005934119456780722,-0.00012217304763950665,2.8649927515606843
123.30827067669172,0.6096713362984106,0.5734218968519018,-10.854335,-1.930831,0.724097,0.008017,3.4906585039886545e-05,0.0023561944901924203,2.8675411242548137
124.31077694235589,0.6096714734812899,0.5734215936882108,-10.870378,-1.930217,0.681832,0.017149,0.006370451769779302,0.0030717794835100065,2.871136397794167
125.31328320802004,0.6096716028101874,0.573421292095316,-10.878064,-1.932011,0.65472,-0.003176,0.004555309347705198,0.0024434609527921314,2.8726024569125497
126.3157894736842,0.6096717239360375,0.5734209891061578,-10.860898,-1.941756,0.661786,-0.027983,0.0028797932657906446,0.003036872898470211,2.872951610029411
127.31829573934836,0.609671848901612,0.5734206840226046,-10.826022,-1.940756,0.687798,-0.035727,-0.006283185307179586,0.005811946409141289,2.871974225648294
128.32080200501252,0.6096719808485034,0.573420379986249,-10.797389,-1.934988,0.698262,-0.017387,-0.005323254218582704,0.00657989128001879,2.8724280287071053
129.32330827067668,0.6096721133189937,0.5734200766480249,-10.788067,-1.936052,0.687407,-0.001979,0.0020420352248333657,0.006387905062299248,2.872323361311863
130.32581453634086,0.6096722440441545,0.5734197727862022,-10.786948,-1.943779,0.670404,-0.004906,0.0014311699866353502,0.005410520681182529,2.8708573021934805
131.328320802005,0.609672369184262,0.5734194684007806,-10.770911,-1.939576,0.666309,-0.025038,0.0004363323129985821,0.005009094953223769,2.8675235487892463
132.33082706766916,0.6096724943243693,0.5734191647134907,-10.74455,-1.929572,0.683252,-0.022333,0.0018675022996339323,0.003473205211468766,2.861973523940952
133.33333333333331,0.6096726253985962,0.573418863120596,-10.724792,-1.926427,0.709925,-0.016207,-0.005375614096142536,0.0025132741228719446,2.85790687187722
134.3358395989975,0.6096727617088108,0.5734185617022342,-10.707748,-1.921355,0.730005,-0.012479,-0.002303834612632515,0.0015009831567152077,2.8572261760156494
135.33834586466165,0.6096729025568813,0.5734182602838723,-10.698246,-1.926514,0.729353,-0.006065,0.00640535835481919,0.00020943951023943974,2.8606470038962657
136.3408521303258,0.6096730427068204,0.5734179586909776,-10.690518,-1.926931,0.721152,-0.008094,0.00031415926535897936,0.0006981317007976884,2.8656388375431874
137.34335839598998,0.6096731800642324,0.5734176557018196,-10.683913,-1.930238,0.707667,-0.006003,-0.0010821041362364843,0.001378810109075479,2.8715379980550506
138.34586466165413,0.6096733130583214,0.5734173541089248,-10.676872,-1.925225,0.699759,-0.005359,0.003735004599267865,0.0030717794835100065,2.876878443766765
139.34837092731829,0.6096734443070813,0.5734170537377604,-10.678092,-1.921565,0.681656,0.009046,0.0022514747350726853,0.003473205211468766,2.8808580039008227
140.35087719298244,0.6096735715415837,0.5734167528429974,-10.687567,-1.932624,0.651604,0.00312,0.007120943348136865,0.003752457891787797,2.884086810657135
141.35338345864662,0.609673694761829,0.573416450377438,-10.675724,-1.942837,0.65088,-0.024916,0.002844886680750757,0.004764748857944534,2.8839123824516903
142.35588972431077,0.609673817982074,0.573416144770286,-10.634687,-1.956436,0.674419,-0.054157,-0.00019198621771937646,0.007976154681614167,2.882777604278629
143.35839598997492,0.6096739481836362,0.5734158377668706,-10.573277,-1.949847,0.711932,-0.057658,-0.008412486994612667,0.011047934165124174,2.880561053581889
144.36090225563908,0.6096740853665155,0.573415531112521,-10.53453,-1.933272,0.721227,-0.017599,-0.003141592653589793,0.011728612573401964,2.8808928930325703
145.36340852130326,0.60967422167673,0.5734152298686921,-10.542882,-1.920212,0.685461,0.026974,0.009250245035569947,0.01048942880448589,2.8827254014807018
146.3659147869674,0.6096743487366996,0.5734149301956596,-10.571703,-1.927428,0.632838,0.016833,0.010088003076527222,0.0072082098107366654,2.884121699788882
147.36842105263156,0.6096744660228254,0.5734146298244952,-10.561079,-1.937374,0.625155,-0.036631,0.002792526803190928,0.003665191429188086,2.8808580039008227
148.37092731829574,0.6096745838325498,0.5734143263117384,-10.501099,-1.946508,0.67074,-0.071328,-0.0024958208303518903,0.0023387411976725225,2.8759013211850366
149.3734335839599,0.609674714034112,0.5734140222753827,-10.431033,-1.871367,0.734653,-0.05665,-0.022689280275926278,0.001099557428756448,2.917335315454334
150.37593984962405,0.6096748337636988,0.5734137376121817,-10.401,-1.76067,0.461187,-0.00756,0.021659536017249636,0.006684611035138399,-3.1261465769761063
151.3784461152882,0.6096748932794263,0.5734134780817219,-10.410934,-1.581034,0.001222,0.019988,0.09536479032897016,-0.003979350694546913,-2.837224772600965
152.38095238095238,0.6096748967700848,0.5734132716092715,-10.430942,-1.342512,-0.423434,0.008541,0.12191124825180394,-0.02068215163613285,-2.5781479239020015
153.38345864661653,0.6096748002533771,0.5734131009160705,-10.434583,-1.099606,-0.718835,-0.000253,0.1647067215107049,-0.03893829561199347,-2.3591617768135387
154.38596491228068,0.6096746381122896,0.5734129625114609,-10.440082,-0.889828,-0.930617,0.015665,0.08361872446304834,-0.049061205273560615,-2.1689031558009555
155.38847117794487,0.6096744393192878,0.5734128511594546,-10.460117,-0.697515,-1.102479,0.031414,0.0422020613132229,-0.04593706591249069,-2.0005138768350053
156.39097744360902,0.609674214695413,0.5734127673836504,-10.501312,-0.484893,-1.264235,0.061727,0.06461208890883008,-0.046705010783368195,-1.8444116285366328
157.39348370927317,0.6096739597028094,0.573412712580312,-10.583944,-0.263336,-1.437298,0.096557,0.014102260356114178,-0.04429645641561608,-1.7017657989579666
158.39598997493732,0.6096736722470816,0.573412693556223,-10.667705,-0.03686,-1.577385,0.068862,0.026686084262993296,-0.036320301734001914,-1.5702200190758877
159.3984962406015,0.609673360880343,0.5734127106604499,-10.723291,0.188185,-1.651144,0.051695,0.031625366046137256,-0.03181735226385651,-1.4480299195694928
160.40100250626566,0.609673038867096,0.5734127612749981,-10.785752,0.418823,-1.699463,0.079561,0.02061233846605303,-0.030019663134302377,-1.336276225764909
161.4035087719298,0.6096727088253344,0.5734128478433289,-10.870857,0.634144,-1.764527,0.081634,0.028204520712228367,-0.023544491609403417,-1.2423257629952924
162.406015037594,0.6096723711041242,0.5734129684455803,-10.926018,0.83749,-1.793765,0.02823,0.0176976386152225,-0.012758356832078377,-1.1603126541776156
163.40852130325814,0.6096720316375847,0.5734131227326862,-10.937041,1.023914,-1.778043,0.004662,0.0158824961931484,-0.0044505895925854855,-1.0929075148668193
164.4110275689223,0.609671696883434,0.5734133038978625,-10.943176,1.172561,-1.760293,0.011088,0.0030543261909900766,0.002862339973270789,-1.041281077018554
165.41353383458645,0.6096713734739236,0.5734135039125948,-10.956697,1.268588,-1.714874,0.009164,-0.01617920216598744,0.01364847475059583,-1.0035291689656047
166.41604010025063,0.6096710559985328,0.5734137164936978,-10.955102,1.320966,-1.680534,-0.021014,-0.00626573201465964,0.026598817800393526,-0.977733254981006
167.41854636591478,0.6096707488205845,0.5734139336126567,-10.911146,1.346089,-1.63845,-0.067226,-0.007731808586334876,0.037611845380477904,-0.9591981899373839
168.42105263157893,0.6096704507183482,0.5734141512552144,-10.831821,1.37816,-1.596665,-0.085763,0.003769911184307748,0.041818088877784154,-0.9455500118927608
169.4235588972431,0.609670159597429,0.5734143729120295,-10.742185,1.416401,-1.568214,-0.093373,-0.0024958208303518976,0.043179445694339735,-0.9387775933429555
170.42606516290726,0.6096698733634316,0.5734145998048321,-10.648252,1.436882,-1.545565,-0.091918,-0.004188790204786389,0.04297000618410052,-0.9371195131002674
171.42857142857142,0.6096695907946258,0.5734148291410958,-10.568373,1.42817,-1.552707,-0.06812,-0.007452555906015784,0.03747221904031828,-0.9406977347728287
172.43107769423557,0.6096693033388979,0.5734150556848328,-10.504257,1.411226,-1.577909,-0.068725,-0.011431906600562853,0.0307876080051801,-0.9446418821763631
173.43358395989975,0.6096690143123737,0.5734152794360429,-10.429023,1.414058,-1.56696,-0.081624,-0.008220500776893291,0.023108159296405084,-0.9440485225905626
174.4360902255639,0.6096687272057119,0.5734155028381871,-10.353284,1.433471,-1.543029,-0.062821,-0.0030019663134302466,0.012601277199399075,-0.9431931192708671
175.43859649122805,0.6096684425425108,0.5734157281601936,-10.307873,1.439137,-1.549392,-0.027853,-0.011711159280881952,0.002862339973270789,-0.9473476486624376
176.44110275689223,0.6096681570066452,0.5734159545293976,-10.292553,1.423105,-1.566835,-0.007036,-0.013421581947836393,-0.00420624349730625,-0.9531245837667836
177.4436090225564,0.6096678688527858,0.5734161793278053,-10.286792,1.40466,-1.56704,-0.004103,-0.007452555906015789,-0.010000736613927419,-0.9568418209142664
178.44611528822054,0.609667581222525,0.5734164006355543,-10.287837,1.399778,-1.56036,0.009757,-0.004450589592585541,-0.017121679962064373,-0.9575922950393309
179.4486215538847,0.6096672923705337,0.5734166205470401,-10.309819,1.403084,-1.568761,0.032293,-0.0060388392119003825,-0.02389355745980226,-0.9598261594022512
180.45112781954887,0.6096670026458779,0.573416842203855,-10.347811,1.39938,-1.586062,0.040474,-0.00961676417848876,-0.028344147052387747,-0.9628807997525073
181.45363408521303,0.609666710652294,0.5734170631625384,-10.381898,1.397568,-1.579783,0.028583,-0.009320058205649722,-0.030124382889421986,-0.9641548551998781
182.45614035087718,0.6096664204040395,0.573417285517485,-10.418564,1.39988,-1.551555,0.055988,0.0005235987755982971,-0.03452261260444778,-0.9636488667964321
183.45864661654133,0.6096661305048507,0.5734175066507013,-10.499253,1.384193,-1.578075,0.100606,-0.009808750396208137,-0.040334559013588844,-0.9680643752710526
184.4611528822055,0.609665837987668,0.5734177235951273,-10.592183,1.372812,-1.614137,0.074801,-0.01274090353955861,-0.03961897402027126,-0.9697395073805313
185.46365914786966,0.609665541630761,0.5734179419358169,-10.64059,1.383595,-1.591167,0.030252,-0.0018500490071139848,-0.036023595761162985,-0.965393759716114
186.46616541353382,0.609665245797453,0.573418158356644,-10.670335,1.388348,-1.555424,0.04106,0.0013439035240356363,-0.034836771869806826,-0.9633692301436778
187.468671679198,0.609664956072797,0.5734183773954652,-10.733232,1.38374,-1.561191,0.085301,-0.0038746309394274126,-0.0354999969855645,-0.9672963256804189
188.47117794486215,0.6096646679189376,0.5734185952125559,-10.835125,1.379275,-1.595115,0.11115,-0.01275835683207855,-0.03384193419616999,-0.9707866700251435
189.4736842105263,0.6096643719110965,0.5734188139023111,-10.934577,1.375751,-1.622236,0.07765,-0.00785398163397448,-0.02713986986851169,-0.9712228976183871
190.47619047619045,0.6096640732852614,0.5734190299740726,-10.976368,1.345216,-1.58756,0.012386,-0.03237585762449481,-0.016406094968746565,-0.9449561287081852
191.47869674185463,0.6096637853059348,0.5734192516308875,-10.971805,1.482101,-1.499189,-0.008568,0.026459191460234035,-0.007400196028455985,-0.8563810007820313
192.4812030075188,0.6096635139072362,0.573419490566462,-10.984793,1.565715,-1.422418,0.03762,0.010576695267085637,-0.008761552845011567,-0.8102166930009294
193.48370927318294,0.6096632487917227,0.5734197377050841,-11.038743,1.609937,-1.405308,0.055608,-0.012060225131280815,-0.004886921905584041,-0.7931820526086633
194.48621553884712,0.6096629925773885,0.5734199965374123,-11.07042,1.61022,-1.396076,-0.002154,-0.002338741197672401,0.003106686068550024,-0.7944742245736692
195.48872180451127,0.6096627422971739,0.5734202546716086,-11.040062,1.591162,-1.357251,-0.048486,0.0027750735106709837,0.007435102613496003,-0.8096233334151296
196.49122807017542,0.6096624955076176,0.5734205079188831,-10.996075,1.57576,-1.353207,-0.027544,0.005585053606381855,0.003979350694547135,-0.8401314443938956
197.49373433583958,0.6096622467981992,0.573420755406571,-10.990509,1.547143,-1.418246,0.012603,-0.0035430183815484896,0.0004886921905584707,-0.87948870629283
198.49624060150376,0.6096619846497455,0.5734209981818699,-11.00853,1.49668,-1.494449,0.011052,-0.015114551322270894,0.0014486232791552922,-0.9110967063129103
199.4987468671679,0.609661708538658,0.5734212343249178,-11.000175,1.44896,-1.518828,-0.031109,-0.010192722831646885,0.0048171087355044495,-0.924867371564438
200.50125313283206,0.6096614270170495,0.5734214613922534,-10.959991,1.437316,-1.490729,-0.034699,-0.003909537524467297,0.004066617157146846,-0.9159836107652011
201.50375939849624,0.609661150905962,0.5734216872378587,-10.946751,1.474486,-1.476008,0.011378,0.00322885911618951,0.00019198621771954194,-0.8853359432594471
202.5062656641604,0.6096608767147365,0.5734219198902478,-10.963666,1.527384,-1.467803,0.011986,-0.008412486994612667,0.0016929693744345276,-0.831265259060227
203.50877192982455,0.6096606081085645,0.5734221630146127,-10.955325,1.600658,-1.396447,-0.027804,-1.7453292519943537e-05,0.0061959188445799285,-0.7488510735804418
204.5112781954887,0.6096603531159608,0.5734224180072164,-10.919957,1.703209,-1.270108,-0.03653,0.006283185307179587,0.006544984694978773,-0.6422458043632677
205.51378446115288,0.6096601265722239,0.5734226915003103,-10.887116,1.83513,-1.095905,-0.025888,0.01398008730847458,0.00530580092606292,-0.5178042650283851
206.51629072681703,0.6096599366804013,0.5734229862864209,-10.868718,1.968205,-0.87448,-0.006786,0.0249931148885588,0.001553343034275123,-0.3829423246609338
207.51879699248119,0.6096597904218098,0.5734233021910154,-10.869348,2.065226,-0.635281,0.005325,0.010541788682045748,0.0,-0.24591736284489968
208.52130325814534,0.6096596933815035,0.5734236325818429,-10.875149,2.118145,-0.390135,0.002885,0.014049900478554353,0.001378810109075479,-0.10618555243865416
209.52380952380952,0.6096596441632186,0.5734239690813226,-10.876459,2.136141,-0.135287,0.003334,0.022235494670407762,3.4906585040017646e-05,0.03543018381548489
210.52631578947367,0.6096596413706918,0.5734243054062695,-10.876857,2.131407,0.135054,0.002228,0.020280725908174112,-0.0015009831567149856,0.17851227589398005
211.52882205513782,0.6096596891927133,0.5734246385896238,-10.874658,2.091318,0.410143,-0.000711,0.01970476725501598,-0.0015358897417550033,0.3220481535779937
212.531328320802,0.6096597895491453,0.5734249633953976,-10.873114,2.014715,0.671066,0.00275,0.02436479635784084,-0.001099557428756448,0.4654793115068877
213.53383458646616,0.6096599377275987,0.5734252723186752,-10.876762,1.909579,0.912833,0.006062,0.026825710603152843,-0.0024260076602720115,0.6071651750903725
214.5363408521303,0.6096601277939543,0.5734255629159957,-10.883271,1.776474,1.140872,0.00605,0.02028072590817411,-0.0027750735106708557,0.7461631443593232
215.53884711779446,0.6096603599227448,0.5734258323948321,-10.889386,1.617505,1.355107,0.007045,0.026441738167714092,-0.001553343034274901,0.8826479442251574
216.54135338345864,0.6096606313214435,0.5734260739484006,-10.897096,1.431896,1.542202,0.011512,0.022532200643246795,0.0,1.015432558810301
217.5438596491228,0.6096609339615358,0.5734262851332401,-10.912569,1.22455,1.695858,0.022033,0.020786871391252463,0.0013439035240356834,1.1439760233130984
218.54636591478695,0.6096612645268962,0.573426462633225,-10.934545,1.00996,1.82153,0.021595,0.02687807048071268,0.001186823891356159,1.26662044947708
219.54887218045113,0.6096616151635429,0.5734266066228884,-10.95302,0.800969,1.913096,0.014245,0.022863813201125724,0.0003316125578789464,1.3825277476487308
220.55137844611528,0.6096619839516139,0.5734267160550325,-10.958677,0.578677,2.008471,-0.00045,0.014451326206513047,0.001937315469713763,1.4979985564277507
221.55388471177943,0.6096623675749835,0.5734267905805915,-10.94836,0.368816,2.06617,-0.015328,0.0175754655675829,0.004066617157146846,1.5978139712558914
222.55639097744358,0.6096627614957956,0.5734268333411581,-10.93236,0.171535,2.089509,-0.013727,-0.0006632251157578451,0.006998770300497226,1.684225292335301
223.55889724310777,0.6096631573364699,0.573426845209397,-10.92428,-0.005868,2.089824,-0.004375,0.003351032163829112,0.009930923443847828,1.7590650455674024
224.56140350877192,0.6096635495119529,0.5734268308976972,-10.922153,-0.155884,2.076246,-0.003967,-0.004799655442984408,0.01186823891356159,1.8249511026571408
225.56390977443607,0.6096639359278493,0.5734267930240524,-10.915072,-0.291803,2.0575,-0.012751,0.0026354471705114387,0.013456488532876287,1.8900170644379524
226.56641604010025,0.6096643200748176,0.5734267350791212,-10.897161,-0.420545,2.034579,-0.022864,0.0024260076602721174,0.01589994948566842,1.9557112574830184
227.5689223057644,0.6096647000329959,0.5734266584591671,-10.872899,-0.548759,2.002126,-0.025156,-0.0020071286397934777,0.017872171540421977,2.0206375231105
228.57142857142856,0.6096650723117252,0.5734265619424594,-10.845013,-0.680548,1.959902,-0.033289,0.004939281783143952,0.018709929581379292,2.0814446895302274
229.5739348370927,0.60966543656194,0.5734264458780642,-10.807574,-0.810531,1.915967,-0.043738,-0.0015009831567151237,0.018884462506578714,2.136038553626025
230.5764411027569,0.6096657924345746,0.5734263099169156,-10.759624,-0.913207,1.883488,-0.051214,-0.0050090949532237234,0.019146261894377847,2.180596826882733
231.57894736842104,0.6096661432457543,0.5734261582478035,-10.707626,-0.990654,1.855244,-0.051544,-0.0102799892942466,0.019757127132575825,2.2156257944097693
232.5814536340852,0.609666489170012,0.5734259968048476,-10.658069,-1.045434,1.822835,-0.048346,-0.0030892327760299624,0.020158552860534584,2.2422769720877227
233.58395989974937,0.6096668282874858,0.573425827856976,-10.614854,-1.087975,1.785252,-0.038002,-0.008726646259971648,0.01843067690106026,2.2622608000368403
234.58646616541353,0.6096671604236423,0.573425652974985,-10.583997,-1.132086,1.752284,-0.028171,-0.004136430327226561,0.014067353771074265,2.2757347942221138
235.58897243107768,0.6096674866256796,0.5734254730315391,-10.557158,-1.162897,1.735712,-0.02874,-0.007435102613495846,0.009197885158010122,2.282785784773831
236.59147869674183,0.6096678103842559,0.5734252883757043,-10.526519,-1.178567,1.73186,-0.031234,-0.013543754995475998,0.004974188368183974,2.2839554520786396
237.593984962406,0.6096681344918978,0.5734251018000073,-10.497464,-1.179404,1.742797,-0.026419,-0.01534144412503016,-1.74532925198978e-05,2.278509815372907
238.59649122807016,0.6096684619156656,0.5734249173187054,-10.480919,-1.172122,1.758024,-0.00686,-0.013194689145077133,-0.004118977034706539,2.2691200487169327
239.59899749373432,0.6096687926555587,0.5734247328374034,-10.480011,-1.168481,1.765457,0.003196,-0.013212142437597073,-0.00626573201465952,2.2599571748637177
240.6015037593985,0.6096691242681167,0.5734245499268978,-10.482639,-1.142437,1.754507,0.004906,-0.007068583470577037,-0.009512044423368948,2.24688451913994
241.60401002506265,0.6096694516918842,0.5734243719033141,-10.49161,-1.113357,1.745627,0.013118,0.003351032163829113,-0.016999506914424645,2.232450716039117
242.6065162907268,0.6096697778939216,0.5734241980685206,-10.504867,-1.088665,1.757684,0.015772,-0.0013962634015954633,-0.02450442269800024,2.2204078918404786
243.60902255639095,0.6096701075866173,0.5734240299933137,-10.526801,-1.061715,1.786101,0.030306,-0.004188790204786389,-0.029618237406343617,2.210668989520935
244.61152882205513,0.6096704437370313,0.5734238654087651,-10.568813,-1.045233,1.797239,0.053585,-0.004712388980384693,-0.029653143991383635,2.2028498097522458
245.6140350877193,0.6096707812837084,0.5734237025695459,-10.63053,-1.040715,1.782833,0.064707,0.0013788101090755232,-0.028640853025226898,2.1961302572254824
246.61654135338344,0.609671116212392,0.5734235418247218,-10.692159,-1.029936,1.770725,0.057425,0.0038571776469074693,-0.02988003679414275,2.189201369908235
247.6190476190476,0.609671449919345,0.5734233838724245,-10.745776,-1.00959,1.784752,0.052777,0.001291543646475805,-0.032201324699295375,2.1830404100085725
248.62155388471177,0.609671785895226,0.5734232259201272,-10.793927,-1.000297,1.807299,0.043411,-0.0030019663134302427,-0.03068288825006027,2.179846492384008
249.62406015037593,0.6096721260598972,0.5734230711094225,-10.83403,-1.001661,1.814904,0.038909,0.0014660765716752386,-0.0272271363311114,2.178921432973866
250.62656641604008,0.6096724644792391,0.5734229131571252,-10.873618,-1.012681,1.808185,0.040871,0.003752457891787807,-0.023876104167282364,2.179636895794136
251.62907268170426,0.6096728009787189,0.5734227538085646,-10.915412,-1.008839,1.803859,0.043161,-0.0020245819323134215,-0.01998401993533494,2.1794972170940987
252.6315789473684,0.6096731402707255,0.5734225972525306,-10.960363,-0.991697,1.802538,0.044921,0.0,-0.015812683023068486,2.179584570823161
253.63408521303256,0.6096734786900675,0.5734224431399576,-11.003821,-0.98111,1.799684,0.038618,0.0009599310885968805,-0.012391837689159635,2.180195628047577
254.63659147869672,0.6096738165858107,0.5734222918199114,-11.035054,-0.983895,1.796917,0.021787,0.00645771823237902,-0.009389871375729442,2.1827959417402454
255.6390977443609,0.6096741539579551,0.5734221375328056,-11.046254,-1.002189,1.79552,0.002006,0.006422811647339134,-0.005148721293383174,2.1874037331385585
256.64160401002505,0.6096744934244946,0.5734219804531729,-11.039336,-1.017542,1.797764,-0.012444,0.0004188790204786392,0.0006283185307180972,2.1923079512570296
257.64411027568923,0.6096748321929024,0.5734218205810135,-11.023148,-1.02161,1.803479,-0.018893,0.000837758040957278,0.0067369709126980926,2.197229867014116
258.64661654135335,0.6096751721830407,0.5734216601852553,-11.004137,-1.0177,1.801108,-0.019565,0.000471238898038469,0.012391837689159857,2.2020645686684808
259.64912280701753,0.6096755093806522,0.5734215010112275,-10.987141,-1.017557,1.78523,-0.016123,0.004223696789826278,0.01530653753999034,2.2070560008896742
260.6516290726817,0.6096758430876051,0.5734213416626667,-10.972461,-1.030422,1.764729,-0.018104,0.005742133239061344,0.015062191444711104,2.2114543527777477
261.65413533834584,0.6096761731293667,0.5734211809178427,-10.949298,-1.041821,1.758169,-0.029526,0.007225663103256523,0.013229595730117172,2.213286861225879
262.65664160401,0.60967650386926,0.5734210170314259,-10.912124,-1.053969,1.768875,-0.044326,0.0028797932657906437,0.010943214410004565,2.2142818210725634
263.65914786967414,0.6096768379252787,0.5734208505270152,-10.861631,-1.060905,1.785642,-0.055742,-0.0019198621771937623,0.011152653920243782,2.214735501958327
264.6616541353383,0.6096771732030282,0.5734206850698021,-10.809204,-1.050323,1.79496,-0.046322,-0.002460914245312004,0.012897983172238225,2.213199647123157
265.6641604010025,0.6096775105751726,0.5734205204852537,-10.778434,-1.039704,1.783536,-0.019804,0.00254818070791172,0.012636183784439092,2.211367121221733
266.66666666666663,0.6096778446311913,0.573420358867765,-10.76646,-1.031152,1.763997,-0.008896,0.00031415926535897893,0.008744099552491669,2.2093949340735644
267.6691729323308,0.6096781750220187,0.5734201989956055,-10.759511,-1.027523,1.761517,-0.006495,0.0055326937288220236,0.0018849555921538474,2.2079810602998164
268.671679197995,0.6096785048892474,0.5734200394725119,-10.749207,-1.0313,1.777761,-0.016314,0.004171336912266448,-0.0019722220547535585,2.2080509607363585
269.6741854636591,0.6096788392943321,0.5734198790767535,-10.728297,-1.03431,1.791038,-0.023128,-0.0022514747350726853,-0.001186823891356159,2.207893828743802
270.6766917293233,0.6096791759683449,0.5734197188555282,-10.707478,-1.033935,1.793185,-0.016953,0.0033510321638291134,0.0001221730476397287,2.2074051365532434
271.6791979949875,0.6096795145622197,0.5734195579361712,-10.694765,-1.03001,1.789747,-0.009143,-0.0005585053606381855,0.00022689280275933754,2.2066023374572032
272.6817042606516,0.6096798528070287,0.5734193971913472,-10.689757,-1.029578,1.788539,-0.001748,-0.0009250245035569947,-0.001553343034274901,2.20698622262618
273.6842105263158,0.609680188084778,0.5734192367955889,-10.687292,-1.035969,1.789812,-0.006593,0.0018500490071139896,-0.0032463124087094286,2.2096741518472984
274.68671679197996,0.6096805237115931,0.5734190751781001,-10.677423,-1.030463,1.791826,-0.012079,-0.0004363323129985825,-0.0024260076602720115,2.211803488441317
275.6892230576441,0.6096808614328034,0.573418914607809,-10.672699,-1.022033,1.786662,0.003196,0.001361356816555577,-0.0012566370614357503,2.2128679472988155
276.69172932330827,0.6096811967105527,0.5734187552592482,-10.687721,-1.024054,1.769419,0.022839,0.00809832772925369,-0.0013613568165555812,2.2142293564752484
277.6942355889724,0.6096815277995118,0.5734185960852204,-10.712527,-1.035879,1.75449,0.022419,0.006248278722139697,-0.003769911184307695,2.215974790446998
278.69674185463657,0.6096818559214111,0.5734184342931987,-10.720589,-1.048313,1.759607,-0.006232,0.004677482395344802,-0.0067369709126980926,2.2160095574056977
279.69924812030075,0.6096821873594361,0.573418270406782,-10.698937,-1.054763,1.785312,-0.030562,-0.0011693705988362001,-0.007993607974134065,2.215887576344276
280.7017543859649,0.6096825250806465,0.5734181056477006,-10.665404,-1.050836,1.81289,-0.029093,-0.005113814708343385,-0.005707226654021458,2.216166671944962
281.70426065162906,0.6096828676887786,0.5734179421103497,-10.650334,-1.035368,1.814938,0.001525,-0.004171336912266447,-0.0011693705988360392,2.2164111576665815
282.70676691729324,0.6096832087261145,0.5734177825872561,-10.672462,-1.026434,1.782936,0.03586,0.002338741197672401,0.0006108652381979773,2.217545534413915
283.70927318295736,0.6096835398150735,0.5734176241113601,-10.714786,-1.024957,1.747125,0.039499,0.006998770300497263,-0.0020594885173532695,2.21843556506597
284.71177944862154,0.6096838656680449,0.5734174649373323,-10.744024,-1.033995,1.741796,0.017288,0.00965167076352864,-0.006108652381979995,2.219692167220821
285.7142857142857,0.6096841901247528,0.5734173020981129,-10.744767,-1.055579,1.762052,-0.014901,0.007644542123735164,-0.006021385919380284,2.219378182488387
286.71679197994985,0.6096845212137119,0.5734171369899658,-10.714046,-1.06229,1.791857,-0.039882,-0.005026548245743669,-0.0018151424220740342,2.2171790850841666
287.719298245614,0.6096848592839881,0.5734169711836868,-10.674116,-1.051756,1.810318,-0.033162,-0.009372418083209549,0.0026354471705114513,2.213810442548185
288.72180451127815,0.6096852003213239,0.5734168062500725,-10.656912,-1.037282,1.804037,-0.002042,-0.002338741197672401,0.006143558967020013,2.21154170650681
289.72431077694233,0.6096855376934682,0.5734166449816497,-10.671421,-1.019825,1.780775,0.026026,0.005288347633542819,0.0062831853071796395,2.209255237920235
290.7268170426065,0.6096858707022896,0.5734164875529512,-10.698444,-1.01252,1.760652,0.019003,0.0031590459461097375,0.003752457891787797,2.2077541500437645
291.72932330827064,0.6096861995223206,0.5734163306478514,-10.701525,-1.013636,1.762827,-0.012756,0.005375614096142536,0.00019198621771954194,2.207283033318774
292.7318295739348,0.6096865293895493,0.5734161719974223,-10.674167,-1.03027,1.786347,-0.03821,0.002146754979953025,-0.0005934119456780795,2.2089585668539806
293.734335839599,0.6096868671107595,0.5734160110780653,-10.630713,-1.039432,1.814414,-0.04259,-0.0012042771838760868,0.0032463124087094286,2.210494282062811
294.7368421052631,0.6096872109406222,0.5734158480643132,-10.599424,-1.038624,1.819848,-0.020783,-0.005078908123303499,0.009285151620609833,2.2123096164711025
295.7393483709273,0.6096875526760898,0.5734156859232257,-10.592611,-1.024722,1.794578,0.003598,-0.0016755160819145575,0.013159782560037359,2.2128679472988155
296.7418546365915,0.6096878883029049,0.5734155295417247,-10.604524,-1.007522,1.763983,0.014926,0.0009948376736367676,0.011658799403322151,2.2132169607893366
297.7443609022556,0.6096882150285409,0.573415372636625,-10.61777,-1.01255,1.749719,0.004172,0.009721483933608416,0.006946410422937532,2.2145609341265424
298.7468671679198,0.6096885398343146,0.5734152153824593,-10.609714,-1.031807,1.759994,-0.021241,0.004991641660703782,0.004537856055185419,2.216393704374062
299.74937343358397,0.6096888698760762,0.5734150535904378,-10.57205,-1.054773,1.788175,-0.051545,0.0031415926535897924,0.006213372137099826,2.218610255070802
300.7518796992481,0.6096892072482206,0.5734148888313564,-10.509162,-1.054341,1.810793,-0.064752,-0.003351032163829114,0.012391837689159857,2.2186624578687293
301.7543859649123,0.6096895488091553,0.5734147242468077,-10.457433,-1.041071,1.807271,-0.03274,-0.006527531402458793,0.01677261411166553,2.2174930698166
302.7568922305764,0.6096898886247606,0.5734145621057204,-10.444069,-1.032298,1.78729,-0.002697,-0.00031415926535897915,0.01638864167622689,2.2166729396010885
303.7593984962406,0.609690223553444,0.5734144032807583,-10.44782,-1.019172,1.767966,0.003375,0.0014660765716752377,0.01411971364863418,2.2171790850841666
304.76190476190476,0.6096905523734751,0.5734142465501916,-10.447761,-1.020504,1.755094,-0.006495,0.0058643062867009465,0.011693705988362169,2.2186451442025494
305.7644110275689,0.6096908796227098,0.5734140887724272,-10.43043,-1.031673,1.753529,-0.02877,0.007801621756414652,0.01078613477732504,2.219570203612691
306.76691729323306,0.6096912096644714,0.5734139287257347,-10.389956,-1.044503,1.765307,-0.048138,-0.0017104226669544436,0.010960667702524463,2.220006431205935
307.76942355889724,0.6096915421496939,0.5734137646647851,-10.336701,-1.059123,1.784661,-0.056101,-0.0036477381366681483,0.013124875974997341,2.220076331642477
308.77192982456137,0.6096918816162333,0.5734135978113086,-10.277302,-1.060819,1.802769,-0.059911,-0.0016406094968746704,0.017872171540421977,2.219831985547198
309.77443609022555,0.6096922224790363,0.5734134325286284,-10.22128,-1.041857,1.805592,-0.04981,-0.006736970912698114,0.02265437369088641,2.218330897670728
310.77694235588973,0.6096925600257137,0.5734132712602056,-10.188836,-1.019045,1.782831,-0.016928,-0.0008028514559173922,0.021886428820008907,2.215713008512491
311.77944862155385,0.6096928912892058,0.5734131124352436,-10.183502,-0.978295,1.743839,-0.00264,0.001710422666954442,0.014433872913993229,2.2338643105601848
312.78195488721803,0.6096931967218248,0.5734129609406645,-10.181894,-1.017233,1.516699,-0.008965,-0.00804596785169386,0.010646508437165414,2.4261823677302425
313.7844611528822,0.609693445780309,0.5734127935635892,-10.156461,-1.165123,1.159901,-0.037606,0.04728096943652639,0.008691739674931753,2.6998147038854783
314.78696741854634,0.6096936435261133,0.5734126439888724,-10.104076,-1.248774,0.777863,-0.057203,0.10965903690280372,-0.0010646508437164304,2.96625678966798
315.7894736842105,0.6096937616849036,0.5734124713758093,-10.057663,-1.274766,0.419849,-0.029729,0.1532224550325822,-0.02028072590817409,-3.086754443398717
316.79197994987464,0.6096938068889313,0.5734122874181061,-10.047334,-1.253385,0.103146,0.008287,0.14282031014398855,-0.036617007706841065,-2.8889039368459324
317.7944862155388,0.6096937880393754,0.5734121029368042,-10.066885,-1.218046,-0.188348,0.036535,0.06323327879975454,-0.043266712156939446,-2.7131318453308757
318.796992481203,0.6096937192734028,0.5734119202008315,-10.120531,-1.175952,-0.451474,0.068846,0.056723200689815706,-0.04412192349041666,-2.55706448616425
319.79949874686713,0.6096936000674149,0.5734117444461758,-10.2003,-1.114976,-0.716787,0.086999,0.035290557475325335,-0.043266712156939446,-2.4149422204545967
320.8020050125313,0.6096934360064652,0.5734115777672324,-10.279972,-1.025973,-0.964293,0.068983,0.02535963403147762,-0.039235001584832396,-2.2866782704315063
321.8045112781955,0.6096932283122842,0.573411424527324,-10.334466,-0.925257,-1.16928,0.043602,0.031241393610698505,-0.03586651612848346,-2.1689902477306306
322.8070175438596,0.6096929841407219,0.5734112878680435,-10.376114,-0.815436,-1.350933,0.046017,0.029949849964222695,-0.03419100004656883,-2.0616877543838696
323.8095238095238,0.6096927082041672,0.5734111688365885,-10.432702,-0.688195,-1.522495,0.07172,0.028396506929947742,-0.03214896482173546,-1.9675796360229199
324.812030075188,0.6096924005026201,0.5734110716217492,-10.520727,-0.551574,-1.698019,0.09536,0.023474678439323722,-0.02794272132442921,-1.8881319517661652
325.8145363408521,0.6096920633050086,0.5734109967471243,-10.607515,-0.427619,-1.83814,0.072428,0.011309733552923256,-0.01923352835697756,-1.8243577605246328
326.8170426065163,0.6096917002765241,0.573410941420187,-10.663466,-0.318296,-1.944523,0.040464,0.005218534463463045,-0.010541788682045583,-1.7740748771345534
327.8195488721804,0.6096913206674118,0.5734109014521472,-10.682085,-0.237802,-2.030735,-0.00191,0.0053058009260627615,0.0007679448708775016,-1.7363059346681038
328.8220551378446,0.6096909295391265,0.5734108735268793,-10.667374,-0.174578,-2.099752,-0.01836,0.00877900613753148,0.010855947947404854,-1.7078399287273416
329.82456140350877,0.6096905291605961,0.5734108558990536,-10.653483,-0.109142,-2.135947,-0.010192,-0.007836528341454542,0.018744836166419088,-1.6856041373509616
330.8270676691729,0.6096901275603352,0.5734108471724074,-10.639564,-0.048262,-2.158579,-0.027141,-0.005113814708343385,0.02687807048071278,-1.6693726974804615
331.8295739348371,0.6096897257855414,0.5734108468233415,-10.592435,-0.010711,-2.149203,-0.071668,-0.01071632160724518,0.03392920065876992,-1.6612745617374254
332.83208020050125,0.6096893292467352,0.573410850488533,-10.509761,0.008624,-2.117597,-0.087211,-0.008621926504851989,0.035936329298563274,-1.6589006172487406
333.8345864661654,0.6096889382929829,0.5734108579934488,-10.440206,0.021976,-2.123415,-0.054701,-0.004328416544945939,0.03148573970597779,-1.6582023459216029
334.83709273182956,0.6096885461175,0.5734108661964963,-10.393255,0.023955,-2.147083,-0.052394,-0.012042771838760872,0.028413960222467782,-1.6595807895115355
335.83959899749374,0.6096881508004244,0.5734108742250108,-10.327519,0.03011,-2.137301,-0.080785,-0.013700834628155488,0.026982790235832388,-1.661762992128596
336.84210526315786,0.6096877542616183,0.5734108822535254,-10.249253,0.028547,-2.1184,-0.069103,-0.00984365698124802,0.020472712125893633,-1.665375823680225
337.84461152882204,0.609687360864405,0.5734108880131119,-10.200405,0.010848,-2.124452,-0.030418,-0.013578661580515886,0.012234758056480333,-1.671222537048066
338.8471177944862,0.6096869681653233,0.5734108922019021,-10.188804,0.016757,-2.143416,-0.001112,-0.01607448241086777,0.005061454830783685,-1.673788223408375
339.84962406015035,0.6096865718010501,0.5734108956925607,-10.183147,0.017526,-2.140785,-0.020725,-0.008831366015091307,0.002129301687433083,-1.676999454699119
340.8521303258145,0.6096861764839745,0.5734108977869558,-10.150741,-0.000608,-2.106527,-0.036455,-0.009180431865490175,-0.0012740903539558701,-1.681851749272343
341.85463659147865,0.6096857858792879,0.5734108990086862,-10.136545,-0.012985,-2.104785,0.011712,-0.008429940287132608,-0.00911061869541041,-1.6843125064380235
342.85714285714283,0.6096853966708647,0.5734108986596204,-10.167109,-0.011491,-2.139133,0.034848,-0.01075122819228507,-0.011815879036001453,-1.6844168945805846
343.859649122807,0.6096850013537891,0.5734108979614886,-10.189945,-0.013108,-2.140878,0.008891,-0.01923352835697751,-0.009826203688727997,-1.6864068142739532
344.86215538847114,0.6096846035932526,0.5734108949944289,-10.188634,-0.028415,-2.119496,-0.007001,-0.013439035240356337,-0.01068141502220521,-1.6900894240890767
345.8646616541353,0.6096842128140331,0.5734108934236326,-10.184077,-0.028296,-2.104439,0.005676,-0.0023561944901923453,-0.014084807063594162,-1.6905959709978822
346.8671679197995,0.6096838243037416,0.573410890107507,-10.212858,-0.023128,-2.118269,0.050335,-0.008412486994612665,-0.019582594207376403,-1.690159743404639
347.8696741854636,0.6096834326518575,0.5734108848715193,-10.266819,-0.02526,-2.135255,0.047263,-0.015166911199830725,-0.021223203704251015,-1.6911365867336878
348.8721804511278,0.6096830390801111,0.5734108839988548,-10.30008,-0.025148,-2.116104,0.026485,-0.009128071987930341,-0.02216568150032794,-1.691590930844567
349.874686716792,0.6096826453338319,0.5734108812063278,-10.332974,-0.039896,-2.10943,0.041608,-0.009180431865490174,-0.02713986986851169,-1.692794666976375
350.8771929824561,0.6096822545546124,0.5734108761448731,-10.371466,-0.055983,-2.110358,0.032715,-0.01335176877775662,-0.029042278753185657,-1.6938940324189133
351.8796992481203,0.6096818656952551,0.5734108681163584,-10.408434,-0.057861,-2.089722,0.053587,-0.012444197566719571,-0.033562681515850956,-1.6853596516293419
352.88220551378447,0.6096814754396342,0.5734108672436938,-10.491211,0.081619,-2.152266,0.098423,-0.0030368728984701363,-0.03501130479500625,-1.594183668958451
353.8847117794486,0.6096810729667088,0.5734108932490997,-10.558054,0.204458,-2.162425,0.031312,0.007138396640656806,-0.02841396022246756,-1.5374780437342024
354.8872180451128,0.6096806802676271,0.5734109148911825,-10.572183,0.285732,-2.091514,0.018042,-0.010611601852125523,-0.029146998508305266,-1.5112283441440852
355.8897243107769,0.6096802907101381,0.57341096725106,-10.620821,0.313731,-2.076504,0.083164,0.011414453308042919,-0.03515093113516565,-1.5129386271847
356.8922305764411,0.6096799076103672,0.573411025545057,-10.726245,0.311008,-2.112315,0.113548,-0.006248278722139693,-0.0370184334347996,-1.533830584850215
357.89473684210526,0.6096795192746086,0.573411079126665,-10.813873,0.273706,-2.120737,0.053719,-0.012932889757277985,-0.03260275042725391,-1.5682482159001545
358.8972431077694,0.6096791291935209,0.5734111241561597,-10.834685,0.200975,-2.077086,0.007378,-0.01258382390687911,-0.030630528372500354,-1.6095953800391665
359.89974937343356,0.6096787446974866,0.5734111548739546,-10.862761,0.120552,-2.078559,0.05893,-0.003281218993749342,-0.03478441199224691,-1.6440305865546743
360.90225563909775,0.6096783586306561,0.5734111738980434,-10.949311,0.062934,-2.128221,0.09891,-0.01399754060099452,-0.031695179216217007,-1.6630897739726695
361.90476190476187,0.6096779655825085,0.5734111814029592,-11.035456,0.039802,-2.136232,0.067553,-0.016859880574265226,-0.022462387473166867,-1.6627574109232122
362.90726817042605,0.6096775678219719,0.573411186638947,-11.086897,0.054101,-2.121469,0.036074,-0.01022762941668677,-0.01616174887346733,-1.6385151890387386
363.90977443609023,0.6096771730284952,0.5734111950165274,-11.104093,0.111473,-2.106385,-0.002561,-0.000506145483078356,-0.008936085770210989,-1.5868711757249072
364.91228070175436,0.6096767855654012,0.5734112163095443,-11.091419,0.234247,-2.085516,-0.011742,0.003560471674068432,-0.0037350045992678993,-1.507615495139164
365.91478696741854,0.6096763996731036,0.573411261164506,-11.10133,0.410459,-2.092088,0.030894,0.001099557428756428,-0.0018675022996339496,-1.4078002199373636
366.91729323308266,0.6096760125590756,0.573411336039131,-11.139772,0.608703,-2.092659,0.030971,-0.004974188368183839,0.004328416544945979,-1.29192767127112
367.91979949874684,0.6096756275394425,0.5734114465184725,-11.144315,0.834027,-2.020736,-0.026765,0.016528268016386297,0.010262536001726774,-1.1604692451181038
368.922305764411,0.609675259973102,0.5734115926025309,-11.0944,1.088739,-1.872973,-0.066424,0.02405063709248186,0.011292280260403409,-1.0196913541713848
369.92481203007515,0.609674926266149,0.5734117803999584,-11.032784,1.35372,-1.683957,-0.046835,0.028658306317746886,0.008726646259971771,-0.8774119739224667
370.9273182957393,0.6096746311309726,0.5734120128778148,-11.010155,1.593737,-1.493294,0.000869,0.01663298777150596,0.007906341511534354,-0.7378554120264155
371.9298245614035,0.6096743731713091,0.5734122804367892,-11.028583,1.758287,-1.306998,0.020016,0.0004712388980384694,0.012566370614359279,-0.602313299396169
372.93233082706763,0.6096741501182308,0.5734125694633133,-11.035933,1.871146,-1.094427,-0.015004,0.00815068760681352,0.01766273203018276,-0.46612510078341823
373.9348370927318,0.6096739701747849,0.5734128752449983,-11.00017,1.991035,-0.829654,-0.051173,0.02731440279371126,0.016318828506147076,-0.32981492110924593
374.937343358396,0.6096738397986897,0.5734131960365147,-10.943337,2.098626,-0.541423,-0.055927,0.02099631090149178,0.01579522973054881,-0.1963671163149299
375.9398496240601,0.6096737652731306,0.5734135311397311,-10.893712,2.13816,-0.270335,-0.040279,0.017976891295541596,0.018762289458939208,-0.06724748371946479
376.9423558897243,0.6096737418857187,0.5734138706062707,-10.87227,2.129589,-0.03836,-0.0057,0.01691224045182505,0.01637118838370677,0.0580496509213314
377.9448621553885,0.6096737584663465,0.5734142044877566,-10.878323,2.115001,0.17029,0.01009,0.018186330805780918,0.011030480872604276,0.18011797880581484
