Time [s],Longitude [rad],Latitude [rad],Altitude [m],V North [m/s],V East [m/s],V Down [m/s],Roll [rad],Pitch [rad],Yaw [rad]
0.0,0.5734268052413571,0.6096589254366326,-11.233248,1.822875,-0.991922,0.012332,0.027663468644110123,0.017575465567582896,5.801038101316153
1.0025062656641603,0.5734271111975751,0.6096587505546416,-11.246019,1.948266,-0.832126,0.018738,0.01572541656046891,0.013439035240356337,5.876418871709788
2.0050125313283207,0.5734274295456305,0.6096586070885771,-11.279463,2.001715,-0.69956,0.044056,-0.00799360797413403,0.007592182246175334,5.933665653721909
3.007518796992481,0.5734277557476678,0.609658488231655,-11.327631,2.026969,-0.621979,0.042064,-0.008517206749732328,-0.00012217304763960306,5.977595556088022
4.010025062656641,0.5734280775863819,0.6096583824647024,-11.355957,2.032117,-0.56724,0.00566,-0.016702800941585733,-0.009337511498169663,6.012484565662341
5.012531328320802,0.5734283994250959,0.6096582869951922,-11.336946,2.040295,-0.497815,-0.043191,-0.00019198621771937625,-0.016441001553786583,6.040811556128181
6.015037593984962,0.5734287209147442,0.6096582028703224,-11.278131,2.057569,-0.415526,-0.069141,0.008272860654453122,-0.021886428820008894,6.061912307532113
7.017543859649122,0.5734290458950508,0.6096581344534157,-11.208636,2.066416,-0.348758,-0.06471,-3.490658503988659e-05,-0.025761059759436305,6.074234750930213
8.020050125313283,0.5734293724461539,0.6096580805227417,-11.163726,2.065628,-0.320051,-0.025098,0.0008203047484373349,-0.025551620249196983,6.079365600052056
9.022556390977442,0.5734296995208558,0.609658026243002,-11.156609,2.068694,-0.349493,-0.004214,-0.004433136300065597,-0.02356194490192345,6.080011144982491
10.025062656641603,0.5734300267700906,0.6096579639347477,-11.13455,2.075148,-0.373389,-0.055277,-0.010349802464326374,-0.02569124658935653,6.082855944396779
11.027568922305765,0.5734303550665228,0.6096578995320984,-11.04705,2.077501,-0.327285,-0.110761,-0.0026354471705114374,-0.02811725424962865,6.08948828282082
12.030075187969924,0.5734306828393564,0.6096578431579636,-10.944301,2.078699,-0.270222,-0.083773,0.0032288591161895096,-0.02588323280707591,6.091495760526464
13.032581453634084,0.5734310088668606,0.6096577958595407,-10.893356,2.078495,-0.273611,-0.025004,-0.007539822368615503,-0.02171189589480946,6.085910584747035
14.035087719298245,0.5734313369887599,0.6096577480375193,-10.884426,2.076736,-0.319106,-0.010145,-0.008970992355250854,-0.018552849948699723,6.079574917389247
15.037593984962406,0.573431665983324,0.6096576918379174,-10.858847,2.071753,-0.343242,-0.049378,-0.005497787143782138,-0.017819811662862103,6.077044381960073
16.040100250626566,0.573431992534427,0.609657629704196,-10.790814,2.069272,-0.313082,-0.083129,0.0032288591161895096,-0.016824973989225337,6.078702479656053
17.042606516290725,0.5734323203072605,0.6096575740281929,-10.714806,2.075081,-0.272546,-0.06076,-0.0008203047484373349,-0.013613568165555772,6.075787901978271
18.045112781954884,0.5734326479055611,0.6096575256825725,-10.683571,2.085388,-0.285949,-0.004104,-0.007819075048934596,-0.010192722831646885,6.066764584652045
19.047619047619047,0.5734329781218557,0.6096574741953596,-10.697202,2.082817,-0.347074,0.017322,-0.013002702927357754,-0.0091106186954104,6.057933550249511
20.050125313283207,0.5734333060692222,0.6096574090945786,-10.700891,2.065656,-0.385847,-0.01918,-0.010122909661567111,-0.009983283321407565,6.056728732013567
21.052631578947366,0.5734336312240618,0.6096573377106121,-10.655172,2.055053,-0.35455,-0.065409,0.0020943951023931952,-0.009616764178488757,6.060586049286814
22.05513784461153,0.5734339544590392,0.6096572738315614,-10.589313,2.059466,-0.300351,-0.0535,0.007138396640656807,-0.00603883921190038,6.0609524986165635
23.05764411027569,0.5734342789157472,0.6096572207735522,-10.568998,2.071513,-0.302895,0.013537,-0.00614355896702004,-0.0019722220547535923,6.0544948676506465
24.06015037593985,0.573434608084844,0.6096571649230161,-10.608521,2.078187,-0.375601,0.047227,-0.011658799403322121,-0.0013788101090755204,6.045995131646728
25.062656641604008,0.5734349344614141,0.6096570958079778,-10.6355,2.034358,-0.40788,-0.004485,-0.0183434104384604,-0.0056199601914217415,6.08814497270873
26.065162907268167,0.5734352610125172,0.6096570347214539,-10.597057,2.10025,-0.234693,-0.062389,0.03787364476827695,-0.009983283321407565,6.175184001453619
27.06766917293233,0.5734355873890874,0.609656985677702,-10.535094,2.09834,-0.090779,-0.045074,-0.0007330382858376184,-0.007120943348136864,6.21993469726036
28.07017543859649,0.5734359203979086,0.6096569722386668,-10.517377,2.101954,-0.045792,0.008636,-0.003246312408709453,-0.005393067388662479,6.2330246666503175
29.07268170426065,0.5734362535812628,0.6096569743330618,-10.539702,2.105945,-0.066502,0.024079,0.0,-0.005358160803622592,6.227561454479017
30.075187969924812,0.5734365874627487,0.6096569699697387,-10.553276,2.098735,-0.083055,-0.006251,-0.0027401669256310974,-0.005096361415823442,6.21256946017682
31.07769423558897,0.5734369192498395,0.6096569605449607,-10.526041,2.082834,-0.079288,-0.042898,-0.003735004599267865,-0.0020245819323134223,6.188867330429377
32.08020050125313,0.5734372477208048,0.6096569498984524,-10.487463,2.078903,-0.086718,-0.022688,0.0016929693744344998,0.004206243497306334,6.1579581427885035
33.08270676691729,0.5734375772389676,0.6096569350631537,-10.487562,2.089871,-0.14529,0.025744,-0.008587019919812101,0.009494591130849153,6.127152837144709
34.08521303258145,0.5734379069316633,0.6096569099304124,-10.522575,2.094283,-0.220229,0.034656,-0.022165681500327987,0.012339477811599909,6.110694487018157
35.08771929824561,0.5734382369734249,0.6096568710095701,-10.543262,2.083022,-0.229132,0.004867,-0.006335545184739416,0.014329153158873445,6.119176665009802
36.09022556390977,0.5734385659679888,0.6096568305179315,-10.542326,2.074755,-0.174122,0.003637,0.00013962634015954637,0.01900663555421825,6.151622492884009
37.092731829573935,0.5734388937408224,0.6096567998001367,-10.566505,2.08213,-0.1127,0.045931,-0.002495820830351891,0.023527038316883565,6.206233269220259
38.095238095238095,0.5734392232589851,0.6096567816487124,-10.625526,2.098729,-0.03801,0.063368,-0.007714355293814937,0.02495820830351891,0.0020943951023931952
39.097744360902254,0.5734395546970101,0.6096567788561856,-10.679236,2.106135,0.089425,0.040151,0.0019896753472735357,0.024661502330679878,0.10649999095669399
40.100250626566414,0.5734398875312985,0.609656803639861,-10.701916,2.094976,0.295469,0.00966,0.01085594794740473,0.024556782575560217,0.23183208454240678
41.10275689223057,0.5734402167003954,0.6096568708350372,-10.710947,2.049833,0.548595,0.017092,0.024486969405480445,0.026808257310632903,0.36610026389833056
42.10526315789473,0.5734405357465826,0.6096569882956959,-10.744713,1.967638,0.790121,0.056492,0.016563174601426187,0.028344147052387914,0.5045397976198133
43.10776942355889,0.5734408387357408,0.6096571514839809,-10.821802,1.858729,0.991963,0.094229,0.012304571226560023,0.027209683038591597,0.6472378998095772
44.11027568922306,0.5734411233989418,0.6096573527204437,-10.914551,1.724057,1.190757,0.084838,0.020001473227855015,0.026720990848033185,0.7946658966321233
45.11278195488722,0.5734413838020661,0.6096575895616232,-10.983402,1.549324,1.404607,0.05509,0.03199188518905606,0.028501226685067403,0.9434376573523648
46.11528822055138,0.5734416134873958,0.609657867592573,-11.02318,1.334134,1.622146,0.034937,0.02598795256219557,0.026197392072434884,1.0909877748626728
47.11779448621554,0.5734418098369366,0.6096581845443652,-11.05545,1.092366,1.802788,0.039518,0.01761037215262278,0.01857030324121967,1.2374733462490195
48.1203007518797,0.5734419636004437,0.6096585357046107,-11.097445,0.833927,1.926596,0.050565,0.025848326222036023,0.011606439525762293,1.3802587323546756
49.122807017543856,0.5734420754760488,0.609658906063478,-11.148803,0.568889,2.002697,0.051631,0.02892010570554604,0.006841690667817772,1.5178605429417862
50.125313283208015,0.5734421445910871,0.6096592877669854,-11.197625,0.297091,2.0453,0.043667,0.02007128639793479,0.0030368728984701333,1.6497376212224777
51.127819548872175,0.5734421705964929,0.6096596752300792,-11.229436,0.029778,2.069982,0.018936,0.027436575841350862,-0.0018675022996339325,1.7727659325554355
52.130325814536334,0.5734421555866613,0.6096600635658379,-11.233442,-0.219894,2.081616,-0.009877,0.010995574287564275,-0.00952949771588904,1.8857060662789409
53.1328320802005,0.5734421013069217,0.6096604532978598,-11.217857,-0.441136,2.05279,-0.019465,0.017243853009703977,-0.016388641676226754,1.9897451255370304
54.13533834586466,0.5734420147385907,0.6096608351759002,-11.20177,-0.640503,1.984734,-0.013626,0.0038571776469074684,-0.02064724505109292,2.086907622448847
55.13784461152882,0.5734418974524651,0.6096612009969113,-11.187449,-0.849813,1.892805,-0.018079,0.004031710572106902,-0.023701571242082997,2.1921685343563806
56.14035087719298,0.5734417468305506,0.6096615458739716,-11.158469,-1.045762,1.801143,-0.041681,0.011362093430483085,-0.02769837522915001,2.282628652781274
57.14285714285714,0.5734415735193559,0.609661873646805,-11.10784,-1.210461,1.702504,-0.059336,0.005689773361501515,-0.029513517651224112,2.3601562130614466
58.1453634085213,0.5734413700139651,0.609662184140879,-11.040249,-1.341097,1.618838,-0.076197,-0.0068591439603377154,-0.031817352263856624,2.4254838171504245
59.14786967418546,0.57344114835715,0.6096624808468518,-10.959044,-1.43085,1.543281,-0.085449,-0.013264502315156905,-0.03569198320328404,2.4817185874490697
60.150375939849624,0.5734409144830303,0.6096627613212626,-10.878011,-1.507709,1.452035,-0.076959,-0.0019024088846738192,-0.03752457891787808,2.542822686734439
61.152882205513784,0.5734406697878692,0.609663024167848,-10.810541,-1.597283,1.328021,-0.061461,0.002076941809873252,-0.03714060648243934,2.608935671533521
62.15538847117794,0.5734404139226008,0.6096632611835605,-10.756923,-1.692476,1.191347,-0.048536,0.0009773843811168245,-0.03324852225049198,2.672605195379812
63.1578947368421,0.5734401432220338,0.6096634732410645,-10.710245,-1.773141,1.066563,-0.047124,-0.001954768762233649,-0.027890361446869388,2.728961946739879
64.16040100250626,0.573439858035234,0.6096636606894262,-10.656484,-1.836355,0.961875,-0.062547,-0.0028623399732707008,-0.022322761133007473,2.7775169541704834
65.16290726817043,0.5734395635981893,0.6096638338260881,-10.581731,-1.886955,0.886521,-0.082607,-0.004956735075663896,-0.016336281798666925,2.8203648222135294
66.16541353383458,0.573439263052492,0.6096639956181097,-10.492913,-1.926967,0.838987,-0.086955,-0.014521139376592822,-0.010821041362364843,2.8579241855434
67.16791979949875,0.5734389586670705,0.6096641500797485,-10.426696,-1.953334,0.789975,-0.040188,-0.017784905077822218,-0.005759586531581287,2.889933524024976
68.1704260651629,0.5734386500928588,0.609664293545813,-10.41624,-1.972517,0.697039,0.014626,-0.005393067388662479,-0.0015009831567151233,2.917230648059092
69.17293233082707,0.5734383387261203,0.6096644178132558,-10.451449,-1.98527,0.589834,0.046118,-0.0048345620280242935,0.005061454830783556,2.9355390820993423
70.17543859649122,0.5734380259631183,0.6096645197404841,-10.49278,-2.004136,0.527269,0.026757,-0.008656833089891874,0.011309733552923256,2.942241198786878
71.17794486215539,0.5734377098839908,0.6096646139882637,-10.495621,-2.010776,0.544266,-0.012563,-0.014713125594312197,0.015533430342749533,2.9401293154853803
72.18045112781954,0.573437392059534,0.6096647143446956,-10.478373,-2.021435,0.584,-0.012411,-0.019547687622336492,0.018657569703819384,2.935643749494585
73.1829573934837,0.5734370738860113,0.6096648258712349,-10.478003,-2.015705,0.60735,0.020055,-0.01949532774477666,0.019634954084936207,2.9286273862752275
74.18546365914787,0.5734367579814167,0.60966494193563,-10.523742,-2.012628,0.591959,0.067924,-0.019460421159736774,0.02069960492865275,2.9203372294078873
75.18796992481202,0.5734364426004208,0.6096650529385705,-10.600751,-2.000341,0.555042,0.074111,0.0,0.02307325271136504,2.909690982770109
76.19047619047619,0.5734361294883531,0.6096651566111281,-10.657458,-1.982839,0.56269,0.035369,-0.0016580627893946131,0.026040312439755398,2.893406816502907
77.19298245614034,0.5734358209141414,0.6096652660432722,-10.673329,-1.95536,0.638413,0.009762,-0.011588986233242348,0.02787290815434944,2.8747841184775424
78.19548872180451,0.5734355165287197,0.6096653908343138,-10.691357,-1.936859,0.704591,0.035152,-0.007382742735936014,0.027122416575991883,2.8627937763295117
79.19799498746866,0.5734352158084897,0.6096655260973308,-10.750838,-1.936961,0.706844,0.080482,-0.002775073510670984,0.026127578902355116,2.85710393315484
80.20050125313283,0.5734349133429302,0.6096656604876832,-10.834377,-1.945633,0.671461,0.074997,0.00312413936106985,0.02288126649364566,2.8523741606951054
81.203007518797,0.5734346100047063,0.6096657885948502,-10.888979,-1.93956,0.666162,0.032925,-0.004014257279586958,0.018884462506578648,2.8440315392304503
82.20551378446115,0.5734343068410152,0.6096659158293528,-10.901268,-1.924838,0.710183,0.000477,-0.0045029494701453706,0.01520181778487061,2.834763736182605
83.20802005012531,0.5734340059462522,0.6096660523141003,-10.900474,-1.913826,0.757683,0.005471,-0.004677482395344803,0.01223475805648025,2.8304701913161137
84.21052631578947,0.573433705226022,0.609666199794422,-10.91721,-1.911953,0.769464,0.029795,-0.004049163864626845,0.009791297103688189,2.832232938954043
85.21303258145363,0.5734334064256541,0.6096663458784805,-10.954091,-1.917292,0.741958,0.037694,0.0035779249665883754,0.005672320068981571,2.836910508615851
86.21553884711778,0.5734331067526216,0.6096664875992157,-10.982704,-1.920557,0.712543,0.014475,0.005375614096142535,0.0022514747350726853,2.8409073824160878
87.21804511278195,0.5734328058578584,0.6096666211169035,-10.983833,-1.919153,0.709047,-0.009241,-0.0037175513067479217,0.0004537856055185257,2.8433857150473347
88.22055137844612,0.5734325053121613,0.6096667535873938,-10.969445,-1.921696,0.719255,-0.013946,-0.002007128639793479,8.726646259971648e-05,2.8463527573224323
89.22305764411027,0.5734322042428653,0.6096668885013449,-10.952606,-1.933349,0.722887,-0.019975,0.0009424777960769379,-0.0009424777960769379,2.8513794626478086
90.22556390977444,0.5734319019518389,0.6096670260332899,-10.928819,-1.935458,0.720086,-0.024779,-5.235987755982989e-05,-0.00301941960595019,2.857034154891345
91.22807017543859,0.5734315973918844,0.6096671637397679,-10.909878,-1.927527,0.716988,-0.012108,0.0019198621771937625,-0.004223696789826277,2.8617466136849
92.23057644110276,0.5734312952753908,0.6096672977810546,-10.910684,-1.919969,0.695797,0.011136,0.005759586531581287,-0.00301941960595019,2.865917933143874
93.23308270676691,0.5734309943806278,0.609667427109952,-10.928569,-1.926552,0.656928,0.018459,0.011676252695842066,-0.0003665191429188092,2.8698274532150485
94.23558897243107,0.5734306915660026,0.6096675473631376,-10.935886,-1.940201,0.633722,-0.003504,0.0026354471705114374,0.0016755160819145565,2.8708745984063677
95.23809523809523,0.5734303852607189,0.6096676663945926,-10.914931,-1.955095,0.648948,-0.037776,-0.0029845130209103037,0.0027401669256310974,2.8683611148439856
96.2406015037594,0.5734300777337047,0.6096677918837657,-10.863598,-1.95331,0.699721,-0.055151,-0.00773180858633488,0.0020245819323134223,2.8631253365275127
97.24310776942356,0.5734297719520198,0.6096679281939803,-10.81824,-1.940022,0.74051,-0.027068,-0.003926990816987242,0.0013439035240356337,2.8612403460287736
98.24561403508771,0.573429470359125,0.6096680695656498,-10.818813,-1.924946,0.722601,0.025867,0.001308996938995747,0.0007504915783575617,2.8638409389741226
99.24812030075188,0.5734291703370266,0.6096682077957264,-10.863105,-1.920275,0.666103,0.051937,0.007452555906015787,0.0018151424220741027,2.8671570994594973
100.25062656641603,0.5734288704894611,0.6096683313650375,-10.90947,-1.926005,0.625896,0.031542,0.005585053606381855,0.004153883619746504,2.8675933270527407
101.2531328320802,0.5734285687220334,0.6096684481275645,-10.917042,-1.940763,0.637648,-0.017243,0.0038222710618675817,0.004886921905584123,2.864207388303872
102.25563909774435,0.5734282636384802,0.609668568206217,-10.876399,-1.953203,0.691303,-0.052818,-0.0050789081233034985,0.0027401669256310974,2.859285594719833
103.25814536340852,0.5734279555878672,0.6096687029456352,-10.823138,-1.952352,0.741122,-0.041047,-0.012723450247038663,-1.7453292519943296e-05,2.856580351832534
104.26065162907267,0.573427650155248,0.6096688471098315,-10.803467,-1.934834,0.748263,0.003344,-0.003996803987067015,-0.002076941809873252,2.85698169029403
105.26315789473684,0.5734273494350179,0.6096689910994948,-10.832372,-1.911981,0.716597,0.047725,0.0005585053606381855,-0.0003141592653589793,2.85944272671239
106.265664160401,0.5734270511582488,0.6096691246171826,-10.88426,-1.911018,0.67112,0.044497,0.007958701389094143,0.00312413936106985,2.863509361322829
107.26817042606515,0.5734267534050784,0.6096692488846253,-10.902527,-1.924357,0.656203,-0.008056,0.007557275661135447,0.003612831551628262,2.8647136559599975
108.27067669172932,0.5734264516376507,0.6096693719303375,-10.870017,-1.940405,0.679942,-0.045994,0.0018151424220741027,0.0024434609527920616,2.8646784875755698
109.27318295739347,0.573426145332367,0.6096695024809656,-10.821469,-1.949951,0.712905,-0.040815,-0.007155849933176751,0.00017453292519943296,2.8658132657486317
110.27568922305764,0.5734258392016163,0.6096696419327728,-10.796635,-1.947468,0.725881,-0.008698,-0.006667157742618339,-0.000767944870877505,2.8676282161844884
111.27819548872179,0.5734255342925959,0.6096697831299093,-10.803001,-1.933233,0.713617,0.016706,0.00010471975511965978,0.0006806784082777885,2.8706825947353556
112.28070175438596,0.5734252313034377,0.6096699182183933,-10.827092,-1.920639,0.682856,0.027072,0.0040666171571467884,0.0032114058236695662,2.876285084180965
113.28320802005013,0.5734249307577406,0.6096700445802312,-10.853148,-1.923958,0.653513,0.024708,0.010000736613927507,0.0054105206811824215,2.880264644315022
114.28571428571428,0.5734246295139117,0.6096701643098179,-10.871168,-1.943818,0.636635,0.010346,0.005270894341022875,0.006318091892219472,2.880822835516395
115.28822055137844,0.5734243233831608,0.6096702812468778,-10.865397,-1.955013,0.642711,-0.017099,-0.003979350694547071,0.0049741883681838385,2.8772800440276494
116.2907268170426,0.5734240153325478,0.6096704053397877,-10.838971,-1.954323,0.678638,-0.025905,-0.0033684854563490563,0.004607669225265031,2.8714855334577356
117.29323308270676,0.5734237088527312,0.6096705362394815,-10.820819,-1.942748,0.718327,-0.00262,-0.008168140899333463,0.003403392041388943,2.867331527664942
118.29573934837092,0.5734234058635731,0.6096706748186241,-10.839355,-1.92604,0.715743,0.038629,-0.0024260076602721182,0.003438298626428829,2.86644151446618
119.29824561403508,0.5734231065396064,0.609670810430707,-10.887096,-1.923014,0.675049,0.045035,0.0057246799465414016,0.005131268000863329,2.8674710841919313
120.30075187969925,0.5734228077392384,0.6096709376652095,-10.914598,-1.92852,0.659821,0.007462,0.004101523742186674,0.005916666164260778,2.8669650783351925
121.3032581453634,0.5734225059718107,0.6096710631543827,-10.899743,-1.939886,0.688658,-0.029479,-0.002949606435870417,0.003944444109507185,2.8657781148174966
122.30576441102757,0.5734222014118563,0.609671195275807,-10.865284,-1.937128,0.726913,-0.027241,-0.005934119456780721,0.00012217304763960306,2.8649927515606843
123.30827067669172,0.5734218968519018,0.6096713362984106,-10.854335,-1.930831,0.724097,0.008017,3.490658503988659e-05,-0.002356194490192345,2.8675411242548137
124.31077694235589,0.5734215936882108,0.6096714734812899,-10.870378,-1.930217,0.681832,0.017149,0.006370451769779303,-0.00307177948351002,2.871136397794167
125.31328320802004,0.573421292095316,0.6096716028101874,-10.878064,-1.932011,0.65472,-0.003176,0.0045553093477052,-0.0024434609527920616,2.8726024569125497
126.3157894736842,0.5734209891061578,0.6096717239360375,-10.860898,-1.941756,0.661786,-0.027983,0.0028797932657906437,-0.0030368728984701333,2.872951610029411
127.31829573934836,0.5734206840226046,0.609671848901612,-10.826022,-1.940756,0.687798,-0.035727,-0.006283185307179586,-0.005811946409141118,2.871974225648294
128.32080200501252,0.573420379986249,0.6096719808485034,-10.797389,-1.934988,0.698262,-0.017387,-0.005323254218582705,-0.006579891280018622,2.8724280287071053
129.32330827067668,0.5734200766480249,0.6096721133189937,-10.788067,-1.936052,0.687407,-0.001979,0.0020420352248333657,-0.006387905062299246,2.872323361311863
130.32581453634086,0.5734197727862022,0.6096722440441545,-10.786948,-1.943779,0.670404,-0.004906,0.0014311699866353504,-0.0054105206811824215,2.8708573021934805
131.328320802005,0.5734194684007806,0.609672369184262,-10.770911,-1.939576,0.666309,-0.025038,0.0004363323129985824,-0.005009094953223725,2.8675235487892463
132.33082706766916,0.5734191647134907,0.6096724943243693,-10.74455,-1.929572,0.683252,-0.022333,0.0018675022996339325,-0.003473205211468716,2.861973523940952
133.33333333333331,0.573418863120596,0.6096726253985962,-10.724792,-1.926427,0.709925,-0.016207,-0.005375614096142535,-0.0025132741228718345,2.85790687187722
134.3358395989975,0.5734185617022342,0.6096727617088108,-10.707748,-1.921355,0.730005,-0.012479,-0.0023038346126325153,-0.0015009831567151233,2.8572261760156494
135.33834586466165,0.5734182602838723,0.6096729025568813,-10.698246,-1.926514,0.729353,-0.006065,0.0064053583548191895,-0.00020943951023931956,2.8606470038962657
136.3408521303258,0.5734179586909776,0.6096730427068204,-10.690518,-1.926931,0.721152,-0.008094,0.0003141592653589793,-0.0006981317007977319,2.8656388375431874
137.34335839598998,0.5734176557018196,0.6096731800642324,-10.683913,-1.930238,0.707667,-0.006003,-0.0010821041362364843,-0.0013788101090755204,2.8715379980550506
138.34586466165413,0.5734173541089248,0.6096733130583214,-10.676872,-1.925225,0.699759,-0.005359,0.003735004599267865,-0.00307177948351002,2.876878443766765
139.34837092731829,0.5734170537377604,0.6096734443070813,-10.678092,-1.921565,0.681656,0.009046,0.0022514747350726853,-0.003473205211468716,2.8808580039008227
140.35087719298244,0.5734167528429974,0.6096735715415837,-10.687567,-1.932624,0.651604,0.00312,0.007120943348136864,-0.0037524578917878084,2.884086810657135
141.35338345864662,0.573416450377438,0.609673694761829,-10.675724,-1.942837,0.65088,-0.024916,0.0028448866807507574,-0.00476474885794452,2.8839123824516903
142.35588972431077,0.573416144770286,0.609673817982074,-10.634687,-1.956436,0.674419,-0.054157,-0.00019198621771937625,-0.007976154681614086,2.882777604278629
143.35839598997492,0.5734158377668706,0.6096739481836362,-10.573277,-1.949847,0.711932,-0.057658,-0.008412486994612669,-0.011047934165124106,2.880561053581889
144.36090225563908,0.573415531112521,0.6096740853665155,-10.53453,-1.933272,0.721227,-0.017599,-0.003141592653589793,-0.011728612573401895,2.8808928930325703
145.36340852130326,0.5734152298686921,0.60967422167673,-10.542882,-1.920212,0.685461,0.026974,0.009250245035569947,-0.010489428804485921,2.8827254014807018
146.3659147869674,0.5734149301956596,0.6096743487366996,-10.571703,-1.927428,0.632838,0.016833,0.010088003076527224,-0.0072082098107365804,2.884121699788882
147.36842105263156,0.5734146298244952,0.6096744660228254,-10.561079,-1.937374,0.625155,-0.036631,0.0027925268031909274,-0.003665191429188092,2.8808580039008227
148.37092731829574,0.5734143263117384,0.6096745838325498,-10.501099,-1.946508,0.67074,-0.071328,-0.002495820830351891,-0.0023387411976724015,2.8759013211850366
149.3734335839599,0.5734140222753827,0.609674714034112,-10.431033,-1.871367,0.734653,-0.05665,-0.022689280275926284,-0.0010995574287564276,2.917335315454334
150.37593984962405,0.5734137376121817,0.6096748337636988,-10.401,-1.76067,0.461187,-0.00756,0.021659536017249632,-0.006684611035138282,3.1570387302034804
151.3784461152882,0.5734134780817219,0.6096748932794263,-10.410934,-1.581034,0.001222,0.019988,0.09536479032897018,0.003979350694547071,3.4459605345786217
152.38095238095238,0.5734132716092715,0.6096748967700848,-10.430942,-1.342512,-0.423434,0.008541,0.12191124825180392,0.020682151636132805,3.705037383277585
153.38345864661653,0.5734131009160705,0.6096748002533771,-10.434583,-1.099606,-0.718835,-0.000253,0.16470672151070487,0.03893829561199349,3.924023530366048
154.38596491228068,0.5734129625114609,0.6096746381122896,-10.440082,-0.889828,-0.930617,0.015665,0.08361872446304834,0.0490612052735606,4.114282151378631
155.38847117794487,0.5734128511594546,0.6096744393192878,-10.460117,-0.697515,-1.102479,0.031414,0.04220206131322289,0.045937065912490756,4.282671430344581
156.39097744360902,0.5734127673836504,0.609674214695413,-10.501312,-0.484893,-1.264235,0.061727,0.06461208890883008,0.046705010783368264,4.438773678642954
157.39348370927317,0.573412712580312,0.6096739597028094,-10.583944,-0.263336,-1.437298,0.096557,0.014102260356114183,0.04429645641561608,4.58141950822162
158.39598997493732,0.573412693556223,0.6096736722470816,-10.667705,-0.03686,-1.577385,0.068862,0.026686084262993296,0.036320301734002,4.712965288103699
159.3984962406015,0.5734127106604499,0.609673360880343,-10.723291,0.188185,-1.651144,0.051695,0.031625366046137256,0.031817352263856624,4.835155387610094
160.40100250626566,0.5734127612749981,0.609673038867096,-10.785752,0.418823,-1.699463,0.079561,0.020612338466053034,0.030019663134302467,4.9469090814146774
161.4035087719298,0.5734128478433289,0.6096727088253344,-10.870857,0.634144,-1.764527,0.081634,0.028204520712228367,0.023544491609403504,5.040859544184294
162.406015037594,0.5734129684455803,0.6096723711041242,-10.926018,0.83749,-1.793765,0.02823,0.017697638615222503,0.012758356832078549,5.122872653001971
163.40852130325814,0.5734131227326862,0.6096720316375847,-10.937041,1.023914,-1.778043,0.004662,0.0158824961931484,0.00445058959258554,5.190277792312767
164.4110275689223,0.5734133038978625,0.609671696883434,-10.943176,1.172561,-1.760293,0.011088,0.0030543261909900766,-0.0028623399732707008,5.241904230161032
165.41353383458645,0.5734135039125948,0.6096713734739236,-10.956697,1.268588,-1.714874,0.009164,-0.016179202165987436,-0.013648474750595658,5.279656138213982
166.41604010025063,0.5734137164936978,0.6096710559985328,-10.955102,1.320966,-1.680534,-0.021014,-0.006265732014659643,-0.02659881780039358,5.30545205219858
167.41854636591478,0.5734139336126567,0.6096707488205845,-10.911146,1.346089,-1.63845,-0.067226,-0.00773180858633488,-0.0376118453804778,5.323987117242202
168.42105263157893,0.5734141512552144,0.6096704507183482,-10.831821,1.37816,-1.596665,-0.085763,0.0037699111843077517,-0.04181808887778413,5.337635295286826
169.4235588972431,0.5734143729120295,0.609670159597429,-10.742185,1.416401,-1.568214,-0.093373,-0.002495820830351891,-0.043179445694339715,5.344407713836631
170.42606516290726,0.5734145998048321,0.6096698733634316,-10.648252,1.436882,-1.545565,-0.091918,-0.0041887902047863905,-0.0429700061841004,5.346065794079319
171.42857142857142,0.5734148291410958,0.6096695907946258,-10.568373,1.42817,-1.552707,-0.06812,-0.007452555906015787,-0.03747221904031825,5.342487572406758
172.43107769423557,0.5734150556848328,0.6096693033388979,-10.504257,1.411226,-1.577909,-0.068725,-0.011431906600562858,-0.030787608005179972,5.338543425003223
173.43358395989975,0.5734152794360429,0.6096690143123737,-10.429023,1.414058,-1.56696,-0.081624,-0.008220500776893291,-0.023108159296404925,5.339136784589024
174.4360902255639,0.5734155028381871,0.6096687272057119,-10.353284,1.433471,-1.543029,-0.062821,-0.0030019663134302466,-0.012601277199399059,5.339992187908719
175.43859649122805,0.5734157281601936,0.6096684425425108,-10.307873,1.439137,-1.549392,-0.027853,-0.011711159280881952,-0.0028623399732707008,5.335837658517149
176.44110275689223,0.5734159545293976,0.6096681570066452,-10.292553,1.423105,-1.566835,-0.007036,-0.013421581947836395,0.004206243497306334,5.330060723412803
177.4436090225564,0.5734161793278053,0.6096678688527858,-10.286792,1.40466,-1.56704,-0.004103,-0.007452555906015787,0.010000736613927507,5.32634348626532
178.44611528822054,0.5734164006355543,0.609667581222525,-10.287837,1.399778,-1.56036,0.009757,-0.00445058959258554,0.017121679962064373,5.3255930121402555
179.4486215538847,0.5734166205470401,0.6096672923705337,-10.309819,1.403084,-1.568761,0.032293,-0.00603883921190038,0.023893557459802373,5.323359147777335
180.45112781954887,0.573416842203855,0.6096670026458779,-10.347811,1.39938,-1.586062,0.040474,-0.009616764178488757,0.028344147052387914,5.320304507427079
181.45363408521303,0.5734170631625384,0.609666710652294,-10.381898,1.397568,-1.579783,0.028583,-0.00932005820564972,0.030124382889422128,5.3190304519797085
182.45614035087718,0.573417285517485,0.6096664204040395,-10.418564,1.39988,-1.551555,0.055988,0.0005235987755982988,0.03452261260444784,5.319536440383154
183.45864661654133,0.5734175066507013,0.6096661305048507,-10.499253,1.384193,-1.578075,0.100606,-0.009808750396208134,0.040334559013588955,5.315120931908534
184.4611528822055,0.5734177235951273,0.609665837987668,-10.592183,1.372812,-1.614137,0.074801,-0.012740903539558606,0.03961897402027128,5.313445799799055
185.46365914786966,0.5734179419358169,0.609665541630761,-10.64059,1.383595,-1.591167,0.030252,-0.0018500490071139892,0.036023595761162965,5.3177915474634725
186.46616541353382,0.573418158356644,0.609665245797453,-10.670335,1.388348,-1.555424,0.04106,0.0013439035240356337,0.03483677186980682,5.319816077035909
187.468671679198,0.5734183773954652,0.609664956072797,-10.733232,1.38374,-1.561191,0.085301,-0.0038746309394274117,0.03549999698556466,5.315888981499167
188.47117794486215,0.5734185952125559,0.6096646679189376,-10.835125,1.379275,-1.595115,0.11115,-0.012758356832078549,0.03384193419617005,5.312398637154443
189.4736842105263,0.5734188139023111,0.6096643719110965,-10.934577,1.375751,-1.622236,0.07765,-0.007853981633974483,0.027139869868511822,5.3119624095611995
190.47619047619045,0.5734190299740726,0.6096640732852614,-10.976368,1.345216,-1.58756,0.012386,-0.03237585762449481,0.016406094968746697,5.338229178471401
191.47869674185463,0.5734192516308875,0.6096637853059348,-10.971805,1.482101,-1.499189,-0.008568,0.026459191460234035,0.007400196028455957,5.426804306397555
192.4812030075188,0.573419490566462,0.6096635139072362,-10.984793,1.565715,-1.422418,0.03762,0.010576695267085637,0.008761552845011534,5.472968614178657
193.48370927318294,0.5734197377050841,0.6096632487917227,-11.038743,1.609937,-1.405308,0.055608,-0.012060225131280817,0.004886921905584123,5.490003254570923
194.48621553884712,0.5734199965374123,0.6096629925773885,-11.07042,1.61022,-1.396076,-0.002154,-0.0023387411976724015,-0.0031066860685499066,5.488711082605917
195.48872180451127,0.5734202546716086,0.6096627422971739,-11.040062,1.591162,-1.357251,-0.048486,0.002775073510670984,-0.007435102613495843,5.473561973764457
196.49122807017542,0.5734205079188831,0.6096624955076176,-10.996075,1.57576,-1.353207,-0.027544,0.005585053606381855,-0.003979350694547071,5.443053862785691
197.49373433583958,0.573420755406571,0.6096622467981992,-10.990509,1.547143,-1.418246,0.012603,-0.003543018381548489,-0.0004886921905584122,5.403696600886756
198.49624060150376,0.5734209981818699,0.6096619846497455,-11.00853,1.49668,-1.494449,0.011052,-0.015114551322270894,-0.0014486232791552935,5.372088600866676
199.4987468671679,0.5734212343249178,0.609661708538658,-11.000175,1.44896,-1.518828,-0.031109,-0.010192722831646885,-0.00481710873550435,5.3583179356151485
200.50125313283206,0.5734214613922534,0.6096614270170495,-10.959991,1.437316,-1.490729,-0.034699,-0.003909537524467298,-0.0040666171571467884,5.367201696414385
201.50375939849624,0.5734216872378587,0.609661150905962,-10.946751,1.474486,-1.476008,0.011378,0.0032288591161895096,-0.00019198621771937625,5.397849363920139
202.5062656641604,0.5734219198902478,0.6096608767147365,-10.963666,1.527384,-1.467803,0.011986,-0.008412486994612669,-0.0016929693744344998,5.4519200481193595
203.50877192982455,0.5734221630146127,0.6096606081085645,-10.955325,1.600658,-1.396447,-0.027804,-1.7453292519943296e-05,-0.0061959188445798695,5.534334233599145
204.5112781954887,0.5734224180072164,0.6096603531159608,-10.919957,1.703209,-1.270108,-0.03653,0.006283185307179586,-0.006544984694978736,5.640939502816319
205.51378446115288,0.5734226915003103,0.6096601265722239,-10.887116,1.83513,-1.095905,-0.025888,0.01398008730847458,-0.0053058009260627615,5.765381042151201
206.51629072681703,0.5734229862864209,0.6096599366804013,-10.868718,1.968205,-0.87448,-0.006786,0.0249931148885588,-0.0015533430342749533,5.900242982518653
207.51879699248119,0.5734233021910154,0.6096597904218098,-10.869348,2.065226,-0.635281,0.005325,0.01054178868204575,0.0,6.037267944334687
208.52130325814534,0.5734236325818429,0.6096596933815035,-10.875149,2.118145,-0.390135,0.002885,0.014049900478554353,-0.0013788101090755204,6.176999754740932
209.52380952380952,0.5734239690813226,0.6096596441632186,-10.876459,2.136141,-0.135287,0.003334,0.02223549467040776,-3.490658503988659e-05,0.035430183815484885
210.52631578947367,0.5734243054062695,0.6096596413706918,-10.876857,2.131407,0.135054,0.002228,0.02028072590817411,0.0015009831567151233,0.17851227589398003
211.52882205513782,0.5734246385896238,0.6096596891927133,-10.874658,2.091318,0.410143,-0.000711,0.019704767255015982,0.00153588974175501,0.3220481535779937
212.531328320802,0.5734249633953976,0.6096597895491453,-10.873114,2.014715,0.671066,0.00275,0.024364796357840838,0.0010995574287564276,0.4654793115068877
213.53383458646616,0.5734252723186752,0.6096599377275987,-10.876762,1.909579,0.912833,0.006062,0.026825710603152843,0.0024260076602721182,0.6071651750903724
214.5363408521303,0.5734255629159957,0.6096601277939543,-10.883271,1.776474,1.140872,0.00605,0.02028072590817411,0.002775073510670984,0.7461631443593232
215.53884711779446,0.5734258323948321,0.6096603599227448,-10.889386,1.617505,1.355107,0.007045,0.026441738167714092,0.0015533430342749533,0.8826479442251574
216.54135338345864,0.5734260739484006,0.6096606313214435,-10.897096,1.431896,1.542202,0.011512,0.022532200643246795,0.0,1.015432558810301
217.5438596491228,0.5734262851332401,0.6096609339615358,-10.912569,1.22455,1.695858,0.022033,0.020786871391252466,-0.0013439035240356337,1.1439760233130984
218.54636591478695,0.573426462633225,0.6096612645268962,-10.934545,1.00996,1.82153,0.021595,0.026878070480712675,-0.001186823891356144,1.26662044947708
219.54887218045113,0.5734266066228884,0.6096616151635429,-10.95302,0.800969,1.913096,0.014245,0.022863813201125717,-0.0003316125578789226,1.3825277476487308
220.55137844611528,0.5734267160550325,0.6096619839516139,-10.958677,0.578677,2.008471,-0.00045,0.014451326206513048,-0.0019373154697137059,1.4979985564277507
221.55388471177943,0.5734267905805915,0.6096623675749835,-10.94836,0.368816,2.06617,-0.015328,0.017575465567582896,-0.0040666171571467884,1.5978139712558912
222.55639097744358,0.5734268333411581,0.6096627614957956,-10.93236,0.171535,2.089509,-0.013727,-0.0006632251157578452,-0.006998770300497262,1.6842252923353007
223.55889724310777,0.573426845209397,0.6096631573364699,-10.92428,-0.005868,2.089824,-0.004375,0.003351032163829113,-0.009930923443847734,1.7590650455674024
224.56140350877192,0.5734268308976972,0.6096635495119529,-10.922153,-0.155884,2.076246,-0.003967,-0.004799655442984407,-0.011868238913561441,1.8249511026571408
225.56390977443607,0.5734267930240524,0.6096639359278493,-10.915072,-0.291803,2.0575,-0.012751,0.0026354471705114374,-0.01345648853287628,1.8900170644379521
226.56641604010025,0.5734267350791212,0.6096643200748176,-10.897161,-0.420545,2.034579,-0.022864,0.0024260076602721182,-0.015899949485668342,1.9557112574830184
227.5689223057644,0.5734266584591671,0.6096647000329959,-10.872899,-0.548759,2.002126,-0.025156,-0.002007128639793479,-0.017872171540421936,2.0206375231105
228.57142857142856,0.5734265619424594,0.6096650723117252,-10.845013,-0.680548,1.959902,-0.033289,0.004939281783143952,-0.018709929581379212,2.0814446895302274
229.5739348370927,0.5734264458780642,0.60966543656194,-10.807574,-0.810531,1.915967,-0.043738,-0.0015009831567151233,-0.018884462506578648,2.136038553626025
230.5764411027569,0.5734263099169156,0.6096657924345746,-10.759624,-0.913207,1.883488,-0.051214,-0.005009094953223725,-0.019146261894377795,2.180596826882733
231.57894736842104,0.5734261582478035,0.6096661432457543,-10.707626,-0.990654,1.855244,-0.051544,-0.0102799892942466,-0.019757127132575807,2.2156257944097693
232.5814536340852,0.5734259968048476,0.609666489170012,-10.658069,-1.045434,1.822835,-0.048346,-0.0030892327760299633,-0.020158552860534508,2.2422769720877227
233.58395989974937,0.573425827856976,0.6096668282874858,-10.614854,-1.087975,1.785252,-0.038002,-0.008726646259971648,-0.018430676901060122,2.2622608000368403
234.58646616541353,0.573425652974985,0.6096671604236423,-10.583997,-1.132086,1.752284,-0.028171,-0.004136430327226561,-0.014067353771074298,2.2757347942221138
235.58897243107768,0.5734254730315391,0.6096674866256796,-10.557158,-1.162897,1.735712,-0.02874,-0.007435102613495843,-0.009197885158010117,2.282785784773831
236.59147869674183,0.5734252883757043,0.6096678103842559,-10.526519,-1.178567,1.73186,-0.031234,-0.013543754995475998,-0.0049741883681838385,2.2839554520786396
237.593984962406,0.5734251018000073,0.6096681344918978,-10.497464,-1.179404,1.742797,-0.026419,-0.015341444125030157,1.7453292519943296e-05,2.278509815372907
238.59649122807016,0.5734249173187054,0.6096684619156656,-10.480919,-1.172122,1.758024,-0.00686,-0.013194689145077132,0.004118977034706617,2.2691200487169327
239.59899749373432,0.5734247328374034,0.6096687926555587,-10.480011,-1.168481,1.765457,0.003196,-0.013212142437597075,0.006265732014659643,2.2599571748637177
240.6015037593985,0.5734245499268978,0.6096691242681167,-10.482639,-1.142437,1.754507,0.004906,-0.0070685834705770355,0.009512044423369097,2.24688451913994
241.60401002506265,0.5734243719033141,0.6096694516918842,-10.49161,-1.113357,1.745627,0.013118,0.003351032163829113,0.01699950691442477,2.232450716039117
242.6065162907268,0.5734241980685206,0.6096697778939216,-10.504867,-1.088665,1.757684,0.015772,-0.0013962634015954637,0.024504422698000385,2.2204078918404786
243.60902255639095,0.5734240299933137,0.6096701075866173,-10.526801,-1.061715,1.786101,0.030306,-0.0041887902047863905,0.029618237406343773,2.210668989520935
244.61152882205513,0.5734238654087651,0.6096704437370313,-10.568813,-1.045233,1.797239,0.053585,-0.00471238898038469,0.02965314399138366,2.2028498097522458
245.6140350877193,0.5734237025695459,0.6096707812837084,-10.63053,-1.040715,1.782833,0.064707,0.0013788101090755204,0.02864085302522695,2.1961302572254824
246.61654135338344,0.5734235418247218,0.609671116212392,-10.692159,-1.029936,1.770725,0.057425,0.0038571776469074684,0.02988003679414292,2.189201369908235
247.6190476190476,0.5734233838724245,0.609671449919345,-10.745776,-1.00959,1.784752,0.052777,0.0012915436464758037,0.03220132469929538,2.1830404100085725
248.62155388471177,0.5734232259201272,0.609671785895226,-10.793927,-1.000297,1.807299,0.043411,-0.0030019663134302466,0.030682888250060315,2.179846492384008
249.62406015037593,0.5734230711094225,0.6096721260598972,-10.83403,-1.001661,1.814904,0.038909,0.0014660765716752368,0.027227136331111543,2.178921432973866
250.62656641604008,0.5734229131571252,0.6096724644792391,-10.873618,-1.012681,1.808185,0.040871,0.0037524578917878084,0.02387610416728243,2.179636895794136
251.62907268170426,0.5734227538085646,0.6096728009787189,-10.915412,-1.008839,1.803859,0.043161,-0.0020245819323134223,0.019984019935335072,2.1794972170940987
252.6315789473684,0.5734225972525306,0.6096731402707255,-10.960363,-0.991697,1.802538,0.044921,0.0,0.015812683023068628,2.179584570823161
253.63408521303256,0.5734224431399576,0.6096734786900675,-11.003821,-0.98111,1.799684,0.038618,0.0009599310885968813,0.012391837689159739,2.180195628047577
254.63659147869672,0.5734222918199114,0.6096738165858107,-11.035054,-0.983895,1.796917,0.021787,0.006457718232379019,0.009389871375729494,2.1827959417402454
255.6390977443609,0.5734221375328056,0.6096741539579551,-11.046254,-1.002189,1.79552,0.002006,0.0064228116473391324,0.005148721293383272,2.1874037331385585
256.64160401002505,0.5734219804531729,0.6096744934244946,-11.039336,-1.017542,1.797764,-0.012444,0.0004188790204786391,-0.0006283185307179586,2.1923079512570296
257.64411027568923,0.5734218205810135,0.6096748321929024,-11.023148,-1.02161,1.803479,-0.018893,0.0008377580409572782,-0.0067369709126981125,2.197229867014116
258.64661654135335,0.5734216601852553,0.6096751721830407,-11.004137,-1.0177,1.801108,-0.019565,0.00047123889803846896,-0.012391837689159739,2.2020645686684808
259.64912280701753,0.5734215010112275,0.6096755093806522,-10.987141,-1.017557,1.78523,-0.016123,0.004223696789826277,-0.01530653753999027,2.2070560008896742
260.6516290726817,0.5734213416626667,0.6096758430876051,-10.972461,-1.030422,1.764729,-0.018104,0.0057421332390613445,-0.015062191444711064,2.2114543527777477
261.65413533834584,0.5734211809178427,0.6096761731293667,-10.949298,-1.041821,1.758169,-0.029526,0.007225663103256524,-0.013229595730117017,2.213286861225879
262.65664160401,0.5734210170314259,0.60967650386926,-10.912124,-1.053969,1.768875,-0.044326,0.0028797932657906437,-0.010943214410004447,2.2142818210725634
263.65914786967414,0.5734208505270152,0.6096768379252787,-10.861631,-1.060905,1.785642,-0.055742,-0.0019198621771937625,-0.011152653920243767,2.214735501958327
264.6616541353383,0.5734206850698021,0.6096771732030282,-10.809204,-1.050323,1.79496,-0.046322,-0.0024609142453120045,-0.012897983172238095,2.213199647123157
265.6641604010025,0.5734205204852537,0.6096775105751726,-10.778434,-1.039704,1.783536,-0.019804,0.002548180707911721,-0.012636183784438945,2.211367121221733
266.66666666666663,0.573420358867765,0.6096778446311913,-10.76646,-1.031152,1.763997,-0.008896,0.0003141592653589793,-0.00874409955249159,2.2093949340735644
267.6691729323308,0.5734201989956055,0.6096781750220187,-10.759511,-1.027523,1.761517,-0.006495,0.005532693728822024,-0.0018849555921538759,2.2079810602998164
268.671679197995,0.5734200394725119,0.6096785048892474,-10.749207,-1.0313,1.777761,-0.016314,0.004171336912266448,0.0019722220547535923,2.2080509607363585
269.6741854636591,0.5734198790767535,0.6096788392943321,-10.728297,-1.03431,1.791038,-0.023128,-0.0022514747350726853,0.001186823891356144,2.207893828743802
270.6766917293233,0.5734197188555282,0.6096791759683449,-10.707478,-1.033935,1.793185,-0.016953,0.003351032163829113,-0.00012217304763960306,2.2074051365532434
271.6791979949875,0.5734195579361712,0.6096795145622197,-10.694765,-1.03001,1.789747,-0.009143,-0.0005585053606381855,-0.00022689280275926284,2.2066023374572032
272.6817042606516,0.5734193971913472,0.6096798528070287,-10.689757,-1.029578,1.788539,-0.001748,-0.0009250245035569946,0.0015533430342749533,2.20698622262618
273.6842105263158,0.5734192367955889,0.609680188084778,-10.687292,-1.035969,1.789812,-0.006593,0.0018500490071139892,0.003246312408709453,2.2096741518472984
274.68671679197996,0.5734190751781001,0.6096805237115931,-10.677423,-1.030463,1.791826,-0.012079,-0.0004363323129985824,0.0024260076602721182,2.211803488441317
275.6892230576441,0.573418914607809,0.6096808614328034,-10.672699,-1.022033,1.786662,0.003196,0.001361356816555577,0.0012566370614359172,2.2128679472988155
276.69172932330827,0.5734187552592482,0.6096811967105527,-10.687721,-1.024054,1.769419,0.022839,0.00809832772925369,0.001361356816555577,2.2142293564752484
277.6942355889724,0.5734185960852204,0.6096815277995118,-10.712527,-1.035879,1.75449,0.022419,0.0062482787221397,0.0037699111843077517,2.215974790446998
278.69674185463657,0.5734184342931987,0.6096818559214111,-10.720589,-1.048313,1.759607,-0.006232,0.004677482395344803,0.0067369709126981125,2.2160095574056977
279.69924812030075,0.573418270406782,0.6096821873594361,-10.698937,-1.054763,1.785312,-0.030562,-0.0011693705988362008,0.00799360797413403,2.215887576344276
280.7017543859649,0.5734181056477006,0.6096825250806465,-10.665404,-1.050836,1.81289,-0.029093,-0.005113814708343385,0.005707226654021458,2.216166671944962
281.70426065162906,0.5734179421103497,0.6096828676887786,-10.650334,-1.035368,1.814938,0.001525,-0.004171336912266448,0.0011693705988362008,2.2164111576665815
282.70676691729324,0.5734177825872561,0.6096832087261145,-10.672462,-1.026434,1.782936,0.03586,0.0023387411976724015,-0.0006108652381980154,2.217545534413915
283.70927318295736,0.5734176241113601,0.6096835398150735,-10.714786,-1.024957,1.747125,0.039499,0.006998770300497262,0.0020594885173533086,2.21843556506597
284.71177944862154,0.5734174649373323,0.6096838656680449,-10.744024,-1.033995,1.741796,0.017288,0.009651670763528642,0.006108652381980153,2.219692167220821
285.7142857142857,0.5734173020981129,0.6096841901247528,-10.744767,-1.055579,1.762052,-0.014901,0.0076445421237351634,0.006021385919380436,2.219378182488387
286.71679197994985,0.5734171369899658,0.6096845212137119,-10.714046,-1.06229,1.791857,-0.039882,-0.005026548245743669,0.0018151424220741027,2.2171790850841666
287.719298245614,0.5734169711836868,0.6096848592839881,-10.674116,-1.051756,1.810318,-0.033162,-0.00937241808320955,-0.0026354471705114374,2.213810442548185
288.72180451127815,0.5734168062500725,0.6096852003213239,-10.656912,-1.037282,1.804037,-0.002042,-0.0023387411976724015,-0.00614355896702004,2.21154170650681
289.72431077694233,0.5734166449816497,0.6096855376934682,-10.671421,-1.019825,1.780775,0.026026,0.005288347633542819,-0.006283185307179586,2.209255237920235
290.7268170426065,0.5734164875529512,0.6096858707022896,-10.698444,-1.01252,1.760652,0.019003,0.003159045946109736,-0.0037524578917878084,2.2077541500437645
291.72932330827064,0.5734163306478514,0.6096861995223206,-10.701525,-1.013636,1.762827,-0.012756,0.005375614096142535,-0.00019198621771937625,2.207283033318774
292.7318295739348,0.5734161719974223,0.6096865293895493,-10.674167,-1.03027,1.786347,-0.03821,0.0021467549799530253,0.000593411945678072,2.2089585668539806
293.734335839599,0.5734160110780653,0.6096868671107595,-10.630713,-1.039432,1.814414,-0.04259,-0.0012042771838760874,-0.003246312408709453,2.2104942820628106
294.7368421052631,0.5734158480643132,0.6096872109406222,-10.599424,-1.038624,1.819848,-0.020783,-0.0050789081233034985,-0.009285151620609835,2.2123096164711025
295.7393483709273,0.5734156859232257,0.6096875526760898,-10.592611,-1.024722,1.794578,0.003598,-0.0016755160819145565,-0.013159782560037244,2.2128679472988155
296.7418546365915,0.5734155295417247,0.6096878883029049,-10.604524,-1.007522,1.763983,0.014926,0.0009948376736367678,-0.011658799403322121,2.2132169607893366
297.7443609022556,0.573415372636625,0.6096882150285409,-10.61777,-1.01255,1.749719,0.004172,0.009721483933608416,-0.006946410422937432,2.2145609341265424
298.7468671679198,0.5734152153824593,0.6096885398343146,-10.609714,-1.031807,1.759994,-0.021241,0.004991641660703782,-0.004537856055185257,2.216393704374062
299.74937343358397,0.5734150535904378,0.6096888698760762,-10.57205,-1.054773,1.788175,-0.051545,0.003141592653589793,-0.006213372137099813,2.218610255070802
300.7518796992481,0.5734148888313564,0.6096892072482206,-10.509162,-1.054341,1.810793,-0.064752,-0.003351032163829113,-0.012391837689159739,2.2186624578687293
301.7543859649123,0.5734147242468077,0.6096895488091553,-10.457433,-1.041071,1.807271,-0.03274,-0.0065275314024587925,-0.016772614111665505,2.2174930698166
302.7568922305764,0.5734145621057204,0.6096898886247606,-10.444069,-1.032298,1.78729,-0.002697,-0.0003141592653589793,-0.016388641676226754,2.2166729396010885
303.7593984962406,0.5734144032807583,0.609690223553444,-10.44782,-1.019172,1.767966,0.003375,0.0014660765716752368,-0.014119713648634126,2.2171790850841666
304.76190476190476,0.5734142465501916,0.6096905523734751,-10.447761,-1.020504,1.755094,-0.006495,0.005864306286700947,-0.011693705988362009,2.2186451442025494
305.7644110275689,0.5734140887724272,0.6096908796227098,-10.43043,-1.031673,1.753529,-0.02877,0.007801621756414653,-0.010786134777324957,2.219570203612691
306.76691729323306,0.5734139287257347,0.6096912096644714,-10.389956,-1.044503,1.765307,-0.048138,-0.001710422666954443,-0.01096066770252439,2.220006431205935
307.76942355889724,0.5734137646647851,0.6096915421496939,-10.336701,-1.059123,1.784661,-0.056101,-0.0036477381366681488,-0.013124875974997358,2.220076331642477
308.77192982456137,0.5734135978113086,0.6096918816162333,-10.277302,-1.060819,1.802769,-0.059911,-0.0016406094968746698,-0.017872171540421936,2.219831985547198
309.77443609022555,0.5734134325286284,0.6096922224790363,-10.22128,-1.041857,1.805592,-0.04981,-0.0067369709126981125,-0.0226543736908864,2.218330897670728
310.77694235588973,0.5734132712602056,0.6096925600257137,-10.188836,-1.019045,1.782831,-0.016928,-0.0008028514559173916,-0.021886428820008894,2.215713008512491
311.77944862155385,0.5734131124352436,0.6096928912892058,-10.183502,-0.978295,1.743839,-0.00264,0.001710422666954443,-0.014433872913993104,2.2338643105601848
312.78195488721803,0.5734129609406645,0.6096931967218248,-10.181894,-1.017233,1.516699,-0.008965,-0.008045967851693859,-0.01064650843716541,2.4261823677302425
313.7844611528822,0.5734127935635892,0.609693445780309,-10.156461,-1.165123,1.159901,-0.037606,0.04728096943652639,-0.008691739674931762,2.6998147038854783
314.78696741854634,0.5734126439888724,0.6096936435261133,-10.104076,-1.248774,0.777863,-0.057203,0.10965903690280374,0.001064650843716541,2.96625678966798
315.7894736842105,0.5734124713758093,0.6096937616849036,-10.057663,-1.274766,0.419849,-0.029729,0.1532224550325822,0.02028072590817411,3.19643086378087
316.79197994987464,0.5734122874181061,0.6096938068889313,-10.047334,-1.253385,0.103146,0.008287,0.14282031014398852,0.03661700770684103,3.3942813703336543
317.7944862155388,0.5734121029368042,0.6096937880393754,-10.066885,-1.218046,-0.188348,0.036535,0.06323327879975456,0.04326671215693943,3.570053461848711
318.796992481203,0.5734119202008315,0.6096937192734028,-10.120531,-1.175952,-0.451474,0.068846,0.05672320068981571,0.04412192349041665,3.7261208210153365
319.79949874686713,0.5734117444461758,0.6096936000674149,-10.2003,-1.114976,-0.716787,0.086999,0.03529055747532534,0.04326671215693943,3.86824308672499
320.8020050125313,0.5734115777672324,0.6096934360064652,-10.279972,-1.025973,-0.964293,0.068983,0.02535963403147761,0.039235001584832535,3.9965070367480804
321.8045112781955,0.573411424527324,0.6096932283122842,-10.334466,-0.925257,-1.16928,0.043602,0.031241393610698498,0.035866516128483475,4.114195059448956
322.8070175438596,0.5734112878680435,0.6096929841407219,-10.376114,-0.815436,-1.350933,0.046017,0.029949849964222695,0.034191000046568915,4.221497552795717
323.8095238095238,0.5734111688365885,0.6096927082041672,-10.432702,-0.688195,-1.522495,0.07172,0.028396506929947742,0.03214896482173555,4.315605671156667
324.812030075188,0.5734110716217492,0.6096924005026201,-10.520727,-0.551574,-1.698019,0.09536,0.023474678439323732,0.027942721324429216,4.395053355413421
325.8145363408521,0.5734109967471243,0.6096920633050086,-10.607515,-0.427619,-1.83814,0.072428,0.011309733552923256,0.019233528356977513,4.458827546654954
326.8170426065163,0.573410941420187,0.6096917002765241,-10.663466,-0.318296,-1.944523,0.040464,0.005218534463463045,0.01054178868204575,4.509110430045033
327.8195488721804,0.5734109014521472,0.6096913206674118,-10.682085,-0.237802,-2.030735,-0.00191,0.0053058009260627615,-0.000767944870877505,4.546879372511483
328.8220551378446,0.5734108735268793,0.6096909295391265,-10.667374,-0.174578,-2.099752,-0.01836,0.008779006137531478,-0.01085594794740473,4.575345378452245
329.82456140350877,0.5734108558990536,0.6096905291605961,-10.653483,-0.109142,-2.135947,-0.010192,-0.00783652834145454,-0.0187448361664191,4.597581169828625
330.8270676691729,0.5734108471724074,0.6096901275603352,-10.639564,-0.048262,-2.158579,-0.027141,-0.005113814708343385,-0.026878070480712675,4.613812609699125
331.8295739348371,0.5734108468233415,0.6096897257855414,-10.592435,-0.010711,-2.149203,-0.071668,-0.010716321607245184,-0.03392920065876977,4.621910745442161
332.83208020050125,0.573410850488533,0.6096893292467352,-10.509761,0.008624,-2.117597,-0.087211,-0.008621926504851989,-0.03593632929856325,4.624284689930846
333.8345864661654,0.5734108579934488,0.6096889382929829,-10.440206,0.021976,-2.123415,-0.054701,-0.004328416544945937,-0.031485739705977706,4.624982961257984
334.83709273182956,0.5734108661964963,0.6096885461175,-10.393255,0.023955,-2.147083,-0.052394,-0.012042771838760872,-0.02841396022246768,4.623604517668051
335.83959899749374,0.5734108742250108,0.6096881508004244,-10.327519,0.03011,-2.137301,-0.080785,-0.013700834628155488,-0.026982790235832336,4.6214223150509905
336.84210526315786,0.5734108822535254,0.6096877542616183,-10.249253,0.028547,-2.1184,-0.069103,-0.009843656981248018,-0.020472712125893487,4.617809483499362
337.84461152882204,0.5734108880131119,0.609687360864405,-10.200405,0.010848,-2.124452,-0.030418,-0.013578661580515884,-0.01223475805648025,4.6119627701315205
338.8471177944862,0.5734108922019021,0.6096869681653233,-10.188804,0.016757,-2.143416,-0.001112,-0.016074482410867775,-0.005061454830783556,4.609397083771212
339.84962406015035,0.5734108956925607,0.6096865718010501,-10.183147,0.017526,-2.140785,-0.020725,-0.008831366015091307,-0.002129301687433082,4.6061858524804675
340.8521303258145,0.5734108977869558,0.6096861764839745,-10.150741,-0.000608,-2.106527,-0.036455,-0.009180431865490174,0.0012740903539558606,4.601333557907243
341.85463659147865,0.5734108990086862,0.6096857858792879,-10.136545,-0.012985,-2.104785,0.011712,-0.008429940287132611,0.0091106186954104,4.598872800741563
342.85714285714283,0.5734108986596204,0.6096853966708647,-10.167109,-0.011491,-2.139133,0.034848,-0.01075122819228507,0.011815879036001611,4.598768412599002
343.859649122807,0.5734108979614886,0.6096850013537891,-10.189945,-0.013108,-2.140878,0.008891,-0.019233528356977513,0.009826203688728075,4.596778492905633
344.86215538847114,0.5734108949944289,0.6096846035932526,-10.188634,-0.028415,-2.119496,-0.007001,-0.013439035240356337,0.010681415022205296,4.59309588309051
345.8646616541353,0.5734108934236326,0.6096842128140331,-10.184077,-0.028296,-2.104439,0.005676,-0.002356194490192345,0.01408480706359424,4.592589336181704
346.8671679197995,0.573410890107507,0.6096838243037416,-10.212858,-0.023128,-2.118269,0.050335,-0.008412486994612669,0.019582594207376378,4.5930255637749475
347.8696741854636,0.5734108848715193,0.6096834326518575,-10.266819,-0.02526,-2.135255,0.047263,-0.015166911199830723,0.021223203704251046,4.592048720445899
348.8721804511278,0.5734108839988548,0.6096830390801111,-10.30008,-0.025148,-2.116104,0.026485,-0.009128071987930343,0.022165681500327987,4.59159437633502
349.874686716792,0.5734108812063278,0.6096826453338319,-10.332974,-0.039896,-2.10943,0.041608,-0.009180431865490174,0.027139869868511822,4.5903906402032115
350.8771929824561,0.5734108761448731,0.6096822545546124,-10.371466,-0.055983,-2.110358,0.032715,-0.013351768777756621,0.029042278753185644,4.589291274760673
351.8796992481203,0.5734108681163584,0.6096818656952551,-10.408434,-0.057861,-2.089722,0.053587,-0.01244419756671957,0.033562681515850956,4.597825655550245
352.88220551378447,0.5734108672436938,0.6096814754396342,-10.491211,0.081619,-2.152266,0.098423,-0.0030368728984701333,0.03501130479500625,4.689001638221136
353.8847117794486,0.5734108932490997,0.6096810729667088,-10.558054,0.204458,-2.162425,0.031312,0.007138396640656807,0.02841396022246768,4.745707263445384
354.8872180451128,0.5734109148911825,0.6096806802676271,-10.572183,0.285732,-2.091514,0.018042,-0.010611601852125523,0.0291469985083053,4.771956963035501
355.8897243107769,0.57341096725106,0.6096802907101381,-10.620821,0.313731,-2.076504,0.083164,0.011414453308042916,0.03515093113516579,4.770246679994886
356.8922305764411,0.573411025545057,0.6096799076103672,-10.726245,0.311008,-2.112315,0.113548,-0.0062482787221397,0.03701843343479973,4.749354722329372
357.89473684210526,0.573411079126665,0.6096795192746086,-10.813873,0.273706,-2.120737,0.053719,-0.012932889757277981,0.03260275042725408,4.714937091279432
358.8972431077694,0.5734111241561597,0.6096791291935209,-10.834685,0.200975,-2.077086,0.007378,-0.012583823906879116,0.030630528372500482,4.67358992714042
359.89974937343356,0.5734111548739546,0.6096787446974866,-10.862761,0.120552,-2.078559,0.05893,-0.0032812189937493396,0.03478441199224699,4.639154720624912
360.90225563909775,0.5734111738980434,0.6096783586306561,-10.949311,0.062934,-2.128221,0.09891,-0.013997540600994524,0.03169517921621703,4.620095533206917
361.90476190476187,0.5734111814029592,0.6096779655825085,-11.035456,0.039802,-2.136232,0.067553,-0.016859880574265223,0.02246238747316702,4.620427896256374
362.90726817042605,0.573411186638947,0.6096775678219719,-11.086897,0.054101,-2.121469,0.036074,-0.01022762941668677,0.016161748873467493,4.644670118140848
363.90977443609023,0.5734111950165274,0.6096771730284952,-11.104093,0.111473,-2.106385,-0.002561,-0.0005061454830783556,0.008936085770210968,4.696314131454679
364.91228070175436,0.5734112163095443,0.6096767855654012,-11.091419,0.234247,-2.085516,-0.011742,0.003560471674068432,0.003735004599267865,4.775569812040422
365.91478696741854,0.573411261164506,0.6096763996731036,-11.10133,0.410459,-2.092088,0.030894,0.0010995574287564276,0.0018675022996339325,4.875385087242223
366.91729323308266,0.573411336039131,0.6096760125590756,-11.139772,0.608703,-2.092659,0.030971,-0.0049741883681838385,-0.004328416544945937,4.991257635908466
367.91979949874684,0.5734114465184725,0.6096756275394425,-11.144315,0.834027,-2.020736,-0.026765,0.0165282680163863,-0.010262536001726658,5.122716062061483
368.922305764411,0.5734115926025309,0.609675259973102,-11.0944,1.088739,-1.872973,-0.066424,0.02405063709248186,-0.011292280260403312,5.263493953008202
369.92481203007515,0.5734117803999584,0.609674926266149,-11.032784,1.35372,-1.683957,-0.046835,0.02865830631774689,-0.008726646259971648,5.40577333325712
370.9273182957393,0.5734120128778148,0.6096746311309726,-11.010155,1.593737,-1.493294,0.000869,0.016632987771505958,-0.007906341511534314,5.545329895153171
371.9298245614035,0.5734122804367892,0.6096743731713091,-11.028583,1.758287,-1.306998,0.020016,0.00047123889803846896,-0.012566370614359171,5.680872007783417
372.93233082706763,0.5734125694633133,0.6096741501182308,-11.035933,1.871146,-1.094427,-0.015004,0.00815068760681352,-0.017662732030182614,5.817060206396168
373.9348370927318,0.5734128752449983,0.6096739701747849,-11.00017,1.991035,-0.829654,-0.051173,0.027314402793711258,-0.016318828506146982,5.953370386070341
374.937343358396,0.5734131960365147,0.6096738397986897,-10.943337,2.098626,-0.541423,-0.055927,0.020996310901491785,-0.01579522973054868,6.086818190864657
375.9398496240601,0.5734135311397311,0.6096737652731306,-10.893712,2.13816,-0.270335,-0.040279,0.017976891295541596,-0.01876228945893904,6.215937823460122
376.9423558897243,0.5734138706062707,0.6096737418857187,-10.87227,2.129589,-0.03836,-0.0057,0.01691224045182505,-0.01637118838370681,0.0580496509213314
377.9448621553885,0.5734142044877566,0.6096737584663465,-10.878323,2.115001,0.17029,0.01009,0.018186330805780915,-0.011030480872604163,0.18011797880581482
378.9473684210526,0.5734145359257815,0.6096738115243558,-10.879996,2.094752,0.388261,-0.010757,0.013264502315156905,-0.010122909661567111,0.3017848809623395
379.9498746867168,0.5734148607315552,0.6096739040268062,-10.852285,2.041403,0.62271,-0.038629,0.010053096491487338,-0.013927727430914751,0.4234517656655717
