Time [s],Longitude [rad],Latitude [rad],Altitude [m],V North [m/s],V East [m/s],V Down [m/s],Roll [rad],Pitch [rad],Yaw [rad]
0.0,0.5733531741635387,0.6089846810101094,-9.844868,-1.856788,-0.994794,0.0226,0.004590215932745087,0.004433136300065597,3.565795067913355
1.0025062656641603,0.5733528716979793,0.6089845082225135,-9.86128,-1.951489,-0.850749,0.001266,-0.017592918860102842,0.004991641660703782,3.476992488679081
2.0050125313283207,0.5733525552697859,0.6089843637092515,-9.853286,-2.034441,-0.646232,-0.015007,-0.011047934165124106,0.008499753457212385,3.388486859763741
3.007518796992481,0.5733522280205512,0.6089842584658975,-9.852535,-2.107863,-0.451129,0.0118,-0.008691739674931762,0.012705996954518718,3.310924427805113
4.010025062656641,0.5733518889030775,0.6089841923179189,-9.874116,-2.167733,-0.288561,0.029447,-0.005672320068981571,0.011187560505283653,3.2447241067302603
5.012531328320802,0.5733515405353589,0.6089841586330643,-9.911898,-2.218026,-0.148218,0.042294,-0.004084070449666731,0.00937241808320955,3.1881580205797095
6.015037593984962,0.5733511832664608,0.6089841490337534,-9.943602,-2.252055,-0.020212,0.016618,-0.013124875974997358,0.003926990816987242,3.142744466176354
7.017543859649122,0.5733508239031679,0.6089841612510583,-9.953271,-2.27134,0.084975,0.003569,-0.017976891295541596,0.004537856055185257,3.109862689961584
8.020050125313283,0.5733504608746834,0.608984191968853,-9.948586,-2.296081,0.174156,-0.013362,-0.012566370614359171,0.005393067388662479,3.0903324032718897
9.022556390977442,0.5733500945300736,0.6089842359511501,-9.941931,-2.322136,0.229903,-0.000804,-0.0165282680163863,0.007819075048934596,3.084223628716862
10.025062656641603,0.5733497238221404,0.6089842897072911,-9.952058,-2.347301,0.247438,0.018703,-0.011414453308042916,0.008290313946973065,3.087784013124468
11.027568922305765,0.5733493485763512,0.6089843429398334,-9.982107,-2.376431,0.228869,0.030621,-0.01111774733520388,0.0071907565182166375,3.10024575125017
12.030075187969924,0.5733489700144365,0.6089843912854536,-10.001052,-2.389527,0.208699,0.005339,-0.005166174585903215,0.0020943951023931952,3.117297705308617
13.032581453634084,0.5733485912779889,0.6089844326497569,-10.003951,-2.387659,0.175038,0.004868,-0.0009773843811168245,0.0026005405854715507,3.1391318964241135
14.035087719298245,0.5733482183011276,0.608984464938348,-10.013603,-2.26897,0.097144,0.039106,-0.09971066016643605,0.011885692206081384,3.2400467814145486
15.037593984962406,0.573347886339504,0.6089844525465102,-10.02367,-1.935879,-0.302863,-0.043601,0.04082325120414737,-0.0318871654339364,3.527519857790779
16.040100250626566,0.5733476133700088,0.6089843747048257,-9.967574,-1.558668,-0.723263,-0.043167,0.11758283170685799,-0.0023038346126325153,3.8168954652247318
17.042606516290725,0.5733474182421985,0.6089842633528194,-9.929132,-1.176578,-0.978192,-0.041778,0.12348204457859882,0.004799655442984407,4.059409052055806
18.045112781954884,0.5733472824555828,0.6089840725883322,-9.893981,-0.822725,-1.156881,-0.022368,0.051731559029111925,0.011344640137963142,4.278866839468036
19.047619047619047,0.5733471953636531,0.6089838458700623,-9.89854,-0.514222,-1.282061,0.027464,0.06028367236388415,0.006597344572538566,4.466925420598601
20.050125313283207,0.5733471492869608,0.6089835976842427,-9.931339,-0.23032,-1.414513,0.041203,0.03956661414271145,-0.0013788101090755204,4.636624185195738
21.052631578947366,0.5733471431783085,0.6089833241911489,-9.962246,0.044155,-1.52055,0.015248,0.013229595730117017,-0.012740903539558606,4.789375104624309
22.05513784461153,0.5733471754668995,0.6089830297541041,-9.947344,0.296527,-1.572515,-0.0373,0.054873151682701723,-0.016022122533307946,4.925580878702627
23.05764411027569,0.5733472442328721,0.6089827292084069,-9.899474,0.538716,-1.569906,-0.037213,0.043563418129778465,-0.008674286382411817,5.047352326081346
24.06015037593985,0.573347349476226,0.6089824295353743,-9.884092,0.763142,-1.574847,0.010914,0.02897246558310587,-0.004031710572106902,5.147918075408212
25.062656641604008,0.5733474903242967,0.6089821300368747,-9.901922,0.960362,-1.607963,0.014986,0.03850196329899491,-0.007696902001294993,5.218307570660286
26.065162907268167,0.573347662239228,0.6089818253023873,-9.909659,1.139107,-1.624413,-0.000878,0.029007372168145754,-0.010925761117484502,5.263302193683285
27.06766917293233,0.5733478589378346,0.6089815151573792,-9.907125,1.249874,-1.655943,-0.007103,0.019198621771937627,-0.011466813185602746,5.27236013834187
28.07017543859649,0.5733480687264108,0.6089811975074554,-9.886089,1.298166,-1.718405,-0.038336,0.018727382873899155,-0.012426744274199627,5.248955744311525
29.07268170426065,0.5733482834019087,0.6089808711308853,-9.837065,1.294932,-1.785788,-0.048636,0.013212142437597075,-0.0065100781099388496,5.198637448190922
30.075187969924812,0.5733484912706226,0.6089805318388786,-9.805105,1.218852,-1.866892,-0.004632,0.004206243497306334,0.002775073510670984,5.123745631787234
31.07769423558897,0.5733486797661819,0.6089801754426454,-9.823531,1.073032,-1.989514,0.034623,0.0016057029118347831,0.006457718232379019,5.031243390871044
32.08020050125313,0.5733488417327365,0.6089797977533953,-9.84269,0.906762,-2.105255,-0.003135,-0.004642575810304917,0.0016057029118347831,4.935389314939569
33.08270676691729,0.5733489747268254,0.6089794026108526,-9.823068,0.733974,-2.156889,-0.01906,-0.016615534478986015,0.006911503837897545,4.841927265107831
34.08521303258145,0.5733490729888623,0.6089789969963344,-9.820381,0.514839,-2.193294,0.013268,-0.007347836150896127,0.012740903539558606,4.750838636166002
35.08771929824561,0.5733491365188471,0.608978587367559,-9.843727,0.294821,-2.22661,0.031607,-0.013927727430914751,0.012514010736799343,4.672176315166061
36.09022556390977,0.5733491670621089,0.6089781735499934,-9.879316,0.124048,-2.260616,0.026906,-0.0032637657012293962,0.009285151620609835,4.611474357193643
37.092731829573935,0.5733491700291689,0.6089777522275119,-9.89634,0.007206,-2.277007,0.004195,-0.013543754995475998,0.006981317007977318,4.565746277005785
38.095238095238095,0.5733491557174689,0.6089773261926416,-9.909376,-0.098325,-2.291627,0.020179,-0.005689773361501515,0.008848819307611252,4.5324631623295195
39.097744360902254,0.5733491269195362,0.608976895619915,-9.925971,-0.202095,-2.318012,0.006302,-0.016493361431346415,0.005567600313861911,4.513124879310838
40.100250626566414,0.573349085729766,0.6089764633018594,-9.927502,-0.24875,-2.334179,0.000295,-0.006754424205218055,0.006370451769779303,4.510908066814709
41.10275689223057,0.5733490394785408,0.6089760248751512,-9.932653,-0.24687,-2.357209,0.00796,-0.0069638637154573755,0.007487462491055674,4.521362571580863
42.10526315789473,0.5733489939254472,0.60897558208512,-9.946418,-0.23762,-2.38218,0.020474,-0.006824237375297829,0.008656833089891874,4.537192934789253
43.10776942355889,0.5733489537828744,0.6089751349317656,-9.970861,-0.20897,-2.410841,0.021751,-0.005218534463463045,0.006457718232379019,4.558817267515491
44.11027568922306,0.573348922192415,0.6089746816697589,-9.979953,-0.146092,-2.430153,-0.007929,0.002827433388230814,0.0021991148575128553,4.586183908013714
45.11278195488722,0.5733489000267336,0.6089742284077522,-9.973615,-0.06385,-2.372499,-0.007677,0.1205673447277683,-0.01228711793404008,4.569062978543228
46.11528822055138,0.5733488694834715,0.6089738100523304,-9.939631,-0.331414,-2.079505,-0.052151,-0.015062191444711064,-0.023282692221604357,4.314296726577548
47.11779448621554,0.573348786929398,0.608973461335546,-9.90766,-0.735064,-1.666382,-0.034198,-0.008831366015091307,-0.013404128655316452,4.003366547227561
48.1203007518797,0.5733486987902707,0.6089732051212118,-9.858485,-1.036606,-1.265372,-0.068197,-0.08066911802717791,-0.008674286382411817,3.7422827444217295
49.122807017543856,0.5733485406634404,0.6089730332062804,-9.804797,-1.249752,-0.874713,-0.048523,-0.008429940287132611,0.004886921905584123,3.52261537787292
50.125313283208015,0.5733483343655229,0.6089729255194655,-9.774389,-1.395072,-0.528887,-0.007815,-0.022794000031045945,0.005672320068981571,3.3345562556902864
51.127819548872175,0.5733481038075288,0.6089728764757135,-9.789438,-1.503462,-0.231148,0.042343,0.016667894356545847,0.005934119456780721,3.1670743035892777
52.130325814536334,0.5733478568434396,0.6089728712397258,-9.833748,-1.578843,0.030069,0.031531,0.02665117767795341,-0.004031710572106902,3.0150038182228895
53.1328320802005,0.5733475997564407,0.6089729120804303,-9.843351,-1.606074,0.311086,-0.019517,0.013788101090755204,-0.00809832772925369,2.8740861089497924
54.13533834586466,0.5733473402259809,0.6089730007431563,-9.813397,-1.599217,0.607644,-0.035547,0.004939281783143952,-0.0023212879051524586,2.75018494100462
55.13784461152882,0.5733470822663175,0.6089731428129573,-9.788024,-1.599998,0.869443,-0.014037,0.008447393579652554,0.004014257279586958,2.6560595089774908
56.14035087719298,0.5733468248302528,0.6089733335774447,-9.784616,-1.597427,1.078857,0.011358,0.009442231253289324,0.007225663103256524,2.5910461514203345
57.14285714285714,0.5733465675687212,0.6089735623901096,-9.812916,-1.598001,1.21947,0.041724,0.018797196043978927,0.009599310885968814,2.557116671508884
58.1453634085213,0.5733463073401296,0.6089738093541986,-9.855744,-1.627955,1.293607,0.033762,0.024504422698000385,0.007923794804054257,2.555685501522249
59.14786967418546,0.573346042748215,0.6089740650449342,-9.876442,-1.68302,1.320079,0.008443,0.013491395117916168,0.006754424205218055,2.5860543177734128
60.150375939849624,0.5733457685569896,0.6089743182922086,-9.87931,-1.762785,1.294103,-9.9e-05,0.0170518667919846,0.006911503837897545,2.6415210384814256
61.152882205513784,0.5733454824975251,0.6089745617656392,-9.883915,-1.845572,1.20753,0.014372,0.014137166941154071,0.007923794804054257,2.7163779657533667
62.15538847117794,0.5733451843952889,0.6089747832479214,-9.908647,-1.926872,1.05619,0.032592,0.012636183784438945,0.007714355293814937,2.8051629695220734
63.1578947368421,0.5733448728540175,0.6089749680782891,-9.939709,-2.010238,0.86209,0.019707,0.01764527873766267,0.0066322511575784525,2.9009118719128226
64.16040100250626,0.5733445504917046,0.6089751143368805,-9.937659,-2.072449,0.689502,-0.01921,0.01598721594826806,0.006318091892219472,2.9907962236707757
65.16290726817043,0.5733442199263442,0.608975227434216,-9.920748,-2.113589,0.526749,-0.003188,0.021101030656611446,0.011571532940722405,3.074257816141267
66.16541353383458,0.5733438811579364,0.6089753054504335,-9.930834,-2.154148,0.334401,0.018482,0.014398966328953218,0.011641346110802179,3.152500961414758
67.16791979949875,0.5733435388988701,0.6089753494327307,-9.963879,-2.172089,0.14216,0.047311,0.021642082724729686,0.009843656981248018,3.2167465311806693
68.1704260651629,0.5733431922764807,0.6089753553668502,-10.016467,-2.189646,-0.036283,0.042028,0.01715658654710426,0.0038222710618675817,3.264097261427398
69.17293233082707,0.5733428440832948,0.6089753281397138,-10.030932,-2.191931,-0.151901,-0.005386,0.019704767255015982,-8.726646259971648e-05,3.2919004087715447
70.17543859649122,0.5733424948429116,0.6089752846810155,-10.017528,-2.213086,-0.195401,-0.017866,0.01022762941668677,0.00153588974175501,3.3063690835508224
71.17794486215539,0.5733421410646722,0.608975234415533,-9.995211,-2.241074,-0.216082,-0.019031,0.00968657734856853,0.003665191429188092,3.310488200211869
72.18045112781954,0.5733417823995108,0.6089751855463139,-9.99229,-2.276815,-0.227587,0.008293,0.011920598791121272,0.006702064327658226,3.3068577757413813
73.1829573934837,0.5733414164039669,0.6089751389460228,-10.002394,-2.308358,-0.232404,0.004381,-0.000890117918517108,0.0046251225177849735,3.296647756696847
74.18546365914787,0.5733410462196324,0.6089750907749356,-10.012054,-2.330779,-0.212971,0.014232,0.006492624817418906,0.0061959188445798695,3.2794386706458427
75.18796992481202,0.5733406723701067,0.6089750480143689,-10.031317,-2.33728,-0.186674,0.026096,-0.028431413514987628,0.0028448866807507574,3.250885328429311
76.19047619047619,0.5733403138794783,0.6089750188673703,-10.053671,-2.140416,0.011083,0.001915,-0.04293509959906051,-0.016109388995907664,3.0524236250257704
77.19298245614034,0.5733399958804886,0.6089750597080749,-10.048008,-1.852008,0.486817,-0.017721,0.03785619147575701,-0.02256710722828668,2.7490331284180582
78.19548872180451,0.5733397417605495,0.60897513161564,-9.9875,-1.540219,0.900571,-0.086604,-0.06761405522226033,-0.029216811678385076,2.4808807595949425
79.19799498746866,0.5733395443638111,0.6089752998653799,-9.893466,-1.210491,1.256116,-0.093746,0.010890854532444616,-0.015132004614790837,2.243777658538465
80.20050125313283,0.573339390425771,0.6089755553815825,-9.805185,-0.883321,1.525668,-0.078549,-0.07740535232594851,-0.009005898940290741,2.0313714027300205
81.203007518797,0.57333928535695,0.6089758602906028,-9.778541,-0.566225,1.693746,0.02119,-0.004118977034706617,0.0036477381366681488,1.8369416018848046
82.20551378446115,0.5733392207797678,0.6089761875398375,-9.825328,-0.264953,1.770068,0.059254,0.003525565089028546,-0.005934119456780721,1.6528094356125727
83.20802005012531,0.5733392033264753,0.6089765231666527,-9.894334,0.035068,1.789753,0.057638,0.014625859131712481,-0.010873401239924673,1.479375998028726
84.21052631578947,0.5733392282846836,0.6089768566990726,-9.934702,0.328422,1.788076,0.011769,0.011484266478122689,-0.015009831567151233,1.3235705604229475
85.21303258145363,0.5733392987959854,0.608977189533361,-9.909891,0.603619,1.802081,-0.048551,0.007592182246175334,-0.012810716709638379,1.1862479850628636
86.21553884711778,0.5733394132895843,0.6089775283017689,-9.836669,0.864192,1.839858,-0.081265,0.014503686084072877,-0.0064228116473391324,1.0656806228818028
87.21804511278195,0.5733395698456182,0.6089778784148169,-9.764071,1.108927,1.881344,-0.054809,0.016667894356545847,0.00047123889803846896,0.9722182414375065
88.22055137844612,0.5733397611337042,0.608978239697972,-9.740367,1.29981,1.899444,0.00796,0.013404128655316452,0.006073745796940267,0.9154252101243183
89.22305764411027,0.5733399806961241,0.6089786032500552,-9.78514,1.427228,1.885575,0.068809,0.02350958502436362,0.0073129295658562405,0.8965581660036747
90.22556390977444,0.5733402173627707,0.6089789601698873,-9.867265,1.489337,1.868763,0.07954,0.028256880589788196,0.0029670597283903604,0.9196314012617471
91.22807017543859,0.5733404589163391,0.6089793116791985,-9.933517,1.477755,1.895338,0.0434,0.024015730507441973,-0.0035779249665883754,0.9826901296830098
92.23057644110276,0.573340694884854,0.6089796659810367,-9.949226,1.392196,1.986979,-0.012531,0.027855454861829502,-0.005707226654021458,1.0762572308824256
93.23308270676691,0.573340911654747,0.6089800382597662,-9.915212,1.230274,2.123373,-0.050301,0.018081611050661254,-0.0031066860685499066,1.1888309850893526
94.23558897243107,0.5733410964851149,0.6089804384637637,-9.860158,1.011966,2.261245,-0.05009,0.03415609346152903,0.0032637657012293962,1.3085780250686836
95.23809523809523,0.5733412406493111,0.6089808657203646,-9.821733,0.769291,2.367916,-0.018869,0.034191000046568915,0.011623892818282236,1.4268240993445918
96.2406015037594,0.5733413441473357,0.6089813111283896,-9.825701,0.531791,2.422116,0.02501,0.02626720524251466,0.015742869852988853,1.5357501852280204
97.24310776942356,0.5733414080263863,0.6089817635177318,-9.874657,0.300238,2.429314,0.062478,0.021031217486531674,0.015376350710070043,1.632039842980915
98.24561403508771,0.5733414357771215,0.6089822139872118,-9.943129,0.087531,2.412431,0.065308,0.019024088846738195,0.011030480872604163,1.7116618332700664
99.24812030075188,0.5733414312392654,0.6089826600933685,-9.999738,-0.089525,2.399828,0.043826,0.019146261894377795,0.005340707511102648,1.771735961403956
100.25062656641603,0.5733413986016085,0.6089831055013937,-10.02934,-0.222628,2.413708,0.01426,0.018448130193580062,-0.00047123889803846896,1.812437179186804
101.2531328320802,0.5733413471143954,0.6089835563199394,-10.022569,-0.309301,2.452178,-0.023103,0.023858650874762483,-0.004747295565424576,1.8335382098434154
102.25563909774435,0.5733412842825424,0.6089840167377961,-9.993622,-0.358775,2.495798,-0.026276,0.014852751934471744,-0.002478367537831948,1.8374826190463376
103.25814536340852,0.5733412163892345,0.6089844885002929,-9.977384,-0.383112,2.529951,-0.007221,0.015254177662430441,0.0008552113334772215,1.8268186573166523
104.26065162907267,0.5733411476232619,0.6089849658478433,-9.982837,-0.358534,2.559318,0.011219,-0.008237954069413234,0.00471238898038469,1.805054366637698
105.26315789473684,0.5733410840932771,0.6089854316762207,-10.008802,-0.404125,2.357562,0.025587,-0.057875117996131965,-0.009913470151327791,1.9500911925718416
106.265664160401,0.5733409865293719,0.6089858353708767,-9.992696,-0.730228,1.956888,-0.052018,0.12686798332746782,-0.018814649336498873,2.254267331689046
107.26817042606515,0.5733408917579936,0.6089861636673091,-9.945395,-0.995086,1.524242,-0.030179,0.11046188835872112,0.007958701389094143,2.532106138234391
108.27067669172932,0.5733407639998924,0.6089863973668959,-9.927596,-1.139978,1.133969,-0.004332,0.152053084433746,0.01408480706359424,2.762873571933081
109.27318295739347,0.5733405892924341,0.6089865495596065,-9.936645,-1.233615,0.768665,0.016288,0.12173671532660447,0.01579522973054868,2.96941583561409
110.27568922305764,0.5733403952118215,0.6089866406657937,-9.950048,-1.2979,0.436753,0.013049,0.02871066619530672,0.00952949771588904,3.1520820474876943
111.27819548872179,0.5733401903101673,0.6089866785394383,-9.956655,-1.34928,0.16375,-0.000667,0.07038912873293132,0.00047123889803846896,3.310749982146376
112.28070175438596,0.5733399735402741,0.608986669812792,-9.946594,-1.389415,-0.08403,-0.009232,0.016458454846306526,-0.004136430327226561,3.453779574720971
113.28320802005013,0.5733397503126628,0.6089866235615669,-9.944637,-1.389949,-0.310441,0.013009,0.041887902047863905,-0.0077492618788548235,3.580141517285116
114.28571428571428,0.5733395267359855,0.6089865336771104,-9.969217,-1.371348,-0.56206,0.026493,0.027611108766550294,-0.012880529879718152,3.692174306690387
115.28822055137844,0.5733393061263682,0.6089864003339556,-9.979989,-1.347446,-0.792096,-0.014529,0.04560545335461183,-0.019355701404617114,3.7755661383506762
116.2907268170426,0.5733390898800739,0.6089862273718266,-9.952138,-1.336776,-0.961834,-0.035155,0.027663468644110123,-0.016598081186466072,3.8311023755227955
117.29323308270676,0.5733388738083125,0.6089860200267115,-9.917198,-1.35003,-1.093716,-0.03446,0.018814649336498873,-0.013997540600994524,3.8600573180002113
118.29573934837092,0.5733386544204254,0.6089857926103099,-9.893602,-1.380627,-1.198661,-0.016325,0.016650441064025905,-0.011798425743481668,3.8633037176753833
119.29824561403508,0.5733384273530898,0.608985549835011,-9.880207,-1.443041,-1.267146,-0.021478,0.007051130178057092,-0.012915436464758038,3.8381885170056473
120.30075187969925,0.5733381896392458,0.6089853007765267,-9.856633,-1.533645,-1.262354,-0.028964,0.002530727415391778,-0.009756390518648303,3.7884116394723066
121.3032581453634,0.5733379377882347,0.6089850583502937,-9.838496,-1.63241,-1.196546,-0.007195,-0.0026529004630313807,-0.0034557519189487725,3.7203090142325355
122.30576441102757,0.5733376700547274,0.6089848304102934,-9.849096,-1.734611,-1.117959,0.012918,-0.002722713633111154,6.981317007977319e-05,3.6404599915142843
123.30827067669172,0.5733373864387239,0.6089846249850404,-9.842171,-1.840649,-0.984395,-0.036184,-0.009128071987930343,-0.0006457718232379018,3.5505231751590167
124.31077694235589,0.5733370855439609,0.6089844560371688,-9.796548,-1.955956,-0.756245,-0.044535,-0.02361430477948328,0.007976154681614086,3.4559964046703917
125.31328320802004,0.5733367673704381,0.6089843288026664,-9.783828,-2.04555,-0.56044,0.024321,-0.007435102613495843,0.0153588974175501,3.3738437393257263
126.3157894736842,0.5733364350597486,0.6089842378710124,-9.837237,-2.115888,-0.436076,0.069479,0.0016057029118347831,0.013648474750595658,3.3028435882749645
127.31829573934836,0.5733360910553531,0.6089841741664946,-9.893367,-2.165506,-0.305399,0.034777,-0.011030480872604163,0.005881759579220891,3.235526343745298
128.32080200501252,0.573335741291371,0.6089841354201853,-9.906811,-2.200229,-0.128328,-0.006265,-0.020263272615654165,0.00466002910282486,3.1740206267457527
129.32330827067668,0.5733353871640657,0.608984126693539,-9.893902,-2.227598,0.049805,-0.011374,-0.025028021473598686,0.0070685834705770355,3.128066194807204
130.32581453634086,0.5733350288479703,0.6089841507790827,-9.897214,-2.25675,0.16546,0.015972,-0.009075712110370514,0.009791297103688189,3.1009088716461726
131.328320802005,0.5733346659940187,0.6089841958085774,-9.919219,-2.289011,0.219911,0.017431,-0.01382300767579509,0.007173303225696694,3.087923831450845
132.33082706766916,0.57333429912581,0.60898425026285,-9.937006,-2.315097,0.243067,0.014098,-0.013072516097437528,0.006841690667817772,3.085445498819598
133.33333333333331,0.5733339266725477,0.6089843017500629,-9.949805,-2.33924,0.246323,0.00671,-0.010367255756846317,0.0064228116473391324,3.0926360284450123
134.3358395989975,0.5733335509031596,0.6089843523646112,-9.961557,-2.357145,0.241109,0.020418,-0.012007865253720986,0.007347836150896127,3.1078378811364678
135.33834586466165,0.5733331726903108,0.6089843966959743,-9.99409,-2.373805,0.20937,0.037841,-0.005427973973702365,0.00471238898038469,3.1278568600167205
136.3408521303258,0.5733327948265278,0.608984434569619,-10.02879,-2.345935,0.172344,0.023641,0.0006806784082777885,-0.0002617993877991494,3.165747783544592
137.34335839598998,0.5733324431426835,0.6089844485322531,-10.035367,-2.048757,-0.109702,-0.033818,-0.0072082098107365804,-0.02588323280707591,3.4059225768181167
138.34586466165413,0.573332145564046,0.6089843848277354,-9.968295,-1.693074,-0.55845,-0.077205,0.11018263567840202,-0.016598081186466072,3.7089991061466874
139.34837092731829,0.5733319225109677,0.6089843092549787,-9.911416,-1.320171,-0.867346,-0.031618,0.05963790054064624,0.003612831551628262,3.963537906804248
140.35087719298244,0.5733317622897424,0.6089841504300169,-9.888737,-0.967193,-1.084808,-0.021139,0.0593761011528471,0.001186823891356144,4.187323866415328
141.35338345864662,0.5733316514613348,0.6089839326129262,-9.882004,-0.646661,-1.245554,0.003056,0.06366961111275314,0.004049163864626845,4.382050477953138
142.35588972431077,0.5733315835680269,0.6089836879177651,-9.898582,-0.36478,-1.37432,0.027728,0.03344050846821135,0.0006981317007977319,4.554209999715954
143.35839598997492,0.5733315558172918,0.6089834166935993,-9.919277,-0.095093,-1.497411,0.009743,0.038467056713955027,-0.006719517620178169,4.710189743354129
144.36090225563908,0.5733315664638001,0.6089831250490813,-9.909671,0.167155,-1.572243,-0.025046,0.04862487296056202,-0.009983283321407565,4.851229695488036
145.36340852130326,0.5733316148094205,0.6089828217108574,-9.878524,0.428531,-1.587407,-0.023633,0.03768165855055757,-0.0057421332390613445,4.977504528669213
146.3659147869674,0.573331702599482,0.6089825157546395,-9.867342,0.659922,-1.596709,0.00177,0.0324107642095347,-0.0028099800957108708,5.083062129096293
147.36842105263156,0.5733318245979966,0.6089822115437509,-9.863147,0.856483,-1.609093,-0.010315,0.036791540632040466,-0.004310963252425994,5.160572358256994
148.37092731829574,0.5733319771397731,0.6089819066347304,-9.861039,1.037362,-1.610123,0.016175,0.026686084262993296,-0.0012217304763960308,5.211954327836932
149.3734335839599,0.5733321556869556,0.6089815947443931,-9.890321,1.157437,-1.678875,0.028385,0.01223475805648025,-0.0044156830075456534,5.228988968229198
150.37593984962405,0.5733323495930356,0.6089812713348828,-9.888512,1.223145,-1.756473,-0.034778,0.011920598791121272,-0.011606439525762293,5.2180636085374426
151.3784461152882,0.5733325525748276,0.6089809362316663,-9.841555,1.245184,-1.804123,-0.042283,0.012950343049797926,-0.00486946861306418,5.181306136732402
152.38095238095238,0.5733327513678295,0.608980589260211,-9.815995,1.190756,-1.87692,-0.008725,0.002007128639793479,0.002408554367752175,5.11714846174762
153.38345864661653,0.5733329361981973,0.6089802291987864,-9.819124,1.07272,-1.972827,0.014942,-0.001117010721276371,0.006789330790257942,5.0347337352157675
154.38596491228068,0.573333097815686,0.6089798553492606,-9.84271,0.922406,-2.080104,0.024155,0.0021467549799530253,0.006649704450098395,4.944936737186877
155.38847117794487,0.5733332320315053,0.6089794609048497,-9.850034,0.746257,-2.158295,-0.009613,-0.015707963267948967,0.004310963252425994,4.854581006904545
156.39097744360902,0.5733333346568654,0.6089790558139302,-9.840961,0.55099,-2.187403,0.007383,-0.020507618710933373,0.010890854532444616,4.767680993634578
157.39348370927317,0.5733334056917659,0.6089786442652927,-9.868245,0.355612,-2.23225,0.038862,-0.002495820830351891,0.012514010736799343,4.691217909665196
158.39598997493732,0.5733334440890095,0.6089782264334697,-9.893028,0.182429,-2.26969,-0.000558,-0.01265363707695889,0.0056374134839416844,4.628072228940599
159.3984962406015,0.5733334542119192,0.6089778030165932,-9.8841,0.037454,-2.260022,-0.000497,-0.015236724369910496,0.010210176124166827,4.578329716940229
160.40100250626566,0.5733334437399437,0.6089773776798545,-9.91244,-0.070526,-2.285018,0.046912,-0.004363323129985824,0.011484266478122689,4.546530498647301
161.4035087719298,0.5733334189562682,0.608976947107128,-9.954054,-0.140042,-2.333625,0.021163,-0.011274826967883369,0.0030019663134302466,4.530158978651037
162.406015037594,0.5733333840496833,0.6089765093785515,-9.95343,-0.187736,-2.348982,-0.020898,-0.00947713783832921,0.0022689280275926286,4.523282713010737
163.40852130325814,0.5733333435580447,0.6089760653667898,-9.930052,-0.22188,-2.344969,-0.018691,-0.009145525280450288,0.00799360797413403,4.525970362979176
164.4110275689223,0.5733332995757474,0.6089756246711537,-9.935957,-0.233201,-2.349986,0.037395,-0.015760323145508796,0.012950343049797926,4.539199888896123
165.41353383458645,0.5733332578623783,0.6089751804848591,-9.991031,-0.194762,-2.405868,0.053874,0.002495820830351891,0.006614797865058509,4.562535028261749
166.41604010025063,0.5733332252247213,0.6089747265247207,-10.017722,-0.123633,-2.455911,-0.003819,0.010559241974565694,-0.00307177948351002,4.587615619052419
167.41854636591478,0.573333202709974,0.6089742685503249,-9.987075,-0.086597,-2.377538,-0.045614,0.0530929158456675,-0.001832595714594046,4.599239250071312
168.42105263157893,0.5733331870020106,0.6089738378030655,-9.951062,-0.062444,-2.183883,0.002411,-0.06188937527571892,0.011955505376161158,4.661983871587094
169.4235588972431,0.5733331988702496,0.6089734485946423,-9.97398,0.270668,-1.967818,0.006546,-0.0015533430342749533,-0.020821777976292352,4.9195072725320275
170.42606516290726,0.5733332686834197,0.6089731237888686,-9.961303,0.719535,-1.67633,-0.029486,0.11810643048245628,-0.01069886831472524,5.221518801951031
171.42857142857142,0.5733333779410309,0.6089728539609662,-9.929188,1.151966,-1.459116,-0.026919,0.1185951226730147,0.007714355293814937,5.4163498016314024
172.43107769423557,0.5733335592807401,0.6089726068223441,-9.899834,1.367126,-1.376353,-0.033763,0.08763298174263529,0.005811946409141118,5.4655511742971905
173.43358395989975,0.5733338039759013,0.6089723701556976,-9.869044,1.495785,-1.35568,-0.023931,-0.003787364476827695,0.002827433388230814,5.4691112969054085
174.4360902255639,0.573334070487678,0.6089721326163864,-9.863786,1.58852,-1.382323,0.013278,0.023387411976724018,0.00027925268031909274,5.464399099911241
175.43859649122805,0.5733343373485207,0.6089718757039205,-9.89564,1.639839,-1.446013,0.033881,0.0019896753472735357,-0.0069638637154573755,5.4639974821970645
176.44110275689223,0.5733346024640341,0.608971603781623,-9.904672,1.640224,-1.448759,-0.026152,-0.008342673824532895,-0.017243853009703977,5.46804655879523
177.4436090225564,0.5733348644379548,0.6089713320338584,-9.84382,1.64225,-1.387747,-0.085167,0.011833332328521556,-0.01551597705022959,5.47244503285635
178.44611528822054,0.573335120477756,0.6089710744232608,-9.769207,1.635646,-1.322523,-0.046056,0.007958701389094143,-0.0004188790204786391,5.472549438452205
179.4486215538847,0.5733353737250305,0.6089708300771656,-9.765224,1.622258,-1.327906,0.030327,-0.0020245819323134223,0.008918632477691025,5.466755451481067
180.45112781954887,0.5733356236561795,0.6089705871273337,-9.797234,1.601259,-1.349097,0.018507,-0.008063421144213804,0.005323254218582705,5.461484522233459
181.45363408521303,0.5733358714929332,0.6089703410359091,-9.798654,1.584705,-1.320952,-0.009609,-0.00012217304763960306,0.004241150082346221,5.460925789980017
182.45614035087718,0.5733361161880943,0.6089700952935504,-9.796014,1.56907,-1.294828,0.008712,-0.003246312408709453,0.00926769832808989,5.459738564662934
183.45864661654133,0.5733363577416628,0.6089698542635807,-9.811779,1.554416,-1.288548,0.019694,-0.004468042885105484,0.011431906600562858,5.4577491860216325
184.4611528822055,0.5733365975499021,0.6089696172478684,-9.826281,1.533825,-1.281621,0.006746,-0.0032114058236695662,0.010402162341886203,5.45586471912167
185.46365914786966,0.5733368340420156,0.6089693809302876,-9.825944,1.507577,-1.260905,-0.005391,-0.002722713633111154,0.010105456369047167,5.453612755694406
186.46616541353382,0.573337066519872,0.6089691482778984,-9.823631,1.499135,-1.231515,0.005028,0.0022689280275926286,0.013247049022636962,5.452059063594281
187.468671679198,0.5733372982995967,0.6089689213850956,-9.84315,1.493524,-1.21362,0.032306,-0.0014311699866353504,0.01520181778487061,5.450244392411105
188.47117794486215,0.5733375281594592,0.6089686979829514,-9.887387,1.470957,-1.217362,0.049563,-0.004694935687864747,0.012740903539558606,5.446527155263622
189.4736842105263,0.5733377538305314,0.608968470392017,-9.929387,1.439128,-1.231341,0.027606,-0.0074176493209759005,0.006667157742618339,5.44317582639382
190.47619047619045,0.573337976709077,0.6089682415793519,-9.936431,1.423458,-1.21373,-0.011869,-0.0006632251157578452,0.0012217304763960308,5.44410100797701
191.47869674185463,0.5733381967950957,0.6089680180026747,-9.916476,1.424101,-1.170104,-0.01833,0.0025132741228718345,0.003159045946109736,5.446997992735933
192.4812030075188,0.5733384163575155,0.6089678008837158,-9.907012,1.415796,-1.146553,-0.001637,-8.726646259971648e-05,0.006544984694978736,5.445497044485803
193.48370927318294,0.5733386340000732,0.6089675888262117,-9.912085,1.391394,-1.144474,0.010154,-0.003996803987067015,0.008779006137531478,5.440068983245638
194.48621553884712,0.5733388488501042,0.6089673767687076,-9.93199,1.36957,-1.152238,0.026934,-0.003787364476827695,0.008464846872172497,5.435269432522409
195.48872180451127,0.5733390598604108,0.6089671620932096,-9.962547,1.356348,-1.134807,0.026958,-0.0026354471705114374,0.003193952531149623,5.426542786262437
196.49122807017542,0.5733392626676699,0.6089669563188909,-9.981338,1.263421,-1.101165,0.011642,0.051015974035794255,-0.0024609142453120045,5.304509295149823
197.49373433583958,0.5733394434837803,0.6089667400725964,-9.984433,1.064003,-1.194857,0.001816,0.10910053154216555,-0.006579891280018622,5.09325457267526
198.49624060150376,0.5733396007379459,0.6089665400578641,-9.967673,0.772351,-1.288677,-0.039189,0.03614576880880257,-0.01733111947230369,4.862748920911075
199.4987468671679,0.5733397085992937,0.6089663182265161,-9.926287,0.45469,-1.354772,-0.038855,-0.001954768762233649,-0.010402162341886203,4.643849865752287
200.50125313283206,0.5733397585157103,0.6089660730077563,-9.894576,0.146442,-1.400655,-0.020115,0.02949606435870417,-0.0004014257279586958,4.461846774274687
201.50375939849624,0.5733397543269202,0.6089658174915539,-9.885842,-0.141351,-1.416461,0.002823,-0.001064650843716541,0.005480333851262195,4.309933682700243
202.5062656641604,0.5733397016179768,0.608965553597771,-9.908371,-0.393023,-1.415226,0.029375,0.031223940318178555,0.006579891280018622,4.178632371086492
203.50877192982455,0.5733396098136581,0.6089652888313234,-9.936911,-0.629079,-1.383342,0.018561,0.0562345084992573,0.002478367537831948,4.061433319828854
204.5112781954887,0.5733394836263531,0.6089650313952587,-9.943145,-0.852338,-1.325678,-0.002255,0.050178215994836975,0.0008552113334772215,3.963171457474499
205.51378446115288,0.5733393248013912,0.6089647839075708,-9.935205,-1.050588,-1.266551,-0.002817,0.04733332931408622,0.004136430327226561,3.8866737461727574
206.51629072681703,0.573339136131299,0.608964550382517,-9.934784,-1.19375,-1.191021,0.004869,0.043493604959698694,0.0074176493209759005,3.8309279298640586
207.51879699248119,0.5733389319277765,0.6089643336126239,-9.945158,-1.258213,-1.112066,0.020557,0.02727949620867137,0.010611601852125523,3.8076801267742018
208.52130325814534,0.57333872091747,0.6089641271401732,-9.976041,-1.275452,-1.097024,0.034299,0.029967303256742638,0.010122909661567111,3.822358415596644
209.52380952380952,0.5733385130487562,0.6089639231111836,-10.004107,-1.25094,-1.136522,0.016951,0.037088246604879506,0.006108652381980153,3.8676670408053693
210.52631578947367,0.5733383125104251,0.6089637117518113,-10.017166,-1.203043,-1.191842,0.011829,0.05089380098815465,0.006649704450098395,3.9339022510119688
211.52882205513782,0.5733381227931353,0.6089634839863439,-10.028971,-1.135107,-1.278546,0.011196,0.043545964837258526,0.0063006385996995295,4.020278421160243
212.531328320802,0.5733379468639467,0.6089632392911829,-10.037938,-1.028671,-1.374292,0.005863,0.04639085151800928,0.005358160803622592,4.1213158282641675
213.53383458646616,0.5733377906569788,0.6089629745247352,-10.046421,-0.880681,-1.480194,0.010139,0.05984734005088556,0.006824237375297829,4.23310413194782
214.5363408521303,0.5733376613280811,0.6089626886398039,-10.057507,-0.691588,-1.584374,0.01015,0.06265732014659643,0.00773180858633488,4.351594569772299
215.53884711779446,0.5733375651604393,0.6089623842543822,-10.068992,-0.479227,-1.661718,0.014496,0.06932447788921477,0.007330382858376184,4.470975020795541
216.54135338345864,0.573337505295646,0.6089620659063267,-10.08877,-0.253088,-1.712406,0.024759,0.06424556976591127,0.005864306286700947,4.589814856082978
217.5438596491228,0.5733374827808986,0.6089617390061578,-10.110408,-0.028639,-1.731738,0.017231,0.054960418145301435,0.0003839724354387525,4.704151288114664
218.54636591478695,0.5733374949982034,0.6089614122805219,-10.120812,0.169411,-1.717092,0.005024,0.05054473513775578,-0.0035779249665883754,4.811104907597244
219.54887218045113,0.5733375368861054,0.6089610913144724,-10.117903,0.343146,-1.672781,-0.012452,0.049113565151120434,-0.007051130178057092,4.913171622627533
220.55137844611528,0.5733376060011438,0.6089607832638594,-10.098799,0.515827,-1.599001,-0.021385,0.05366887449882564,-0.006876597252857658,5.010299230407602
221.55388471177943,0.5733377012961209,0.6089604907466768,-10.08625,0.695527,-1.517743,0.002106,0.04897393881096089,-0.0043982297150257105,5.0979145668715
222.55639097744358,0.5733378218983723,0.6089602135883915,-10.104746,0.826547,-1.450765,0.028697,0.03635520831904189,-0.00710349005561692,5.171829016347364
223.55889724310777,0.5733379608265807,0.608959948821944,-10.129442,0.907361,-1.389066,0.011147,0.02822197400474831,-0.014678219009272311,5.237087103972235
224.56140350877192,0.573338111797561,0.6089596957492025,-10.11951,0.975454,-1.308479,-0.032622,0.02757620218151041,-0.02001892652037496,5.297161633531852
225.56390977443607,0.5733382711461217,0.6089594597806876,-10.071441,1.049207,-1.20221,-0.057074,0.03750712562535814,-0.01837831702350029,5.351022459341812
226.56641604010025,0.5733384390467958,0.6089592440579921,-10.022096,1.110678,-1.106944,-0.036167,0.0415213829049451,-0.01075122819228507,5.391810908680674
227.5689223057644,0.5733386161977149,0.6089590442177928,-10.007273,1.148126,-1.050646,0.00238,0.028850292535466268,-0.006562437987498679,5.420818595008087
228.57142857142856,0.5733387991082205,0.6089588550241019,-10.023149,1.16417,-1.02452,0.018155,0.013159782560037244,-0.009128071987930343,5.444816872223009
229.5739348370927,0.5733389835895224,0.608958668099339,-10.033036,1.168028,-0.996556,-0.007379,0.01069886831472524,-0.015219271077390554,5.465847321764669
230.5764411027569,0.5733391675472256,0.6089584853633662,-10.011278,1.185671,-0.941595,-0.03423,0.026703537555513242,-0.01679006740418545,5.48401647853061
231.57894736842104,0.573339353250258,0.6089583111795069,-9.974639,1.211367,-0.89548,-0.036668,0.03171263250873697,-0.013107422682477415,5.495256608352964
232.5814536340852,0.5733395434911465,0.6089581453732279,-9.939023,1.216612,-0.874526,-0.035472,0.02525491427635795,-0.008709192967451705,5.499881451618069
233.58395989974937,0.5733397356518971,0.6089579861992003,-9.908354,1.214648,-0.859979,-0.024032,0.028501226685067403,-0.003351032163829113,5.503041021162954
234.58646616541353,0.5733399265909173,0.608957825628909,-9.898735,1.214607,-0.858762,0.001941,0.03082251459021986,0.001832595714594046,5.503616264231119
235.58897243107768,0.5733401171808715,0.6089576627896898,-9.909027,1.226165,-0.861658,0.012479,0.024015730507441973,0.0029321531433504737,5.504088183807565
236.59147869674183,0.573340309690688,0.6089574997759376,-9.921316,1.237452,-0.858779,0.007456,0.022375121010567305,0.0014660765716752368,5.504559021279876
237.593984962406,0.573340503771301,0.6089573364131197,-9.925118,1.232813,-0.856731,-0.003498,0.017278759594743863,3.490658503988659e-05,5.504437057671747
238.59649122807016,0.5733406980264466,0.6089571749701639,-9.91398,1.226885,-0.850975,-0.019446,0.021694442602289518,0.0005235987755982988,5.505135346452177
239.59899749373432,0.5733408908853289,0.6089570149234714,-9.892481,1.224252,-0.838134,-0.019451,0.029199358385865133,0.004258603374866164,5.506322048170485
240.6015037593985,0.5733410821734151,0.6089568578438387,-9.88628,1.225737,-0.830945,0.00709,0.02799508120198905,0.009948376736367677,5.507438448026524
241.60401002506265,0.573341273461501,0.6089567002406073,-9.907193,1.231602,-0.846287,0.025868,0.025743606466916362,0.011047934165124106,5.508799839749665
242.6065162907268,0.573341467367581,0.6089565393212503,-9.92808,1.244972,-0.858081,0.00773,0.019024088846738195,0.006981317007977318,5.513756522465451
243.60902255639095,0.57334166301899,0.6089563761329653,-9.92052,1.251232,-0.842362,-0.024441,0.01895427567665842,0.004223696789826277,5.520772885684808
244.61152882205513,0.5733418586703993,0.608956218006135,-9.892879,1.248537,-0.808744,-0.022531,0.027541295596470523,0.008045967851693859,5.527317870379787
245.6140350877193,0.5733420537982096,0.6089560649407595,-9.897343,1.24216,-0.809327,0.032502,0.030159289474462014,0.01403244718603441,5.531646566177413
246.61654135338344,0.5733422480533553,0.6089559099555221,-9.94961,1.242636,-0.843719,0.05495,0.019093902016817967,0.01090830782496456,5.539570535514392
247.6190476190476,0.5733424442283633,0.608955751479626,-9.979006,1.259565,-0.838983,-0.008921,0.016929693744344994,0.0010471975511965976,5.55396918768408
248.62155388471177,0.5733426421487005,0.6089555950981249,-9.936547,1.27423,-0.770786,-0.063208,0.03532546406036523,8.726646259971648e-05,5.569869329155966
249.62406015037593,0.5733428423379656,0.6089554507593957,-9.892236,1.283765,-0.724828,-0.011195,0.04623377188532979,0.011728612573401895,5.579520615947059
250.62656641604008,0.5733430440980273,0.6089553135765167,-9.922265,1.293148,-0.75949,0.054986,0.022916173078685546,0.014556045961632708,5.5858387078392795
251.62907268170426,0.5733432477779509,0.6089551708085837,-9.970987,1.29574,-0.794078,0.025126,0.0043982297150257105,0.00476474885794452,5.598352893109004
252.6315789473684,0.5733434519814734,0.608955020884801,-9.969174,1.299586,-0.765755,-0.027823,0.022602013813326566,-0.0006283185307179586,5.617359877729073
253.63408521303256,0.57334365583593,0.6089548735790121,-9.937008,1.311554,-0.713083,-0.028903,0.03649483465920143,0.0036477381366681488,5.635301600640187
254.63659147869672,0.5733438609121172,0.6089547390141268,-9.923076,1.323196,-0.684464,0.000703,0.030054569719342353,0.009302604913129777,5.649927669211409
255.6390977443609,0.5733440696534956,0.6089546130013548,-9.933963,1.331743,-0.67209,0.013924,0.023160519173964753,0.010471975511965976,5.664536179770357
256.64160401002505,0.5733442796166046,0.6089544896065767,-9.946497,1.34149,-0.657746,0.007537,0.02326523892908441,0.010088003076527224,5.679615527801615
257.64411027568923,0.5733444916741088,0.6089543658627328,-9.953335,1.361535,-0.644424,0.006626,0.02652900463031381,0.009704030641088473,5.693979552638943
258.64661654135335,0.5733447065241397,0.6089542442132839,-9.963117,1.373245,-0.638034,0.010915,0.019757127132575807,0.0075223690760955605,5.708308967597204
259.64912280701753,0.5733449222468353,0.6089541236110326,-9.96943,1.36619,-0.626796,-0.001873,0.01478293876439197,0.005567600313861911,5.725360642402971
260.6516290726817,0.5733451370968662,0.6089540066739727,-9.956613,1.366686,-0.594749,-0.022302,0.028989918875625815,0.006894050545377602,5.743773743838464
261.65413533834584,0.5733453517723641,0.6089538965436969,-9.937539,1.383901,-0.553285,-0.012027,0.037105699897399445,0.01096066770252439,5.75956895611572
262.65664160401,0.5733455683677244,0.6089537940928698,-9.940577,1.403139,-0.528998,0.015618,0.029670597283903602,0.013473941825396225,5.77250179351312
263.65914786967414,0.5733457900245393,0.6089536961798988,-9.962687,1.412824,-0.522251,0.022021,0.0199142067652553,0.011815879036001611,5.784300131990139
264.6616541353383,0.5733460132521507,0.6089535993141252,-9.981027,1.415635,-0.516298,0.011763,0.01715658654710426,0.008918632477691025,5.7974428277768
265.6641604010025,0.5733462359561632,0.6089535024483518,-9.987372,1.415563,-0.504133,-0.000805,0.022741640153486113,0.006492624817418906,5.812068390202539
266.66666666666663,0.5733464579620441,0.6089534062807099,-9.978541,1.409591,-0.487537,-0.015744,0.02946115777366428,0.0056199601914217415,5.827078483569078
267.6691729323308,0.5733466792697932,0.6089533143018585,-9.961258,1.412072,-0.462714,-0.014246,0.03049090203234094,0.009407324668249437,5.842280353713826
268.671679197995,0.5733469024974045,0.6089532282571263,-9.955997,1.436292,-0.429617,0.005598,0.0321315115292156,0.01329940890019679,5.856696563895789
269.6741854636591,0.5733471293902074,0.6089531488446454,-9.972617,1.454181,-0.408277,0.025796,0.021938788697568722,0.012880529879718152,5.868372938764679
270.6766917293233,0.5733473585519381,0.6089530720501583,-10.001024,1.450225,-0.415692,0.024529,0.01202531854624093,0.008429940287132611,5.879613068587032
271.6791979949875,0.573347587539136,0.6089529945575395,-10.012512,1.438011,-0.412994,-0.005514,0.018675022996339326,0.004153883619746504,5.89495393675341
272.6817042606516,0.5733478144319387,0.6089529181121183,-9.994122,1.439189,-0.371634,-0.026376,0.03576179637336381,0.005148721293383272,5.91265225604704
273.6842105263158,0.5733480402775439,0.6089528482989481,-9.974223,1.457211,-0.331957,-0.007738,0.03447025272688801,0.010053096491487338,5.925549942513306
274.68671679197996,0.5733482706610052,0.6089527858161609,-9.983271,1.476108,-0.321731,0.021813,0.018989182261698306,0.010454522219446033,5.9357077587599125
275.6892230576441,0.5733485036624604,0.6089527264749663,-10.010254,1.47343,-0.325663,0.025367,0.013316862192716735,0.005794493116621174,5.9478379366876135
276.69172932330827,0.5733487356167178,0.6089526657375084,-10.026404,1.460541,-0.321182,0.002862,0.019547687622336492,0.002530727415391778,5.96269037446282
277.6942355889724,0.5733489651275145,0.6089526043019187,-10.013577,1.464258,-0.295898,-0.027781,0.02968805057642355,0.0023911010752322315,5.978485586740076
278.69674185463657,0.57334919516191,0.6089525491495144,-9.980046,1.479065,-0.24894,-0.032397,0.033108895910332434,0.00466002910282486,5.993442971163205
279.69924812030075,0.5733494276397664,0.6089525042945526,-9.967027,1.484307,-0.214662,0.010822,0.028588493147667118,0.008290313946973065,6.004404005384873
280.7017543859649,0.5733496611648203,0.6089524639774468,-10.001888,1.482064,-0.22688,0.049101,0.016283921921107097,0.007958701389094143,6.013409747245531
281.70426065162906,0.573349895213473,0.6089524222640778,-10.043613,1.481188,-0.239824,0.022284,0.013142329267517301,0.0016057029118347831,6.026307433711796
282.70676691729324,0.5733501287385269,0.6089523777581818,-10.038213,1.485397,-0.213251,-0.028977,0.024975661596038857,-0.0019722220547535923,6.042189999718114
283.70927318295736,0.5733503622635808,0.6089523367429444,-9.995973,1.49129,-0.171606,-0.04643,0.032026791774095946,0.0002443460952792061,6.056746307479135
284.71177944862154,0.5733505959631676,0.6089523053270178,-9.95575,1.490241,-0.136303,-0.026859,0.02727949620867137,0.005899212871740834,6.06892867075147
285.7142857142857,0.5733508308844849,0.6089522826377376,-9.953016,1.489002,-0.121099,0.022655,0.022165681500327987,0.011135200627723822,6.078824443264182
286.71679197994985,0.5733510656312694,0.6089522599484573,-9.99968,1.494475,-0.137122,0.060845,0.016074482410867775,0.009756390518648303,6.0886504375134
287.719298245614,0.5733513015997842,0.6089522321977222,-10.053186,1.500488,-0.157283,0.033619,0.013439035240356337,0.0010471975511965976,6.102142548216309
288.72180451127815,0.5733515382664307,0.6089522004327298,-10.050722,1.499467,-0.128934,-0.036305,0.022287854547967587,-0.005288347633542819,6.120485871388307
289.72431077694233,0.5733517742349457,0.6089521768707848,-9.991906,1.495426,-0.059891,-0.066324,0.03494149162492648,-0.0016929693744344998,6.1384446287129215
290.7268170426065,0.5733520091562629,0.608952167271474,-9.93961,1.490267,-0.009539,-0.026991,0.034854225162326766,0.008133234314293577,6.150400622781273
291.72932330827064,0.5733522439030474,0.6089521670969411,-9.9466,1.493308,-0.014482,0.038204,0.021956241990088665,0.014259339988793671,6.158464148645241
292.7318295739348,0.573352480569694,0.6089521651770788,-10.002299,1.505952,-0.044517,0.060835,0.011554079648202462,0.010367255756846317,6.168499477684944
293.734335839599,0.573352718458071,0.608952155577768,-10.048512,1.51277,-0.049899,0.022773,0.014748032179352085,0.0013962634015954637,6.184033152373789
294.7368421052631,0.5733529570445798,0.6089521442331278,-10.042383,1.5055,-0.015636,-0.030385,0.024783675378319478,-0.003525565089028546,6.202498980205983
295.7393483709273,0.5733531942348251,0.608952141615134,-10.001075,1.49337,0.041385,-0.04063,0.032934362985133,-0.0011519173063162576,6.220597817656362
296.7418546365915,0.5733534282834777,0.6089521517380436,-9.973703,1.484162,0.084928,-0.006988,0.03363249468593073,0.005131268000863329,6.234577817698374
297.7443609022556,0.5733536619830647,0.6089521698894679,-9.987585,1.490648,0.087269,0.029557,0.023527038316883565,0.008866272600131194,6.24361872794346
298.7468671679198,0.5733538977770465,0.6089521845502336,-10.019217,1.506787,0.067363,0.027525,0.015428710587629874,0.005323254218582705,6.25424739911567
299.74937343358397,0.5733541354908908,0.6089521964184724,-10.033646,1.510507,0.066662,0.000504,0.014416419621473161,-0.0005235987755982988,6.270426636188242
300.7518796992481,0.573354372681136,0.6089522074140468,-10.022141,1.496991,0.102932,-0.019624,0.024905848425959082,-0.0017976891295541594,0.006876597252857658
301.7543859649123,0.5733546072533875,0.6089522266126686,-10.001268,1.488441,0.150245,-0.016797,0.03103195410045918,0.0020594885173533086,0.023352505391684132
302.7568922305764,0.5733548407784415,0.6089522557596672,-9.992898,1.490958,0.178656,0.002629,0.024085543677521744,0.004485496177625427,0.03558726344816438
303.7593984962406,0.5733550746525612,0.6089522913643838,-10.005486,1.488597,0.176855,0.021414,0.017872171540421936,0.0040666171571467884,0.04799655442984406
304.76190476190476,0.5733553093993455,0.6089523250492385,-10.025272,1.487584,0.166936,0.013125,0.016650441064025905,0.0025132741228718345,0.06258750697651666
305.7644110275689,0.573355543971597,0.6089523566396979,-10.023544,1.488283,0.195028,-0.015028,0.026040312439755398,0.000593411945678072,0.07922049474802262
306.76691729323306,0.5733557781947827,0.6089523931170792,-10.003484,1.483487,0.249096,-0.016412,0.029967303256742638,0.001710422666954443,0.0956614963018092
307.76942355889724,0.5733560111962378,0.6089524400664361,-9.997059,1.478592,0.274162,0.005936,0.023177972466484696,0.004468042885105484,0.10857693276656724
308.77192982456137,0.57335624402316,0.6089524929499125,-10.007746,1.479717,0.267688,0.013506,0.017889624832941875,0.004171336912266448,0.11979939985689078
309.77443609022555,0.5733564763264835,0.6089525444371253,-10.016916,1.476645,0.268389,0.005188,0.019285888234537342,0.0012915436464758037,0.1334653279000064
310.77694235588973,0.573356708280741,0.608952594179009,-10.016984,1.467235,0.287647,-0.004937,0.02473131550075965,0.0006108652381980154,0.14896385165771603
311.77944862155385,0.5733569390132681,0.608952648109683,-10.00747,1.463546,0.321578,-0.011524,0.026145032194875056,0.0029321531433504737,0.1639213233473074
312.78195488721803,0.5733571692221966,0.6089527097198055,-9.996462,1.465082,0.359778,-0.006763,0.0256388867117967,0.0038746309394274117,0.1773079812568114
313.7844611528822,0.5733573987329931,0.6089527783112452,-9.996144,1.455199,0.375464,0.009394,0.018238690683340743,0.0023911010752322315,0.18884462506578648
314.78696741854634,0.5733576266729934,0.6089528482989481,-10.013505,1.445317,0.361803,0.024854,0.016336281798666925,0.0027925268031909274,0.2003986872606964
315.7894736842105,0.5733578544384608,0.6089529158431901,-10.033067,1.456427,0.349353,0.009707,0.0216071761396898,0.0021467549799530253,0.2143438854374236
316.79197994987464,0.5733580846473892,0.6089529800713067,-10.023815,1.469185,0.37269,-0.025681,0.02106612407157156,-0.0007330382858376184,0.2317273473339946
317.7944862155388,0.5733583155544493,0.6089530507571413,-9.987161,1.454932,0.429673,-0.037363,0.025342180738957665,-0.0009948376736367678,0.24961698962022902
318.796992481203,0.5733585434944496,0.6089531324385504,-9.959855,1.419742,0.476036,-0.011255,0.024801128670839424,0.003787364476827695,0.2641206582510094
319.79949874686713,0.5733587651512646,0.6089532249410007,-9.968285,1.402759,0.484126,0.025873,0.025621433419276758,0.00895353906273091,0.27431338108265624
320.8020050125313,0.5733589854118162,0.608953317617984,-10.001802,1.417351,0.472172,0.035163,0.02282890661608583,0.007906341511534314,0.28349383040143894
321.8045112781955,0.5733592088139604,0.6089534054080454,-10.030918,1.435025,0.466545,0.022816,0.01816887751326097,0.0022514747350726853,0.29569369932617184
322.8070175438596,0.5733594364048948,0.6089534907546458,-10.043745,1.437671,0.475713,0.005983,0.01710422666954443,-0.002478367537831948,0.3120474169640662
323.8095238095238,0.5733596643448952,0.6089535785447071,-10.034257,1.424819,0.495057,-0.022541,0.020053833105414847,-0.004572762640225144,0.3314554607929506
324.812030075188,0.573359888445171,0.6089536719198222,-9.99493,1.399033,0.527369,-0.049037,0.027139869868511822,-0.0027052603405912107,0.35021776770518215
325.8145363408521,0.5733601067858606,0.6089537722762541,-9.945918,1.373216,0.578526,-0.040118,0.03385938748868999,0.0042935099599060505,0.36568138487785196
326.8170426065163,0.5733603214613585,0.6089538850245239,-9.925878,1.365382,0.628363,0.003186,0.031485739705977706,0.012356931104119853,0.3755075711132875
327.8195488721804,0.5733605354387249,0.6089540064994398,-9.954654,1.371259,0.636218,0.049509,0.015254177662430441,0.013788101090755204,0.3824016391119576
328.8220551378446,0.5733607513359533,0.6089541264035594,-10.018552,1.382772,0.597343,0.069097,0.005235987755982988,0.007086036763096978,0.3917042265717949
329.82456140350877,0.5733609702002416,0.6089542361847694,-10.075399,1.384354,0.555525,0.03764,0.013962634015954637,-0.002129301687433082,0.4070980654809699
330.8270676691729,0.5733611897626614,0.6089543367157342,-10.078189,1.377997,0.564282,-0.029127,0.0291469985083053,-0.005532693728822024,0.4274311338134113
331.8295739348371,0.5733614072306862,0.6089544405628248,-10.016757,1.365516,0.636014,-0.07983,0.03612831551628262,-0.0021118483949131386,0.4479736591093846
332.83208020050125,0.5733616213825854,0.6089545625613395,-9.935807,1.338935,0.721999,-0.066607,0.0313635666583381,0.004921828490624009,0.464606629427598
333.8345864661654,0.5733618308220956,0.6089547048056735,-9.902274,1.307896,0.761738,0.002429,0.022741640153486113,0.012007865253720986,0.4749564318919244
334.83709273182956,0.5733620355492169,0.6089548540313245,-9.943091,1.294291,0.741954,0.068394,0.018099064343181197,0.015184364492350668,0.48153634062523554
335.83959899749374,0.5733622388800748,0.6089549945303294,-10.025831,1.314003,0.694094,0.083276,0.017243853009703977,0.010995574287564275,0.49001864078992796
336.84210526315786,0.5733624476214533,0.6089551207176342,-10.089309,1.34761,0.661121,0.037284,0.019198621771937627,0.0008552113334772215,0.5052030227355712
337.84461152882204,0.5733626610752208,0.6089552394000234,-10.085244,1.34867,0.679247,-0.040272,0.02181661564992912,-0.008412486994612669,0.5271941364041146
338.8471177944862,0.5733628734817908,0.6089553661109272,-10.016335,1.300559,0.754147,-0.081809,0.03436553297176835,-0.006161012259539983,0.5496565064239891
339.84962406015035,0.5733630769871816,0.6089555114968538,-9.941555,1.252251,0.840418,-0.053667,0.034016467121369486,0.0055152404363020815,0.5646314314061005
340.8521303258145,0.5733632715913931,0.608955674510606,-9.919782,1.239715,0.869069,0.012455,0.022392574303087248,0.013857914260834978,0.5717524620207
341.85463659147865,0.5733634635776109,0.6089558411895495,-9.965652,1.25173,0.831212,0.072511,0.006562437987498679,0.012409290981679682,0.5786988375370524
342.85714285714283,0.5733636594035529,0.6089559972219847,-10.047474,1.267287,0.773148,0.077128,0.01398008730847458,0.005166174585903215,0.59018306910859
343.859649122807,0.5733638604654828,0.608956138419121,-10.095082,1.274933,0.762953,0.009796,0.028797932657906436,-0.0012566370614359172,0.6081251061789693
344.86215538847114,0.573364062923676,0.6089562782199942,-10.058027,1.265693,0.823388,-0.070312,0.03426081321664869,-0.0033335788713091696,0.628946831795384
345.8646616541353,0.5733642624148095,0.6089564344269622,-9.973253,1.234058,0.90303,-0.077779,0.029321531433504737,-0.0004886921905584122,0.6470808376301902
346.8671679197995,0.5733644554482248,0.6089566061673606,-9.924381,1.191343,0.937377,-0.011474,0.022165681500327987,0.006161012259539983,0.6605722152948138
347.8696741854636,0.5733646401040596,0.6089567855872078,-9.95051,1.174295,0.918675,0.054015,0.018867009214058702,0.01223475805648025,0.6710267200609673
348.8721804511278,0.5733648238872299,0.6089569583748037,-10.011969,1.197194,0.890546,0.053993,0.018500490071139894,0.010262536001726658,0.6821619206886912
349.874686716792,0.5733650129063879,0.6089571229593521,-10.043196,1.21371,0.886796,0.006982,0.02012364627549462,0.0020420352248333657,0.6979396796734274
350.8771929824561,0.573365204019941,0.6089572875439007,-10.02481,1.19347,0.91331,-0.035002,0.026860617188192732,-0.0012915436464758037,0.7167543813698037
351.8796992481203,0.5733653923409673,0.608957459458832,-9.980145,1.158569,0.963245,-0.044921,0.031206487025658612,0.003612831551628262,0.7346265354569332
352.88220551378447,0.5733655745533413,0.608957643416535,-9.94291,1.13377,1.008952,-0.021265,0.025429447201557383,0.00986111027376796,0.7490255017858864
353.8847117794486,0.5733657508315957,0.6089578374971479,-9.943704,1.126081,1.015926,0.024491,0.01658062789394613,0.01207767842380076,0.7603003287537698
354.8872180451128,0.5733659269353171,0.6089580294833656,-9.984418,1.128234,0.984813,0.049456,0.010629055144645466,0.01001818990644745,0.7724129312159029
355.8897243107769,0.5733661042607692,0.6089582137901347,-10.024902,1.128277,0.966243,0.025819,0.02356194490192345,0.007539822368615503,0.7868991291008709
356.8922305764411,0.5733662803644908,0.6089583921627842,-10.022664,1.107308,0.978446,-0.031542,0.018395770316020233,0.009093165402890457,0.7966555370728118
357.89473684210526,0.5733664608315353,0.6089585824036726,-9.974963,1.16377,1.106426,-0.028452,0.12491321456523416,0.08909905831431053,0.8056090237756651
358.8972431077694,0.5733666463600348,0.6089587991735658,-10.01537,1.190407,1.195435,0.138038,-0.018971728969178363,0.2001892652037496,0.871023981593705
359.89974937343356,0.5733668320630673,0.6089590382836734,-10.219828,1.099581,1.284385,0.267302,-0.07269296334556383,0.22516492679978845,1.0286970436721654
360.90225563909775,0.5733670081667888,0.6089592925781453,-10.504886,0.963826,1.413275,0.307204,0.08504989444968368,0.23164009832468743,1.206964973470866
361.90476190476187,0.5733671612321641,0.6089595568209941,-10.833857,0.784631,1.563488,0.366691,0.02546435378659727,0.2562492407778075,1.3314244896970444
362.90726817042605,0.5733672867213374,0.6089598489891108,-11.207402,0.67757,1.694828,0.394033,0.05969026041820607,0.26853635871184756,1.3624039792001885
363.90977443609023,0.5733673849833744,0.6089601835687284,-11.60762,0.648396,1.827939,0.426336,0.041032690714386685,0.2776644132464854,1.34896499631971
364.91228070175436,0.5733674739951661,0.6089605492152068,-12.05025,0.670473,1.953462,0.476465,0.013107422682477415,0.2787465522893069,1.3278465298238709
365.91478696741854,0.5733675729553347,0.6089609373764324,-12.544397,0.715078,2.052433,0.525587,0.022497294058206906,0.26534240618069793,1.3116148281539837
366.91729323308266,0.5733676855290715,0.6089613421182858,-13.063982,0.763867,2.12972,0.517937,0.013020156219877699,0.2239431788700999,1.3023471647324787
367.91979949874684,0.5733678099710471,0.6089617573321149,-13.546111,0.808142,2.187307,0.450916,0.008290313946973065,0.17034411754135406,1.29578486637132
368.922305764411,0.5733679426160704,0.6089621769092672,-13.942421,0.841949,2.235093,0.348876,0.013735741213195374,0.11801916401985656,1.2899903558014063
369.92481203007515,0.5733680797989494,0.6089626025950717,-14.234015,0.86897,2.283613,0.242346,0.012897983172238095,0.0752236907609556,1.2851033291760672
370.9273182957393,0.5733682202979542,0.6089630378801871,-14.431517,0.888789,2.33652,0.158863,0.010943214410004447,0.04536110725933263,1.2824504112597432
371.9298245614035,0.5733683627168212,0.6089634832882123,-14.563185,0.908167,2.386818,0.109322,0.003560471674068432,0.028850292535466268,1.2804607708190547
372.93233082706763,0.5733685072300834,0.6089639372483506,-14.658004,0.928945,2.425039,0.083124,0.0013264502315156904,0.02045525883337354,1.2792566158082264
373.9348370927318,0.5733686566302673,0.6089643988879379,-14.732349,0.954944,2.447968,0.065527,0.0018849555921538759,0.0165282680163863,1.2776857496682614
374.937343358396,0.5733688091720438,0.6089648614001896,-14.789021,0.979919,2.46161,0.047416,-0.002897246558310587,0.014241886696273728,1.274421914153862
375.9398496240601,0.5733689667752753,0.6089653246105731,-14.827601,1.001204,2.475792,0.030719,0.0004188790204786391,0.013700834628155488,1.2701459447529384
376.9423558897243,0.5733691256002372,0.608965791486148,-14.852507,1.011711,2.496625,0.020864,-0.0029845130209103037,0.014381513036433275,1.2663934170479805
377.9448621553885,0.5733692868686602,0.6089662625505131,-14.874535,1.011528,2.513975,0.023531,-0.0015184364492350666,0.014486232791552934,1.2652764935931666
378.9473684210526,0.5733694458681551,0.6089667351856746,-14.902072,1.006105,2.514973,0.030472,-0.0030019663134302466,0.013561208287995941,1.2663410920770057
379.9498746867168,0.5733696052167156,0.608967207820836,-14.934231,1.006238,2.510089,0.03202,-0.0010122909661567112,0.011135200627723822,1.2671264553338182
380.9523809523809,0.5733697635180789,0.6089676762672072,-14.96527,1.016608,2.49725,0.029798,0.00015707963267948965,0.008447393579652554,1.265363707695889
381.9548872180451,0.5733699240883702,0.6089681396521236,-14.991571,1.033709,2.482705,0.02371,-0.008552113334772215,0.005969026041820607,1.2613145089246771
382.95739348370927,0.5733700881493198,0.6089686019898425,-15.010048,1.051313,2.471648,0.013193,0.00017453292519943296,0.0035953782591083188,1.2573526464292348
